[
  {
    "id": 3041732,
    "name": "Mariehamn",
    "lat": 60.09726,
    "lng": 19.93481
  },
  {
    "id": 630705,
    "name": "Ytterby",
    "lat": 60.16667,
    "lng": 20.01667
  },
  {
    "id": 13527044,
    "name": "Yomala",
    "lat": 60.16689,
    "lng": 19.93341
  },
  {
    "id": 3041760,
    "name": "Jomala",
    "lat": 60.14902,
    "lng": 19.951
  },
  {
    "id": 3041666,
    "name": "Tjudö",
    "lat": 60.33333,
    "lng": 19.95
  },
  {
    "id": 3041798,
    "name": "Finström",
    "lat": 60.26667,
    "lng": 19.93333
  },
  {
    "id": 648382,
    "name": "Lemland",
    "lat": 60.07178,
    "lng": 20.08472
  },
  {
    "id": 637878,
    "name": "Saltvik",
    "lat": 60.28333,
    "lng": 20.05
  },
  {
    "id": 3041776,
    "name": "Hammarland",
    "lat": 60.21667,
    "lng": 19.75
  },
  {
    "id": 659823,
    "name": "Godby",
    "lat": 60.22995,
    "lng": 19.9881
  },
  {
    "id": 3041807,
    "name": "Eckerö",
    "lat": 60.21249,
    "lng": 19.61442
  },
  {
    "id": 635815,
    "name": "Sund",
    "lat": 60.25,
    "lng": 20.11667
  },
  {
    "id": 660567,
    "name": "Bomarsund",
    "lat": 60.21234,
    "lng": 20.24023
  },
  {
    "id": 659949,
    "name": "Föglö",
    "lat": 60.01392,
    "lng": 20.41377
  },
  {
    "id": 660521,
    "name": "Brändö",
    "lat": 60.41165,
    "lng": 21.04534
  }
]