[
  {
    "id": 2800866,
    "name": "Brussels",
    "lat": 50.85045,
    "lon": 4.34878
  },
  {
    "id": 2803138,
    "name": "Antwerpen",
    "lat": 51.22047,
    "lon": 4.40026
  },
  {
    "id": 2797656,
    "name": "Gent",
    "lat": 51.05,
    "lon": 3.71667
  },
  {
    "id": 2800481,
    "name": "Charleroi",
    "lat": 50.41136,
    "lon": 4.44448
  },
  {
    "id": 2792413,
    "name": "Liège",
    "lat": 50.63373,
    "lon": 5.56749
  },
  {
    "id": 2803201,
    "name": "Anderlecht",
    "lat": 50.83619,
    "lon": 4.31454
  },
  {
    "id": 2787149,
    "name": "Schaerbeek",
    "lat": 50.86935,
    "lon": 4.37737
  },
  {
    "id": 2800931,
    "name": "Brugge",
    "lat": 51.20892,
    "lon": 3.22424
  },
  {
    "id": 2790471,
    "name": "Namur",
    "lat": 50.4669,
    "lon": 4.86746
  },
  {
    "id": 2792482,
    "name": "Leuven",
    "lat": 50.87959,
    "lon": 4.70093
  },
  {
    "id": 2791018,
    "name": "Molenbeek-Saint-Jean",
    "lat": 50.8499,
    "lon": 4.31248
  },
  {
    "id": 2790869,
    "name": "Mons",
    "lat": 50.45413,
    "lon": 3.95229
  },
  {
    "id": 2795011,
    "name": "Ixelles",
    "lat": 50.83333,
    "lon": 4.36667
  },
  {
    "id": 2785123,
    "name": "Uccle",
    "lat": 50.80225,
    "lon": 4.33943
  },
  {
    "id": 2799478,
    "name": "Deurne",
    "lat": 51.22134,
    "lon": 4.46595
  },
  {
    "id": 2796491,
    "name": "Hasselt",
    "lat": 50.93106,
    "lon": 5.33781
  },
  {
    "id": 2803448,
    "name": "Aalst",
    "lat": 50.93604,
    "lon": 4.0355
  },
  {
    "id": 2791537,
    "name": "Mechelen",
    "lat": 51.02574,
    "lon": 4.47762
  },
  {
    "id": 2793508,
    "name": "La Louvière",
    "lat": 50.48657,
    "lon": 4.18785
  },
  {
    "id": 2794055,
    "name": "Kortrijk",
    "lat": 50.82803,
    "lon": 3.26487
  },
  {
    "id": 2785341,
    "name": "Tournai",
    "lat": 50.60715,
    "lon": 3.38932
  },
  {
    "id": 2789786,
    "name": "Ostend",
    "lat": 51.21551,
    "lon": 2.927
  },
  {
    "id": 2786578,
    "name": "Sint-Niklaas",
    "lat": 51.16509,
    "lon": 4.1437
  },
  {
    "id": 2797670,
    "name": "Genk",
    "lat": 50.965,
    "lon": 5.50082
  },
  {
    "id": 2786824,
    "name": "Seraing",
    "lat": 50.58362,
    "lon": 5.50115
  },
  {
    "id": 2783476,
    "name": "Woluwe-Saint-Lambert",
    "lat": 50.84389,
    "lon": 4.42912
  },
  {
    "id": 2798139,
    "name": "Forest",
    "lat": 50.81678,
    "lon": 4.32775
  },
  {
    "id": 2787889,
    "name": "Roeselare",
    "lat": 50.94653,
    "lon": 3.12269
  },
  {
    "id": 2784821,
    "name": "Verviers",
    "lat": 50.58907,
    "lon": 5.86241
  },
  {
    "id": 2794914,
    "name": "Jette",
    "lat": 50.87309,
    "lon": 4.33419
  },
  {
    "id": 2790595,
    "name": "Mouscron",
    "lat": 50.74497,
    "lon": 3.20639
  },
  {
    "id": 2787413,
    "name": "Saint-Gilles",
    "lat": 50.82763,
    "lon": 4.34389
  },
  {
    "id": 2798578,
    "name": "Etterbeek",
    "lat": 50.83272,
    "lon": 4.38835
  },
  {
    "id": 2801471,
    "name": "Borgerhout",
    "lat": 51.20957,
    "lon": 4.43539
  },
  {
    "id": 2799645,
    "name": "Dendermonde",
    "lat": 51.02869,
    "lon": 4.10106
  },
  {
    "id": 2802031,
    "name": "Beveren",
    "lat": 51.21187,
    "lon": 4.25633
  },
  {
    "id": 2791301,
    "name": "Merksem",
    "lat": 51.24623,
    "lon": 4.44903
  },
  {
    "id": 2785141,
    "name": "Turnhout",
    "lat": 51.32254,
    "lon": 4.94471
  },
  {
    "id": 2802249,
    "name": "Berchem",
    "lat": 51.19021,
    "lon": 4.43264
  },
  {
    "id": 2798554,
    "name": "Evere",
    "lat": 50.87441,
    "lon": 4.39905
  },
  {
    "id": 2792196,
    "name": "Lokeren",
    "lat": 51.10364,
    "lon": 3.99339
  },
  {
    "id": 2783615,
    "name": "Wilrijk",
    "lat": 51.16734,
    "lon": 4.39513
  },
  {
    "id": 2802170,
    "name": "Beringen",
    "lat": 51.04954,
    "lon": 5.22606
  },
  {
    "id": 2799365,
    "name": "Dilbeek",
    "lat": 50.84799,
    "lon": 4.25972
  },
  {
    "id": 2796153,
    "name": "Heist-op-den-Berg",
    "lat": 51.07537,
    "lon": 4.72827
  },
  {
    "id": 2786545,
    "name": "Sint-Truiden",
    "lat": 50.81679,
    "lon": 5.18647
  },
  {
    "id": 2801154,
    "name": "Braine-l'Alleud",
    "lat": 50.68363,
    "lon": 4.36784
  },
  {
    "id": 2801117,
    "name": "Brasschaat",
    "lat": 51.2912,
    "lon": 4.49182
  },
  {
    "id": 2797114,
    "name": "Grimbergen",
    "lat": 50.93409,
    "lon": 4.37213
  },
  {
    "id": 2784604,
    "name": "Vilvoorde",
    "lat": 50.92814,
    "lon": 4.42938
  },
  {
    "id": 2795930,
    "name": "Herstal",
    "lat": 50.66415,
    "lon": 5.62346
  },
  {
    "id": 2791961,
    "name": "Maasmechelen",
    "lat": 50.96545,
    "lon": 5.69452
  },
  {
    "id": 2784068,
    "name": "Waregem",
    "lat": 50.88898,
    "lon": 3.42756
  },
  {
    "id": 2800448,
    "name": "Châtelet",
    "lat": 50.40338,
    "lon": 4.52826
  },
  {
    "id": 2795100,
    "name": "Ieper",
    "lat": 50.85114,
    "lon": 2.88569
  },
  {
    "id": 2790114,
    "name": "Ninove",
    "lat": 50.82776,
    "lon": 4.02657
  },
  {
    "id": 2797779,
    "name": "Geel",
    "lat": 51.16557,
    "lon": 4.98917
  },
  {
    "id": 2796696,
    "name": "Halle",
    "lat": 50.73385,
    "lon": 4.23454
  },
  {
    "id": 2795730,
    "name": "Hoboken",
    "lat": 51.17611,
    "lon": 4.34844
  },
  {
    "id": 2783941,
    "name": "Wavre",
    "lat": 50.71717,
    "lon": 4.60138
  },
  {
    "id": 2802960,
    "name": "Auderghem",
    "lat": 50.81667,
    "lon": 4.43333
  },
  {
    "id": 2794210,
    "name": "Knokke-Heist",
    "lat": 51.35,
    "lon": 3.26667
  },
  {
    "id": 2786963,
    "name": "Schoten",
    "lat": 51.25251,
    "lon": 4.50268
  },
  {
    "id": 2792397,
    "name": "Lier",
    "lat": 51.13128,
    "lon": 4.57041
  },
  {
    "id": 2791067,
    "name": "Mol",
    "lat": 51.19188,
    "lon": 5.11662
  },
  {
    "id": 2786743,
    "name": "Sint-Amandsberg",
    "lat": 51.05947,
    "lon": 3.74943
  },
  {
    "id": 2801922,
    "name": "Binche",
    "lat": 50.41155,
    "lon": 4.16469
  },
  {
    "id": 2792179,
    "name": "Lommel",
    "lat": 51.23074,
    "lon": 5.31349
  },
  {
    "id": 2791343,
    "name": "Menen",
    "lat": 50.79722,
    "lon": 3.12245
  },
  {
    "id": 2789529,
    "name": "Oudenaarde",
    "lat": 50.85168,
    "lon": 3.60891
  },
  {
    "id": 2785470,
    "name": "Tienen",
    "lat": 50.80745,
    "lon": 4.9378
  },
  {
    "id": 2798551,
    "name": "Evergem",
    "lat": 51.11306,
    "lon": 3.70976
  },
  {
    "id": 2795800,
    "name": "Heusden",
    "lat": 51.03664,
    "lon": 5.28013
  },
  {
    "id": 2783759,
    "name": "Wevelgem",
    "lat": 50.8,
    "lon": 3.16667
  },
  {
    "id": 2797638,
    "name": "Geraardsbergen",
    "lat": 50.77343,
    "lon": 3.88223
  },
  {
    "id": 2786559,
    "name": "Sint-Pieters-Leeuw",
    "lat": 50.77926,
    "lon": 4.24355
  },
  {
    "id": 2801824,
    "name": "Blauwput",
    "lat": 50.88587,
    "lon": 4.72415
  },
  {
    "id": 2794507,
    "name": "Kessel-Lo",
    "lat": 50.88549,
    "lon": 4.73717
  },
  {
    "id": 2796132,
    "name": "Helchteren",
    "lat": 51.05591,
    "lon": 5.38244
  },
  {
    "id": 2795261,
    "name": "Houthalen",
    "lat": 51.03427,
    "lon": 5.37429
  },
  {
    "id": 2785389,
    "name": "Tongeren",
    "lat": 50.78054,
    "lon": 5.46484
  },
  {
    "id": 2799746,
    "name": "Deinze",
    "lat": 50.98175,
    "lon": 3.53096
  },
  {
    "id": 2783985,
    "name": "Waterloo",
    "lat": 50.71469,
    "lon": 4.3991
  },
  {
    "id": 2801924,
    "name": "Bilzen",
    "lat": 50.87325,
    "lon": 5.5184
  },
  {
    "id": 2792073,
    "name": "Louvain-la-Neuve",
    "lat": 50.66829,
    "lon": 4.61443
  },
  {
    "id": 2800063,
    "name": "Courcelles",
    "lat": 50.46379,
    "lon": 4.3747
  },
  {
    "id": 2803033,
    "name": "Asse",
    "lat": 50.91011,
    "lon": 4.19836
  },
  {
    "id": 2783310,
    "name": "Zaventem",
    "lat": 50.88365,
    "lon": 4.47298
  },
  {
    "id": 2803429,
    "name": "Aarschot",
    "lat": 50.98715,
    "lon": 4.83695
  },
  {
    "id": 2787387,
    "name": "Saint-Josse-ten-Noode",
    "lat": 50.8538,
    "lon": 4.37282
  },
  {
    "id": 2803160,
    "name": "Ans",
    "lat": 50.6623,
    "lon": 5.52029
  },
  {
    "id": 2803010,
    "name": "Ath",
    "lat": 50.62937,
    "lon": 3.77801
  },
  {
    "id": 2794730,
    "name": "Kapellen",
    "lat": 51.31377,
    "lon": 4.43539
  },
  {
    "id": 2795009,
    "name": "Izegem",
    "lat": 50.91396,
    "lon": 3.21378
  },
  {
    "id": 2803073,
    "name": "Arlon",
    "lat": 49.68333,
    "lon": 5.81667
  },
  {
    "id": 2785778,
    "name": "Temse",
    "lat": 51.12794,
    "lon": 4.21372
  },
  {
    "id": 2796542,
    "name": "Harelbeke",
    "lat": 50.85343,
    "lon": 3.30935
  },
  {
    "id": 2796009,
    "name": "Herentals",
    "lat": 51.17655,
    "lon": 4.83248
  },
  {
    "id": 2791964,
    "name": "Maaseik",
    "lat": 51.09802,
    "lon": 5.78379
  },
  {
    "id": 2802247,
    "name": "Berchem-Sainte-Agathe",
    "lat": 50.86567,
    "lon": 4.29557
  },
  {
    "id": 2783979,
    "name": "Watermael-Boitsfort",
    "lat": 50.80154,
    "lon": 4.41436
  },
  {
    "id": 2798307,
    "name": "Flémalle-Haute",
    "lat": 50.59994,
    "lon": 5.44471
  },
  {
    "id": 2786420,
    "name": "Soignies",
    "lat": 50.57904,
    "lon": 4.07129
  },
  {
    "id": 2797844,
    "name": "Ganshoren",
    "lat": 50.87065,
    "lon": 4.31531
  },
  {
    "id": 2793446,
    "name": "Lanaken",
    "lat": 50.89318,
    "lon": 5.6468
  },
  {
    "id": 2790676,
    "name": "Mortsel",
    "lat": 51.16697,
    "lon": 4.45127
  },
  {
    "id": 2794860,
    "name": "Jumet",
    "lat": 50.4422,
    "lon": 4.43745
  },
  {
    "id": 2783175,
    "name": "Zottegem",
    "lat": 50.86955,
    "lon": 3.81052
  },
  {
    "id": 2787769,
    "name": "Ronse",
    "lat": 50.74574,
    "lon": 3.6005
  },
  {
    "id": 2790101,
    "name": "Nivelles",
    "lat": 50.59833,
    "lon": 4.32848
  },
  {
    "id": 2803204,
    "name": "Andenne",
    "lat": 50.48941,
    "lon": 5.09513
  },
  {
    "id": 2791726,
    "name": "Marcinelle",
    "lat": 50.39216,
    "lon": 4.44388
  },
  {
    "id": 2789471,
    "name": "Oupeye",
    "lat": 50.71184,
    "lon": 5.6468
  },
  {
    "id": 2783456,
    "name": "Wondelgem",
    "lat": 51.08705,
    "lon": 3.70909
  },
  {
    "id": 2789413,
    "name": "Overijse",
    "lat": 50.77436,
    "lon": 4.53461
  },
  {
    "id": 2783089,
    "name": "Zwevegem",
    "lat": 50.81268,
    "lon": 3.33848
  },
  {
    "id": 2798873,
    "name": "Ekeren",
    "lat": 51.28087,
    "lon": 4.41813
  },
  {
    "id": 2795783,
    "name": "Heverlee",
    "lat": 50.86426,
    "lon": 4.69597
  },
  {
    "id": 2802433,
    "name": "Beersel",
    "lat": 50.76589,
    "lon": 4.3002
  },
  {
    "id": 2783763,
    "name": "Wetteren",
    "lat": 51.00526,
    "lon": 3.88341
  },
  {
    "id": 2796637,
    "name": "Hamme",
    "lat": 51.09822,
    "lon": 4.13705
  },
  {
    "id": 2783632,
    "name": "Willebroek",
    "lat": 51.06041,
    "lon": 4.36019
  },
  {
    "id": 2787356,
    "name": "Saint-Nicolas",
    "lat": 50.62837,
    "lon": 5.53243
  },
  {
    "id": 2783801,
    "name": "Westerlo",
    "lat": 51.09049,
    "lon": 4.91544
  },
  {
    "id": 2799397,
    "name": "Diest",
    "lat": 50.98923,
    "lon": 5.05062
  },
  {
    "id": 2787416,
    "name": "Saint-Ghislain",
    "lat": 50.44816,
    "lon": 3.81886
  },
  {
    "id": 2791814,
    "name": "Manage",
    "lat": 50.50312,
    "lon": 4.23589
  },
  {
    "id": 2791857,
    "name": "Maldegem",
    "lat": 51.20737,
    "lon": 3.44511
  },
  {
    "id": 2798297,
    "name": "Fleurus",
    "lat": 50.48351,
    "lon": 4.55006
  },
  {
    "id": 2794190,
    "name": "Koekelberg",
    "lat": 50.86117,
    "lon": 4.33136
  },
  {
    "id": 2783308,
    "name": "Zedelgem",
    "lat": 51.14236,
    "lon": 3.1368
  },
  {
    "id": 2794166,
    "name": "Koksijde",
    "lat": 51.11642,
    "lon": 2.63772
  },
  {
    "id": 2799007,
    "name": "Edegem",
    "lat": 51.15662,
    "lon": 4.44504
  },
  {
    "id": 2797713,
    "name": "Gembloux",
    "lat": 50.56149,
    "lon": 4.69889
  },
  {
    "id": 2787989,
    "name": "Rixensart",
    "lat": 50.71229,
    "lon": 4.52529
  },
  {
    "id": 2789751,
    "name": "Oostkamp",
    "lat": 51.15432,
    "lon": 3.23128
  },
  {
    "id": 2783274,
    "name": "Zemst",
    "lat": 50.98318,
    "lon": 4.46079
  },
  {
    "id": 2797096,
    "name": "Grivegnée",
    "lat": 50.62148,
    "lon": 5.61101
  },
  {
    "id": 2800438,
    "name": "Chaudfontaine",
    "lat": 50.5828,
    "lon": 5.6341
  },
  {
    "id": 2790135,
    "name": "Nijlen",
    "lat": 51.16096,
    "lon": 4.67008
  },
  {
    "id": 2785622,
    "name": "Tervuren",
    "lat": 50.82372,
    "lon": 4.51418
  },
  {
    "id": 2798023,
    "name": "Frameries",
    "lat": 50.40578,
    "lon": 3.89603
  },
  {
    "id": 2787048,
    "name": "Schilde",
    "lat": 51.24107,
    "lon": 4.58336
  },
  {
    "id": 2794117,
    "name": "Kontich",
    "lat": 51.13213,
    "lon": 4.44706
  },
  {
    "id": 2783293,
    "name": "Zele",
    "lat": 51.06566,
    "lon": 4.0403
  },
  {
    "id": 2801150,
    "name": "Braine-le-Comte",
    "lat": 50.60979,
    "lon": 4.14658
  },
  {
    "id": 2801226,
    "name": "Boussu",
    "lat": 50.43417,
    "lon": 3.7944
  },
  {
    "id": 2797532,
    "name": "Gilly",
    "lat": 50.42449,
    "lon": 4.4789
  },
  {
    "id": 2801447,
    "name": "Bornem",
    "lat": 51.09716,
    "lon": 4.24364
  },
  {
    "id": 2802743,
    "name": "Balen",
    "lat": 51.16837,
    "lon": 5.17027
  },
  {
    "id": 2795113,
    "name": "Huy",
    "lat": 50.51894,
    "lon": 5.23284
  },
  {
    "id": 2800220,
    "name": "Colfontaine",
    "lat": 50.4141,
    "lon": 3.85569
  },
  {
    "id": 2783188,
    "name": "Zonhoven",
    "lat": 50.99064,
    "lon": 5.36819
  },
  {
    "id": 2803030,
    "name": "Assebroek",
    "lat": 51.19367,
    "lon": 3.2623
  },
  {
    "id": 2792235,
    "name": "Lochristi",
    "lat": 51.09644,
    "lon": 3.83194
  },
  {
    "id": 2794981,
    "name": "Jambes",
    "lat": 50.45636,
    "lon": 4.87166
  },
  {
    "id": 2788726,
    "name": "Poperinge",
    "lat": 50.85386,
    "lon": 2.72659
  },
  {
    "id": 2786641,
    "name": "Sint-Katelijne-Waver",
    "lat": 51.06691,
    "lon": 4.53469
  },
  {
    "id": 2786739,
    "name": "Sint-Andries",
    "lat": 51.19696,
    "lon": 3.17891
  },
  {
    "id": 2785476,
    "name": "Tielt",
    "lat": 50.99931,
    "lon": 3.32707
  },
  {
    "id": 2796012,
    "name": "Herent",
    "lat": 50.90861,
    "lon": 4.67056
  },
  {
    "id": 2798987,
    "name": "Eeklo",
    "lat": 51.18703,
    "lon": 3.55654
  },
  {
    "id": 2785364,
    "name": "Torhout",
    "lat": 51.0656,
    "lon": 3.10085
  },
  {
    "id": 2803443,
    "name": "Aalter",
    "lat": 51.09017,
    "lon": 3.44693
  },
  {
    "id": 2790796,
    "name": "Montignies-sur-Sambre",
    "lat": 50.41081,
    "lon": 4.49109
  },
  {
    "id": 2795398,
    "name": "Hoogstraten",
    "lat": 51.40029,
    "lon": 4.76034
  },
  {
    "id": 2791424,
    "name": "Meise",
    "lat": 50.93934,
    "lon": 4.32655
  },
  {
    "id": 2788499,
    "name": "Quaregnon",
    "lat": 50.44067,
    "lon": 3.8653
  },
  {
    "id": 2783081,
    "name": "Zwijndrecht",
    "lat": 51.21979,
    "lon": 4.32664
  },
  {
    "id": 2790697,
    "name": "Morlanwelz-Mariemont",
    "lat": 50.45502,
    "lon": 4.24519
  },
  {
    "id": 2794179,
    "name": "Koersel",
    "lat": 51.05909,
    "lon": 5.27121
  },
  {
    "id": 2798573,
    "name": "Eupen",
    "lat": 50.6279,
    "lon": 6.03647
  },
  {
    "id": 2801858,
    "name": "Blankenberge",
    "lat": 51.31306,
    "lon": 3.13227
  },
  {
    "id": 2785169,
    "name": "Tubize",
    "lat": 50.69059,
    "lon": 4.2009
  },
  {
    "id": 2786700,
    "name": "Sint-Genesius-Rode",
    "lat": 50.74645,
    "lon": 4.35754
  },
  {
    "id": 2791194,
    "name": "Middelkerke",
    "lat": 51.18532,
    "lon": 2.82077
  },
  {
    "id": 2794070,
    "name": "Kortenberg",
    "lat": 50.88982,
    "lon": 4.54353
  },
  {
    "id": 2794663,
    "name": "Kasterlee",
    "lat": 51.24118,
    "lon": 4.96651
  },
  {
    "id": 2799412,
    "name": "Diepenbeek",
    "lat": 50.90769,
    "lon": 5.41875
  },
  {
    "id": 2792567,
    "name": "Lessines",
    "lat": 50.71104,
    "lon": 3.83579
  },
  {
    "id": 2786694,
    "name": "Sint-Gillis-Waas",
    "lat": 51.21914,
    "lon": 4.12374
  },
  {
    "id": 2784189,
    "name": "Walcourt",
    "lat": 50.25401,
    "lon": 4.43796
  },
  {
    "id": 2794788,
    "name": "Kalmthout",
    "lat": 51.38442,
    "lon": 4.47556
  },
  {
    "id": 2788348,
    "name": "Ranst",
    "lat": 51.18983,
    "lon": 4.56533
  },
  {
    "id": 2793144,
    "name": "Lebbeke",
    "lat": 51.00464,
    "lon": 4.13457
  },
  {
    "id": 2783820,
    "name": "Wervik",
    "lat": 50.78069,
    "lon": 3.03854
  },
  {
    "id": 2786229,
    "name": "Stabroek",
    "lat": 51.33189,
    "lon": 4.37127
  },
  {
    "id": 2783197,
    "name": "Zolder",
    "lat": 51.02455,
    "lon": 5.30983
  },
  {
    "id": 2800445,
    "name": "Châtelineau",
    "lat": 50.41499,
    "lon": 4.52016
  },
  {
    "id": 2796833,
    "name": "Haaltert",
    "lat": 50.90634,
    "lon": 4.00093
  },
  {
    "id": 2791700,
    "name": "Mariakerke",
    "lat": 51.07476,
    "lon": 3.68289
  },
  {
    "id": 2784548,
    "name": "Visé",
    "lat": 50.7376,
    "lon": 5.69907
  },
  {
    "id": 2786087,
    "name": "Stekene",
    "lat": 51.2099,
    "lon": 4.03651
  },
  {
    "id": 2799647,
    "name": "Denderleeuw",
    "lat": 50.88506,
    "lon": 4.07601
  },
  {
    "id": 2799226,
    "name": "Dour",
    "lat": 50.39583,
    "lon": 3.77792
  },
  {
    "id": 2791744,
    "name": "Marche-en-Famenne",
    "lat": 50.22678,
    "lon": 5.34416
  },
  {
    "id": 2799496,
    "name": "Destelbergen",
    "lat": 51.05952,
    "lon": 3.79899
  },
  {
    "id": 2793077,
    "name": "Lede",
    "lat": 50.96626,
    "lon": 3.98594
  },
  {
    "id": 2791315,
    "name": "Merelbeke",
    "lat": 50.99447,
    "lon": 3.74621
  },
  {
    "id": 2789162,
    "name": "Péruwelz",
    "lat": 50.50819,
    "lon": 3.59373
  },
  {
    "id": 2785612,
    "name": "Tessenderlo",
    "lat": 51.06513,
    "lon": 5.08856
  },
  {
    "id": 2795912,
    "name": "Herve",
    "lat": 50.64083,
    "lon": 5.79353
  },
  {
    "id": 2795908,
    "name": "Herzele",
    "lat": 50.88681,
    "lon": 3.89014
  },
  {
    "id": 2802435,
    "name": "Beerse",
    "lat": 51.31927,
    "lon": 4.85304
  },
  {
    "id": 2790357,
    "name": "Neerpelt",
    "lat": 51.22807,
    "lon": 5.4427
  },
  {
    "id": 2799090,
    "name": "Duffel",
    "lat": 51.09554,
    "lon": 4.50903
  },
  {
    "id": 2786634,
    "name": "Sint-Kruis",
    "lat": 51.21399,
    "lon": 3.24949
  },
  {
    "id": 2798301,
    "name": "Fléron",
    "lat": 50.61516,
    "lon": 5.68062
  },
  {
    "id": 2788506,
    "name": "Puurs",
    "lat": 51.07409,
    "lon": 4.28844
  },
  {
    "id": 2788765,
    "name": "Pont-à-Celles",
    "lat": 50.50518,
    "lon": 4.36887
  },
  {
    "id": 2797652,
    "name": "Gentbrugge",
    "lat": 51.03692,
    "lon": 3.76509
  },
  {
    "id": 2801494,
    "name": "Boom",
    "lat": 51.09242,
    "lon": 4.3717
  },
  {
    "id": 2788088,
    "name": "Riemst",
    "lat": 50.80995,
    "lon": 5.60131
  },
  {
    "id": 2789232,
    "name": "Peer",
    "lat": 51.1303,
    "lon": 5.45952
  },
  {
    "id": 2799369,
    "name": "Diksmuide",
    "lat": 51.03248,
    "lon": 2.86384
  },
  {
    "id": 2792360,
    "name": "Lille",
    "lat": 51.24197,
    "lon": 4.82313
  },
  {
    "id": 2795795,
    "name": "Heusy",
    "lat": 50.57457,
    "lon": 5.86618
  },
  {
    "id": 2791534,
    "name": "Mechelen-aan-de-Maas",
    "lat": 50.96589,
    "lon": 5.69144
  },
  {
    "id": 2802039,
    "name": "Bevere",
    "lat": 50.8496,
    "lon": 3.5873
  },
  {
    "id": 2788521,
    "name": "Putte",
    "lat": 51.05337,
    "lon": 4.63263
  },
  {
    "id": 2786344,
    "name": "Soumagne",
    "lat": 50.61385,
    "lon": 5.74679
  },
  {
    "id": 2791735,
    "name": "Marchienne-au-Pont",
    "lat": 50.40573,
    "lon": 4.3953
  },
  {
    "id": 2787662,
    "name": "Rotselaar",
    "lat": 50.95302,
    "lon": 4.71665
  },
  {
    "id": 2783416,
    "name": "Wuustwezel",
    "lat": 51.39214,
    "lon": 4.59546
  },
  {
    "id": 2795516,
    "name": "Hollogne-aux-Pierres",
    "lat": 50.64059,
    "lon": 5.47179
  },
  {
    "id": 2802990,
    "name": "Aubange",
    "lat": 49.56652,
    "lon": 5.80492
  },
  {
    "id": 2801103,
    "name": "Bredene",
    "lat": 51.23489,
    "lon": 2.97559
  },
  {
    "id": 2800298,
    "name": "Ciney",
    "lat": 50.29449,
    "lon": 5.10015
  },
  {
    "id": 2793940,
    "name": "Kruibeke",
    "lat": 51.17048,
    "lon": 4.31444
  },
  {
    "id": 2785517,
    "name": "Thuin",
    "lat": 50.33933,
    "lon": 4.28604
  },
  {
    "id": 2783151,
    "name": "Zulte",
    "lat": 50.91954,
    "lon": 3.44859
  },
  {
    "id": 2791323,
    "name": "Merchtem",
    "lat": 50.95129,
    "lon": 4.23197
  },
  {
    "id": 2785654,
    "name": "Ternat",
    "lat": 50.86654,
    "lon": 4.16682
  },
  {
    "id": 2787521,
    "name": "Rumst",
    "lat": 51.08153,
    "lon": 4.42217
  },
  {
    "id": 2802437,
    "name": "Beernem",
    "lat": 51.13981,
    "lon": 3.33896
  },
  {
    "id": 2793429,
    "name": "Landen",
    "lat": 50.75267,
    "lon": 5.082
  },
  {
    "id": 2794212,
    "name": "Knokke",
    "lat": 51.35113,
    "lon": 3.28744
  },
  {
    "id": 2783856,
    "name": "Wemmel",
    "lat": 50.90812,
    "lon": 4.30613
  },
  {
    "id": 2802583,
    "name": "Bastogne",
    "lat": 50.00347,
    "lon": 5.71844
  },
  {
    "id": 2801093,
    "name": "Bree",
    "lat": 51.14152,
    "lon": 5.5969
  },
  {
    "id": 2800500,
    "name": "Chapelle-lez-Herlaimont",
    "lat": 50.4713,
    "lon": 4.28227
  },
  {
    "id": 2798949,
    "name": "Éghezée",
    "lat": 50.59076,
    "lon": 4.91175
  },
  {
    "id": 2795329,
    "name": "Houdeng-Goegnies",
    "lat": 50.49032,
    "lon": 4.17513
  },
  {
    "id": 2797694,
    "name": "Genappe",
    "lat": 50.61173,
    "lon": 4.45152
  },
  {
    "id": 2787532,
    "name": "Rumbeke",
    "lat": 50.93248,
    "lon": 3.16716
  },
  {
    "id": 2803420,
    "name": "Aartselaar",
    "lat": 51.13412,
    "lon": 4.38678
  },
  {
    "id": 2792856,
    "name": "Leopoldsburg",
    "lat": 51.11667,
    "lon": 5.25
  },
  {
    "id": 2796583,
    "name": "Hannut",
    "lat": 50.67142,
    "lon": 5.07898
  },
  {
    "id": 2801106,
    "name": "Brecht",
    "lat": 51.35024,
    "lon": 4.63829
  },
  {
    "id": 2803130,
    "name": "Anzegem",
    "lat": 50.837,
    "lon": 3.47786
  },
  {
    "id": 2802610,
    "name": "Basse Lasne",
    "lat": 50.69503,
    "lon": 4.49218
  },
  {
    "id": 2802154,
    "name": "Berlare",
    "lat": 51.03333,
    "lon": 4.0
  },
  {
    "id": 2798309,
    "name": "Flémalle-Grande",
    "lat": 50.60906,
    "lon": 5.47668
  },
  {
    "id": 2784066,
    "name": "Waremme",
    "lat": 50.6976,
    "lon": 5.25524
  },
  {
    "id": 2785949,
    "name": "Strombeek-Bever",
    "lat": 50.91039,
    "lon": 4.35582
  },
  {
    "id": 2785293,
    "name": "Tremelo",
    "lat": 50.99231,
    "lon": 4.70807
  },
  {
    "id": 2792007,
    "name": "Lummen",
    "lat": 50.98772,
    "lon": 5.19121
  },
  {
    "id": 2799347,
    "name": "Dison",
    "lat": 50.61004,
    "lon": 5.8534
  },
  {
    "id": 2795106,
    "name": "Ichtegem",
    "lat": 51.09572,
    "lon": 3.01549
  },
  {
    "id": 2792034,
    "name": "Lubbeek",
    "lat": 50.88278,
    "lon": 4.83896
  },
  {
    "id": 2788312,
    "name": "Ravels",
    "lat": 51.37274,
    "lon": 4.9921
  },
  {
    "id": 2800025,
    "name": "Couvin",
    "lat": 50.05284,
    "lon": 4.49495
  },
  {
    "id": 2800816,
    "name": "Buggenhout",
    "lat": 51.0159,
    "lon": 4.20173
  },
  {
    "id": 2798636,
    "name": "Esneux",
    "lat": 50.53596,
    "lon": 5.56775
  },
  {
    "id": 2803026,
    "name": "Assenede",
    "lat": 51.22598,
    "lon": 3.75085
  },
  {
    "id": 2795933,
    "name": "Herselt",
    "lat": 51.05159,
    "lon": 4.88231
  },
  {
    "id": 2794999,
    "name": "Jabbeke",
    "lat": 51.18185,
    "lon": 3.08935
  },
  {
    "id": 2802292,
    "name": "Beloeil",
    "lat": 50.55047,
    "lon": 3.73484
  },
  {
    "id": 2789403,
    "name": "Overpelt",
    "lat": 51.21038,
    "lon": 5.41557
  },
  {
    "id": 2803246,
    "name": "Amay",
    "lat": 50.54829,
    "lon": 5.30974
  },
  {
    "id": 2783737,
    "name": "Wezembeek-Oppem",
    "lat": 50.8395,
    "lon": 4.49427
  },
  {
    "id": 2789771,
    "name": "Oosterzele",
    "lat": 50.95261,
    "lon": 3.79826
  },
  {
    "id": 2799108,
    "name": "Drongen",
    "lat": 51.05067,
    "lon": 3.65649
  },
  {
    "id": 2786697,
    "name": "Sint-Gillis-bij-Dendermonde",
    "lat": 51.01905,
    "lon": 4.11146
  },
  {
    "id": 2796157,
    "name": "Heist",
    "lat": 51.33867,
    "lon": 3.23882
  },
  {
    "id": 2786242,
    "name": "Sprimont",
    "lat": 50.50922,
    "lon": 5.6595
  },
  {
    "id": 2784092,
    "name": "Wanze",
    "lat": 50.53907,
    "lon": 5.20846
  },
  {
    "id": 2783586,
    "name": "Wingene",
    "lat": 51.05782,
    "lon": 3.27359
  },
  {
    "id": 2799357,
    "name": "Dinant",
    "lat": 50.25807,
    "lon": 4.91166
  },
  {
    "id": 2794016,
    "name": "Kraainem",
    "lat": 50.86155,
    "lon": 4.46946
  },
  {
    "id": 2790749,
    "name": "Mont-sur-Marchienne",
    "lat": 50.38997,
    "lon": 4.40732
  },
  {
    "id": 2801820,
    "name": "Blégny",
    "lat": 50.67255,
    "lon": 5.72508
  },
  {
    "id": 2791834,
    "name": "Malmédy",
    "lat": 50.42686,
    "lon": 6.02794
  },
  {
    "id": 2793857,
    "name": "Kuurne",
    "lat": 50.85143,
    "lon": 3.2824
  },
  {
    "id": 2801060,
    "name": "Bressoux",
    "lat": 50.63988,
    "lon": 5.60629
  },
  {
    "id": 2797128,
    "name": "Grez-Doiceau",
    "lat": 50.73901,
    "lon": 4.69829
  },
  {
    "id": 2789483,
    "name": "Oud-Turnhout",
    "lat": 51.31978,
    "lon": 4.9841
  },
  {
    "id": 2801754,
    "name": "Bocholt",
    "lat": 51.17337,
    "lon": 5.57994
  },
  {
    "id": 2783347,
    "name": "Zandhoven",
    "lat": 51.21488,
    "lon": 4.66164
  },
  {
    "id": 2786581,
    "name": "Sint-Michiels",
    "lat": 51.18806,
    "lon": 3.21142
  },
  {
    "id": 2791951,
    "name": "Machelen",
    "lat": 50.91061,
    "lon": 4.44174
  },
  {
    "id": 2803083,
    "name": "Arendonk",
    "lat": 51.32267,
    "lon": 5.08289
  },
  {
    "id": 2798700,
    "name": "Erembodegem",
    "lat": 50.91905,
    "lon": 4.05041
  },
  {
    "id": 2801743,
    "name": "Boechout",
    "lat": 51.15959,
    "lon": 4.49195
  },
  {
    "id": 2789654,
    "name": "Opwijk",
    "lat": 50.96724,
    "lon": 4.18442
  },
  {
    "id": 2791261,
    "name": "Mettet",
    "lat": 50.32119,
    "lon": 4.66232
  },
  {
    "id": 2784804,
    "name": "Veurne",
    "lat": 51.07316,
    "lon": 2.66803
  },
  {
    "id": 2792423,
    "name": "Liedekerke",
    "lat": 50.86892,
    "lon": 4.08743
  },
  {
    "id": 2787948,
    "name": "Rochefort",
    "lat": 50.1631,
    "lon": 5.2216
  },
  {
    "id": 2789475,
    "name": "Ougrée",
    "lat": 50.60149,
    "lon": 5.5444
  },
  {
    "id": 2794445,
    "name": "Kinrooi",
    "lat": 51.14543,
    "lon": 5.74207
  },
  {
    "id": 2794074,
    "name": "Kortemark",
    "lat": 51.02951,
    "lon": 3.04112
  },
  {
    "id": 2789388,
    "name": "Paal",
    "lat": 51.03988,
    "lon": 5.17233
  },
  {
    "id": 2794895,
    "name": "Jodoigne",
    "lat": 50.72357,
    "lon": 4.86914
  },
  {
    "id": 2783462,
    "name": "Wommelgem",
    "lat": 51.20452,
    "lon": 4.5225
  },
  {
    "id": 2783278,
    "name": "Zelzate",
    "lat": 51.18963,
    "lon": 3.80777
  },
  {
    "id": 2797798,
    "name": "Gavere",
    "lat": 50.92917,
    "lon": 3.66184
  },
  {
    "id": 2795823,
    "name": "Heule",
    "lat": 50.83752,
    "lon": 3.23818
  },
  {
    "id": 2799779,
    "name": "De Haan",
    "lat": 51.27261,
    "lon": 3.03446
  },
  {
    "id": 2784019,
    "name": "Wasmes",
    "lat": 50.41464,
    "lon": 3.8471
  },
  {
    "id": 2802015,
    "name": "Beyne-Heusay",
    "lat": 50.62251,
    "lon": 5.66508
  },
  {
    "id": 2793797,
    "name": "Laarne",
    "lat": 51.03078,
    "lon": 3.85077
  },
  {
    "id": 2803199,
    "name": "Anderlues",
    "lat": 50.40704,
    "lon": 4.27136
  },
  {
    "id": 2802135,
    "name": "Bernissart",
    "lat": 50.4746,
    "lon": 3.64961
  },
  {
    "id": 2785593,
    "name": "Theux",
    "lat": 50.53323,
    "lon": 5.81245
  },
  {
    "id": 2783184,
    "name": "Zonnebeke",
    "lat": 50.8726,
    "lon": 2.98725
  },
  {
    "id": 2801483,
    "name": "Boortmeerbeek",
    "lat": 50.97929,
    "lon": 4.57443
  },
  {
    "id": 2795985,
    "name": "Herk-de-Stad",
    "lat": 50.94013,
    "lon": 5.16636
  },
  {
    "id": 2798470,
    "name": "Farciennes",
    "lat": 50.43006,
    "lon": 4.54152
  },
  {
    "id": 2790824,
    "name": "Montegnée",
    "lat": 50.64576,
    "lon": 5.51411
  },
  {
    "id": 2793863,
    "name": "Kuringen",
    "lat": 50.94426,
    "lon": 5.29902
  },
  {
    "id": 2788577,
    "name": "Profondeville",
    "lat": 50.37581,
    "lon": 4.86506
  },
  {
    "id": 2798747,
    "name": "Enghien",
    "lat": 50.69375,
    "lon": 4.03788
  },
  {
    "id": 2800073,
    "name": "Couillet",
    "lat": 50.39139,
    "lon": 4.45908
  },
  {
    "id": 2794929,
    "name": "Jemeppe-sur-Meuse",
    "lat": 50.61701,
    "lon": 5.49849
  },
  {
    "id": 2799797,
    "name": "Deerlijk",
    "lat": 50.85337,
    "lon": 3.35416
  },
  {
    "id": 2784555,
    "name": "Virton",
    "lat": 49.56824,
    "lon": 5.53259
  },
  {
    "id": 2790235,
    "name": "Nevele",
    "lat": 51.03531,
    "lon": 3.54574
  },
  {
    "id": 2797517,
    "name": "Gistel",
    "lat": 51.15612,
    "lon": 2.96387
  },
  {
    "id": 2786852,
    "name": "Seneffe",
    "lat": 50.53135,
    "lon": 4.26301
  },
  {
    "id": 2797376,
    "name": "Gosselies",
    "lat": 50.46936,
    "lon": 4.43324
  },
  {
    "id": 2783728,
    "name": "Wichelen",
    "lat": 51.00526,
    "lon": 3.97683
  },
  {
    "id": 2791255,
    "name": "Meulebeke",
    "lat": 50.95136,
    "lon": 3.28804
  },
  {
    "id": 2800430,
    "name": "Chaumont-Gistoux",
    "lat": 50.67753,
    "lon": 4.7212
  },
  {
    "id": 2791366,
    "name": "Melsele",
    "lat": 51.22285,
    "lon": 4.28201
  },
  {
    "id": 2797979,
    "name": "Frasnes-lez-Buissenal",
    "lat": 50.66783,
    "lon": 3.62047
  },
  {
    "id": 2803285,
    "name": "Alken",
    "lat": 50.87553,
    "lon": 5.30558
  },
  {
    "id": 2799885,
    "name": "Damme",
    "lat": 51.25147,
    "lon": 3.28144
  },
  {
    "id": 2803323,
    "name": "Aiseau",
    "lat": 50.41158,
    "lon": 4.58671
  },
  {
    "id": 2790433,
    "name": "Nazareth",
    "lat": 50.95686,
    "lon": 3.59425
  },
  {
    "id": 2783284,
    "name": "Zellik",
    "lat": 50.88408,
    "lon": 4.27325
  },
  {
    "id": 2790150,
    "name": "Nieuwpoort",
    "lat": 51.13008,
    "lon": 2.75135
  },
  {
    "id": 2794936,
    "name": "Jemappes",
    "lat": 50.44914,
    "lon": 3.89096
  },
  {
    "id": 2786226,
    "name": "Staden",
    "lat": 50.97456,
    "lon": 3.01469
  },
  {
    "id": 2797336,
    "name": "Grâce-Berleur",
    "lat": 50.64032,
    "lon": 5.50329
  },
  {
    "id": 2786318,
    "name": "Spa",
    "lat": 50.48375,
    "lon": 5.86674
  },
  {
    "id": 2798652,
    "name": "Ertvelde",
    "lat": 51.17921,
    "lon": 3.74722
  },
  {
    "id": 2797094,
    "name": "Grobbendonk",
    "lat": 51.19043,
    "lon": 4.73562
  },
  {
    "id": 2798276,
    "name": "Florennes",
    "lat": 50.25127,
    "lon": 4.60636
  },
  {
    "id": 2790729,
    "name": "Moorslede",
    "lat": 50.8919,
    "lon": 3.06117
  },
  {
    "id": 7669081,
    "name": "Tielt-Winge",
    "lat": 50.91743,
    "lon": 4.88368
  },
  {
    "id": 2791385,
    "name": "Melle",
    "lat": 51.00232,
    "lon": 3.80526
  },
  {
    "id": 2803183,
    "name": "Angleur",
    "lat": 50.6113,
    "lon": 5.59942
  },
  {
    "id": 2802837,
    "name": "Aywaille",
    "lat": 50.47411,
    "lon": 5.67684
  },
  {
    "id": 2788051,
    "name": "Rijkevorsel",
    "lat": 51.34795,
    "lon": 4.76053
  },
  {
    "id": 2794856,
    "name": "Jupille-sur-Meuse",
    "lat": 50.64587,
    "lon": 5.63307
  },
  {
    "id": 2795056,
    "name": "Ingelmunster",
    "lat": 50.92081,
    "lon": 3.25571
  },
  {
    "id": 2786124,
    "name": "Steenokkerzeel",
    "lat": 50.91851,
    "lon": 4.50989
  },
  {
    "id": 2789492,
    "name": "Oud-Heverlee",
    "lat": 50.83522,
    "lon": 4.66421
  },
  {
    "id": 2802289,
    "name": "Belsele",
    "lat": 51.14598,
    "lon": 4.08859
  },
  {
    "id": 2784231,
    "name": "Waasmunster",
    "lat": 51.10572,
    "lon": 4.08573
  },
  {
    "id": 2802156,
    "name": "Berlaar",
    "lat": 51.1176,
    "lon": 4.65835
  },
  {
    "id": 2801438,
    "name": "Borsbeek",
    "lat": 51.19661,
    "lon": 4.48543
  },
  {
    "id": 2789145,
    "name": "Petegem-aan-de-Leie",
    "lat": 50.96667,
    "lon": 3.53333
  },
  {
    "id": 2784349,
    "name": "Vosselaar",
    "lat": 51.30856,
    "lon": 4.8896
  },
  {
    "id": 2795699,
    "name": "Hoeilaart",
    "lat": 50.7673,
    "lon": 4.46835
  },
  {
    "id": 2799047,
    "name": "Durbuy",
    "lat": 50.35291,
    "lon": 5.45631
  },
  {
    "id": 2793722,
    "name": "La Calamine",
    "lat": 50.71809,
    "lon": 6.01107
  },
  {
    "id": 2798887,
    "name": "Eisden",
    "lat": 50.98463,
    "lon": 5.71433
  },
  {
    "id": 2788299,
    "name": "Rebecq-Rognon",
    "lat": 50.65147,
    "lon": 4.10683
  },
  {
    "id": 2799570,
    "name": "De Pinte",
    "lat": 50.99339,
    "lon": 3.64747
  },
  {
    "id": 2798615,
    "name": "Essen",
    "lat": 51.46791,
    "lon": 4.46901
  },
  {
    "id": 2783204,
    "name": "Zoersel",
    "lat": 51.26825,
    "lon": 4.71296
  },
  {
    "id": 2799947,
    "name": "Cuesmes",
    "lat": 50.43624,
    "lon": 3.92323
  },
  {
    "id": 2801467,
    "name": "Borgloon",
    "lat": 50.80505,
    "lon": 5.34366
  },
  {
    "id": 2788410,
    "name": "Raeren",
    "lat": 50.6672,
    "lon": 6.11535
  },
  {
    "id": 2795423,
    "name": "Hooglede",
    "lat": 50.98333,
    "lon": 3.08333
  },
  {
    "id": 2783612,
    "name": "Wilsele",
    "lat": 50.89188,
    "lon": 4.69769
  },
  {
    "id": 2790891,
    "name": "Monceau-sur-Sambre",
    "lat": 50.41694,
    "lon": 4.37668
  },
  {
    "id": 2799024,
    "name": "Écaussinnes-d'Enghien",
    "lat": 50.56822,
    "lon": 4.1658
  },
  {
    "id": 2799577,
    "name": "De Panne",
    "lat": 51.09793,
    "lon": 2.59368
  },
  {
    "id": 2803278,
    "name": "Alleur",
    "lat": 50.67465,
    "lon": 5.51316
  },
  {
    "id": 2790361,
    "name": "Neeroeteren",
    "lat": 51.09156,
    "lon": 5.69933
  },
  {
    "id": 2800325,
    "name": "Chimay",
    "lat": 50.04856,
    "lon": 4.31712
  },
  {
    "id": 2801152,
    "name": "Braine-le-Château",
    "lat": 50.6799,
    "lon": 4.27385
  },
  {
    "id": 2788849,
    "name": "Plombières",
    "lat": 50.73656,
    "lon": 5.95922
  },
  {
    "id": 2784641,
    "name": "Villers-la-Ville",
    "lat": 50.57953,
    "lon": 4.53398
  },
  {
    "id": 2789570,
    "name": "Ottignies",
    "lat": 50.66535,
    "lon": 4.56679
  },
  {
    "id": 2789190,
    "name": "Pepinster",
    "lat": 50.56568,
    "lon": 5.80386
  },
  {
    "id": 2787327,
    "name": "Saint-Servais",
    "lat": 50.4763,
    "lon": 4.83656
  },
  {
    "id": 2796085,
    "name": "Hemiksem",
    "lat": 51.14484,
    "lon": 4.33874
  },
  {
    "id": 2794852,
    "name": "Jurbise",
    "lat": 50.531,
    "lon": 3.90942
  },
  {
    "id": 2789714,
    "name": "Opglabbeek",
    "lat": 51.04258,
    "lon": 5.58346
  },
  {
    "id": 2792352,
    "name": "Limal",
    "lat": 50.69477,
    "lon": 4.57538
  },
  {
    "id": 2798666,
    "name": "Erquelinnes",
    "lat": 50.30688,
    "lon": 4.11129
  },
  {
    "id": 2800042,
    "name": "Court-Saint-Étienne",
    "lat": 50.63378,
    "lon": 4.56851
  },
  {
    "id": 2791494,
    "name": "Meerhout",
    "lat": 51.1321,
    "lon": 5.07842
  },
  {
    "id": 2798604,
    "name": "Estaimpuis",
    "lat": 50.70485,
    "lon": 3.26785
  },
  {
    "id": 2792057,
    "name": "Lovendegem",
    "lat": 51.10168,
    "lon": 3.61298
  },
  {
    "id": 2795648,
    "name": "Hoeselt",
    "lat": 50.84714,
    "lon": 5.48767
  },
  {
    "id": 2789346,
    "name": "Pamel",
    "lat": 50.8453,
    "lon": 4.07129
  },
  {
    "id": 2802123,
    "name": "Bertem",
    "lat": 50.86403,
    "lon": 4.62918
  },
  {
    "id": 2802405,
    "name": "Begijnendijk",
    "lat": 51.01942,
    "lon": 4.78377
  },
  {
    "id": 2800395,
    "name": "Chênée",
    "lat": 50.612,
    "lon": 5.6141
  },
  {
    "id": 2803091,
    "name": "Ardooie",
    "lat": 50.9757,
    "lon": 3.19736
  },
  {
    "id": 2786616,
    "name": "Sint-Lievens-Houtem",
    "lat": 50.9197,
    "lon": 3.86225
  },
  {
    "id": 2795184,
    "name": "Huldenberg",
    "lat": 50.78939,
    "lon": 4.5831
  },
  {
    "id": 2787315,
    "name": "Saint-Vith",
    "lat": 50.28146,
    "lon": 6.12724
  },
  {
    "id": 2802871,
    "name": "Avelgem",
    "lat": 50.77618,
    "lon": 3.44502
  },
  {
    "id": 2795511,
    "name": "Holsbeek",
    "lat": 50.92097,
    "lon": 4.75747
  },
  {
    "id": 2798099,
    "name": "Fosses-la-Ville",
    "lat": 50.39517,
    "lon": 4.69623
  },
  {
    "id": 2795936,
    "name": "Herseaux",
    "lat": 50.71667,
    "lon": 3.21667
  },
  {
    "id": 2786548,
    "name": "Sint-Stevens-Woluwe",
    "lat": 50.86838,
    "lon": 4.45195
  },
  {
    "id": 2783870,
    "name": "Welkenraedt",
    "lat": 50.6605,
    "lon": 5.97034
  },
  {
    "id": 2796625,
    "name": "Hamont",
    "lat": 51.25332,
    "lon": 5.54732
  },
  {
    "id": 2801998,
    "name": "Bierbeek",
    "lat": 50.82876,
    "lon": 4.75949
  },
  {
    "id": 2787616,
    "name": "Roux",
    "lat": 50.44111,
    "lon": 4.3917
  },
  {
    "id": 2797417,
    "name": "Gooik",
    "lat": 50.79443,
    "lon": 4.11378
  },
  {
    "id": 2795255,
    "name": "Houthulst",
    "lat": 50.97824,
    "lon": 2.9505
  },
  {
    "id": 2790804,
    "name": "Montigny-le-Tilleul",
    "lat": 50.38056,
    "lon": 4.37582
  },
  {
    "id": 2783684,
    "name": "Wijnegem",
    "lat": 51.22787,
    "lon": 4.51895
  },
  {
    "id": 2796854,
    "name": "Gullegem",
    "lat": 50.84301,
    "lon": 3.20466
  },
  {
    "id": 2801161,
    "name": "Bracquegnies",
    "lat": 50.47094,
    "lon": 4.1197
  },
  {
    "id": 2785962,
    "name": "Strépy-Bracquegnies",
    "lat": 50.4728,
    "lon": 4.12022
  },
  {
    "id": 2794724,
    "name": "Kapelle-op-den-Bos",
    "lat": 51.0097,
    "lon": 4.36303
  },
  {
    "id": 2783717,
    "name": "Wielsbeke",
    "lat": 50.9,
    "lon": 3.36667
  },
  {
    "id": 2786587,
    "name": "Sint-Martens-Lennik",
    "lat": 50.81158,
    "lon": 4.16965
  },
  {
    "id": 2788353,
    "name": "Ransart",
    "lat": 50.46166,
    "lon": 4.47616
  },
  {
    "id": 2795361,
    "name": "Hornu",
    "lat": 50.4328,
    "lon": 3.82736
  },
  {
    "id": 2789519,
    "name": "Oudenburg",
    "lat": 51.18489,
    "lon": 3.00035
  },
  {
    "id": 2798184,
    "name": "Fontaine-l'Évêque",
    "lat": 50.40907,
    "lon": 4.32427
  },
  {
    "id": 2786080,
    "name": "Stembert",
    "lat": 50.59107,
    "lon": 5.89404
  },
  {
    "id": 2802025,
    "name": "Beverlo",
    "lat": 51.08646,
    "lon": 5.21855
  },
  {
    "id": 2790225,
    "name": "Niel",
    "lat": 51.11096,
    "lon": 4.33428
  },
  {
    "id": 2802849,
    "name": "Awans",
    "lat": 50.66774,
    "lon": 5.46329
  },
  {
    "id": 2795801,
    "name": "Heusden",
    "lat": 51.02815,
    "lon": 3.80425
  },
  {
    "id": 2796715,
    "name": "Halen",
    "lat": 50.94837,
    "lon": 5.11096
  },
  {
    "id": 2789794,
    "name": "Oostduinkerke",
    "lat": 51.11565,
    "lon": 2.68217
  },
  {
    "id": 2786659,
    "name": "Sint-Job-in-'t-Goor",
    "lat": 51.29907,
    "lon": 4.57289
  },
  {
    "id": 2792226,
    "name": "Lodelinsart",
    "lat": 50.43138,
    "lon": 4.44886
  },
  {
    "id": 2797563,
    "name": "Ghlin",
    "lat": 50.47313,
    "lon": 3.90289
  },
  {
    "id": 2795634,
    "name": "Hoevenen",
    "lat": 51.30604,
    "lon": 4.40203
  },
  {
    "id": 2802902,
    "name": "Auvelais",
    "lat": 50.4504,
    "lon": 4.63228
  },
  {
    "id": 2793070,
    "name": "Ledeberg",
    "lat": 51.03859,
    "lon": 3.74458
  },
  {
    "id": 2793202,
    "name": "Lauwe",
    "lat": 50.79479,
    "lon": 3.1869
  },
  {
    "id": 2786055,
    "name": "Sterrebeek",
    "lat": 50.86171,
    "lon": 4.49375
  },
  {
    "id": 2794854,
    "name": "Juprelle",
    "lat": 50.7076,
    "lon": 5.53127
  },
  {
    "id": 2794194,
    "name": "Koekelare",
    "lat": 51.09047,
    "lon": 2.9783
  },
  {
    "id": 2786591,
    "name": "Sint-Martens-Latem",
    "lat": 51.01459,
    "lon": 3.63779
  },
  {
    "id": 2799230,
    "name": "Dottignies",
    "lat": 50.73333,
    "lon": 3.3
  },
  {
    "id": 2797641,
    "name": "Genval",
    "lat": 50.72162,
    "lon": 4.49375
  },
  {
    "id": 2802501,
    "name": "Beauraing",
    "lat": 50.11042,
    "lon": 4.95554
  },
  {
    "id": 2793733,
    "name": "La Bruyère",
    "lat": 50.39478,
    "lon": 4.61444
  },
  {
    "id": 2793907,
    "name": "Kruishoutem",
    "lat": 50.90168,
    "lon": 3.52588
  },
  {
    "id": 2783786,
    "name": "Westmalle",
    "lat": 51.29767,
    "lon": 4.69013
  },
  {
    "id": 2792428,
    "name": "Lichtervelde",
    "lat": 51.03333,
    "lon": 3.15
  },
  {
    "id": 2783385,
    "name": "Yvoir",
    "lat": 50.3279,
    "lon": 4.88059
  },
  {
    "id": 2783195,
    "name": "Zomergem",
    "lat": 51.11994,
    "lon": 3.56496
  },
  {
    "id": 2802606,
    "name": "Bassenge",
    "lat": 50.75883,
    "lon": 5.60989
  },
  {
    "id": 2797051,
    "name": "Groot-Bijgaarden",
    "lat": 50.87174,
    "lon": 4.24973
  },
  {
    "id": 2789254,
    "name": "Pâturages",
    "lat": 50.4072,
    "lon": 3.855
  },
  {
    "id": 2800637,
    "name": "Carnières",
    "lat": 50.44428,
    "lon": 4.25509
  },
  {
    "id": 2802106,
    "name": "Bertrix",
    "lat": 49.85596,
    "lon": 5.25539
  },
  {
    "id": 2789016,
    "name": "Philippeville",
    "lat": 50.19612,
    "lon": 4.54374
  },
  {
    "id": 2783464,
    "name": "Wolvertem",
    "lat": 50.95172,
    "lon": 4.30964
  },
  {
    "id": 2794063,
    "name": "Kortessem",
    "lat": 50.8589,
    "lon": 5.38974
  },
  {
    "id": 2803005,
    "name": "Athus",
    "lat": 49.56475,
    "lon": 5.83736
  },
  {
    "id": 2788138,
    "name": "Retie",
    "lat": 51.26652,
    "lon": 5.08242
  },
  {
    "id": 2795232,
    "name": "Hove",
    "lat": 51.15446,
    "lon": 4.4707
  },
  {
    "id": 2787878,
    "name": "Le Roeulx",
    "lat": 50.50365,
    "lon": 4.11163
  },
  {
    "id": 2791297,
    "name": "Merksplas",
    "lat": 51.35851,
    "lon": 4.86513
  },
  {
    "id": 2797851,
    "name": "Galmaarden",
    "lat": 50.75389,
    "lon": 3.97121
  },
  {
    "id": 2797523,
    "name": "Gingelom",
    "lat": 50.74792,
    "lon": 5.13422
  },
  {
    "id": 2800195,
    "name": "Comines",
    "lat": 50.7754,
    "lon": 3.00119
  },
  {
    "id": 2783170,
    "name": "Zoutleeuw",
    "lat": 50.83316,
    "lon": 5.10376
  },
  {
    "id": 2794223,
    "name": "Knesselare",
    "lat": 51.13932,
    "lon": 3.41282
  },
  {
    "id": 2786769,
    "name": "Silly",
    "lat": 50.64877,
    "lon": 3.92363
  },
  {
    "id": 2789800,
    "name": "Oostakker",
    "lat": 51.10124,
    "lon": 3.76945
  },
  {
    "id": 2785103,
    "name": "Uitkerke",
    "lat": 51.30684,
    "lon": 3.13712
  },
  {
    "id": 2784237,
    "name": "Waarschoot",
    "lat": 51.1525,
    "lon": 3.605
  },
  {
    "id": 2796807,
    "name": "Habay-la-Vieille",
    "lat": 49.72329,
    "lon": 5.61999
  },
  {
    "id": 2801215,
    "name": "Boutersem",
    "lat": 50.84105,
    "lon": 4.83367
  },
  {
    "id": 2792266,
    "name": "Lissewege",
    "lat": 51.29427,
    "lon": 3.19331
  },
  {
    "id": 2792898,
    "name": "Lembeek",
    "lat": 50.7157,
    "lon": 4.21832
  },
  {
    "id": 2788446,
    "name": "Quévy-le-Petit",
    "lat": 50.36879,
    "lon": 3.93602
  },
  {
    "id": 2794989,
    "name": "Jalhay",
    "lat": 50.55876,
    "lon": 5.96764
  },
  {
    "id": 2787080,
    "name": "Schelle",
    "lat": 51.12615,
    "lon": 4.34114
  },
  {
    "id": 2796735,
    "name": "Haine-Saint-Pierre",
    "lat": 50.45747,
    "lon": 4.20659
  },
  {
    "id": 2786746,
    "name": "Sint-Amands",
    "lat": 51.05645,
    "lon": 4.20957
  },
  {
    "id": 2786516,
    "name": "Sleidinge",
    "lat": 51.13363,
    "lon": 3.67405
  },
  {
    "id": 2800883,
    "name": "Brunehault",
    "lat": 50.50524,
    "lon": 4.43209
  },
  {
    "id": 2794510,
    "name": "Kessel",
    "lat": 51.13892,
    "lon": 4.62962
  },
  {
    "id": 2791673,
    "name": "Marke",
    "lat": 50.80678,
    "lon": 3.23344
  },
  {
    "id": 2798597,
    "name": "Estinnes-au-Val",
    "lat": 50.41016,
    "lon": 4.10477
  },
  {
    "id": 2785208,
    "name": "Trooz",
    "lat": 50.57026,
    "lon": 5.69521
  },
  {
    "id": 2795331,
    "name": "Houdeng-Aimeries",
    "lat": 50.48132,
    "lon": 4.14545
  },
  {
    "id": 2785839,
    "name": "Tamines",
    "lat": 50.43378,
    "lon": 4.60713
  },
  {
    "id": 2803144,
    "name": "Antoing",
    "lat": 50.56765,
    "lon": 3.4492
  },
  {
    "id": 2800765,
    "name": "Burcht",
    "lat": 51.20393,
    "lon": 4.34286
  },
  {
    "id": 2793406,
    "name": "Langdorp",
    "lat": 50.99561,
    "lon": 4.87175
  },
  {
    "id": 2789737,
    "name": "Oostrozebeke",
    "lat": 50.92093,
    "lon": 3.33799
  },
  {
    "id": 2798279,
    "name": "Floreffe",
    "lat": 50.43452,
    "lon": 4.7596
  },
  {
    "id": 2784333,
    "name": "Vottem",
    "lat": 50.67155,
    "lon": 5.57693
  },
  {
    "id": 2786390,
    "name": "Sombreffe",
    "lat": 50.52865,
    "lon": 4.60087
  },
  {
    "id": 2793548,
    "name": "La Hulpe",
    "lat": 50.73091,
    "lon": 4.48577
  },
  {
    "id": 2794818,
    "name": "Kain",
    "lat": 50.63869,
    "lon": 3.39688
  },
  {
    "id": 2785385,
    "name": "Tongerlo",
    "lat": 51.10622,
    "lon": 4.91638
  },
  {
    "id": 2783084,
    "name": "Zwijnaarde",
    "lat": 51.00077,
    "lon": 3.70746
  },
  {
    "id": 2794072,
    "name": "Kortenaken",
    "lat": 50.90862,
    "lon": 5.05968
  },
  {
    "id": 2784986,
    "name": "Vedrin",
    "lat": 50.50273,
    "lon": 4.87604
  },
  {
    "id": 2784775,
    "name": "Vielsalm",
    "lat": 50.28407,
    "lon": 5.91502
  },
  {
    "id": 2796737,
    "name": "Haine-Saint-Paul",
    "lat": 50.45544,
    "lon": 4.1885
  },
  {
    "id": 2803053,
    "name": "As",
    "lat": 51.00755,
    "lon": 5.58453
  },
  {
    "id": 2784111,
    "name": "Wanfercée-Baulet",
    "lat": 50.47291,
    "lon": 4.58748
  },
  {
    "id": 2796695,
    "name": "Halle",
    "lat": 51.24075,
    "lon": 4.64327
  },
  {
    "id": 2793747,
    "name": "La Bouverie",
    "lat": 50.40524,
    "lon": 3.8744
  },
  {
    "id": 2787060,
    "name": "Scherpenheuvel",
    "lat": 50.98075,
    "lon": 4.97552
  },
  {
    "id": 2791272,
    "name": "Messancy",
    "lat": 49.59201,
    "lon": 5.81879
  },
  {
    "id": 2803174,
    "name": "Anhée",
    "lat": 50.31039,
    "lon": 4.87827
  },
  {
    "id": 2792474,
    "name": "Leuze",
    "lat": 50.6,
    "lon": 3.6
  },
  {
    "id": 2797138,
    "name": "Grembergen",
    "lat": 51.05406,
    "lon": 4.10458
  },
  {
    "id": 2803187,
    "name": "Andrimont",
    "lat": 50.61298,
    "lon": 5.88294
  },
  {
    "id": 2787552,
    "name": "Ruisbroek",
    "lat": 50.79015,
    "lon": 4.29771
  },
  {
    "id": 2798973,
    "name": "Eernegem",
    "lat": 51.1326,
    "lon": 3.02562
  },
  {
    "id": 2789745,
    "name": "Oostmalle",
    "lat": 51.3,
    "lon": 4.73333
  },
  {
    "id": 2787937,
    "name": "Rocourt",
    "lat": 50.67579,
    "lon": 5.54621
  },
  {
    "id": 2801500,
    "name": "Booischot",
    "lat": 51.05219,
    "lon": 4.7751
  },
  {
    "id": 2783143,
    "name": "Zutendaal",
    "lat": 50.93306,
    "lon": 5.5753
  },
  {
    "id": 12902635,
    "name": "Negenmanneke",
    "lat": 50.80458,
    "lon": 4.28506
  },
  {
    "id": 2784227,
    "name": "Wachtebeke",
    "lat": 51.16852,
    "lon": 3.87183
  },
  {
    "id": 2788273,
    "name": "Reet",
    "lat": 51.10201,
    "lon": 4.41264
  },
  {
    "id": 2784364,
    "name": "Vorst",
    "lat": 51.08029,
    "lon": 5.01998
  },
  {
    "id": 2783864,
    "name": "Wellen",
    "lat": 50.84096,
    "lon": 5.33867
  },
  {
    "id": 2787425,
    "name": "Saint-Georges-sur-Meuse",
    "lat": 50.60007,
    "lon": 5.3574
  },
  {
    "id": 2785305,
    "name": "Trazegnies",
    "lat": 50.46379,
    "lon": 4.3329
  },
  {
    "id": 2797719,
    "name": "Geluwe",
    "lat": 50.80978,
    "lon": 3.07695
  },
  {
    "id": 2792891,
    "name": "Lemberge",
    "lat": 50.97629,
    "lon": 3.77054
  },
  {
    "id": 2799880,
    "name": "Dampremy",
    "lat": 50.41705,
    "lon": 4.43092
  },
  {
    "id": 2796297,
    "name": "Heers",
    "lat": 50.75383,
    "lon": 5.3021
  },
  {
    "id": 2786622,
    "name": "Sint-Lenaarts",
    "lat": 51.34868,
    "lon": 4.68009
  },
  {
    "id": 2796627,
    "name": "Hamois",
    "lat": 50.3402,
    "lon": 5.15619
  },
  {
    "id": 2784199,
    "name": "Waimes",
    "lat": 50.41488,
    "lon": 6.11207
  },
  {
    "id": 2786626,
    "name": "Sint-Laureins",
    "lat": 51.24202,
    "lon": 3.52441
  },
  {
    "id": 2786185,
    "name": "Stavelot",
    "lat": 50.395,
    "lon": 5.93124
  },
  {
    "id": 2802510,
    "name": "Beaumont",
    "lat": 50.23699,
    "lon": 4.23926
  },
  {
    "id": 2789096,
    "name": "Lettelingen",
    "lat": 50.68333,
    "lon": 4.08333
  },
  {
    "id": 2786638,
    "name": "Sint-Katherina-Lombeek",
    "lat": 50.87314,
    "lon": 4.1536
  },
  {
    "id": 2796319,
    "name": "Hechtel",
    "lat": 51.12518,
    "lon": 5.36768
  },
  {
    "id": 2788925,
    "name": "Pittem",
    "lat": 50.99279,
    "lon": 3.26317
  },
  {
    "id": 2783215,
    "name": "Zingem",
    "lat": 50.90409,
    "lon": 3.65305
  },
  {
    "id": 2783850,
    "name": "Wépion",
    "lat": 50.42153,
    "lon": 4.86403
  },
  {
    "id": 2788444,
    "name": "Quiévrain",
    "lat": 50.40737,
    "lon": 3.68351
  },
  {
    "id": 2790756,
    "name": "Mont-Saint-Guibert",
    "lat": 50.63427,
    "lon": 4.61061
  },
  {
    "id": 2790421,
    "name": "Brakel",
    "lat": 50.80101,
    "lon": 3.76264
  },
  {
    "id": 2784996,
    "name": "Vaux-sous-Chèvremont",
    "lat": 50.60302,
    "lon": 5.6335
  },
  {
    "id": 2783232,
    "name": "Zichem",
    "lat": 51.00187,
    "lon": 4.98316
  },
  {
    "id": 2803347,
    "name": "Adegem",
    "lat": 51.20509,
    "lon": 3.4954
  },
  {
    "id": 2792466,
    "name": "Leval-Trahegnies",
    "lat": 50.4213,
    "lon": 4.22556
  },
  {
    "id": 2790179,
    "name": "Nieuwerkerken",
    "lat": 50.8638,
    "lon": 5.19467
  },
  {
    "id": 2795956,
    "name": "Herne",
    "lat": 50.72423,
    "lon": 4.03481
  },
  {
    "id": 2786603,
    "name": "Sint-Maria-Lierde",
    "lat": 50.81867,
    "lon": 3.84436
  },
  {
    "id": 2794277,
    "name": "Klemskerke",
    "lat": 51.24222,
    "lon": 3.02401
  },
  {
    "id": 2795785,
    "name": "Hever",
    "lat": 50.99545,
    "lon": 4.55126
  },
  {
    "id": 2786713,
    "name": "Sint-Denijs-Westrem",
    "lat": 51.02135,
    "lon": 3.67202
  },
  {
    "id": 2790286,
    "name": "Neufchâteau",
    "lat": 49.84074,
    "lon": 5.43535
  },
  {
    "id": 2799897,
    "name": "Dalhem",
    "lat": 50.71315,
    "lon": 5.72774
  },
  {
    "id": 2796056,
    "name": "Hensies",
    "lat": 50.43263,
    "lon": 3.68411
  },
  {
    "id": 2786792,
    "name": "'s-Gravenwezel",
    "lat": 51.26267,
    "lon": 4.56113
  },
  {
    "id": 2800790,
    "name": "Buizingen",
    "lat": 50.74227,
    "lon": 4.25278
  },
  {
    "id": 2789948,
    "name": "Oedelem",
    "lat": 51.17033,
    "lon": 3.33762
  },
  {
    "id": 2802812,
    "name": "Baasrode",
    "lat": 51.03805,
    "lon": 4.1546
  },
  {
    "id": 2787319,
    "name": "Saint-Vaast",
    "lat": 50.45426,
    "lon": 4.16041
  },
  {
    "id": 2802483,
    "name": "Beauvechain",
    "lat": 50.78195,
    "lon": 4.7718
  },
  {
    "id": 2786762,
    "name": "Sinaai",
    "lat": 51.15789,
    "lon": 4.04087
  },
  {
    "id": 2786077,
    "name": "Stene",
    "lat": 51.20437,
    "lon": 2.91259
  },
  {
    "id": 2803018,
    "name": "Assesse",
    "lat": 50.36934,
    "lon": 5.02204
  },
  {
    "id": 2800457,
    "name": "Chastre-Villeroux-Blanmont",
    "lat": 50.60857,
    "lon": 4.64198
  },
  {
    "id": 2796353,
    "name": "Havré",
    "lat": 50.46401,
    "lon": 4.04675
  },
  {
    "id": 2798668,
    "name": "Erps-Kwerps",
    "lat": 50.90119,
    "lon": 4.55984
  },
  {
    "id": 2792435,
    "name": "Lichtaart",
    "lat": 51.22495,
    "lon": 4.91681
  },
  {
    "id": 2790178,
    "name": "Nieuwerkerken",
    "lat": 50.92386,
    "lon": 4.00433
  },
  {
    "id": 2797581,
    "name": "Gesves",
    "lat": 50.40146,
    "lon": 5.07457
  },
  {
    "id": 2802557,
    "name": "Baudour",
    "lat": 50.48296,
    "lon": 3.8332
  },
  {
    "id": 2794930,
    "name": "Jemeppe-sur-Sambre",
    "lat": 50.46543,
    "lon": 4.6655
  },
  {
    "id": 2798784,
    "name": "Embourg",
    "lat": 50.59043,
    "lon": 5.6068
  },
  {
    "id": 2794707,
    "name": "Kaprijke",
    "lat": 51.2172,
    "lon": 3.61519
  },
  {
    "id": 2790733,
    "name": "Moorsele",
    "lat": 50.8409,
    "lon": 3.15971
  },
  {
    "id": 2799362,
    "name": "Dilsen",
    "lat": 51.03718,
    "lon": 5.72096
  },
  {
    "id": 2790163,
    "name": "Nieuwkerken-Waas",
    "lat": 51.19358,
    "lon": 4.17776
  },
  {
    "id": 2802422,
    "name": "Beerzel",
    "lat": 51.05753,
    "lon": 4.67127
  },
  {
    "id": 2784114,
    "name": "Wandre",
    "lat": 50.66774,
    "lon": 5.65959
  },
  {
    "id": 2784639,
    "name": "Villers-le-Bouillet",
    "lat": 50.57708,
    "lon": 5.25945
  },
  {
    "id": 2800328,
    "name": "Chièvres",
    "lat": 50.58787,
    "lon": 3.80711
  },
  {
    "id": 2798400,
    "name": "Fayt-lez-Manage",
    "lat": 50.48698,
    "lon": 4.22959
  },
  {
    "id": 2795017,
    "name": "Ittre",
    "lat": 50.64396,
    "lon": 4.26476
  },
  {
    "id": 2798868,
    "name": "Eksaarde",
    "lat": 51.14876,
    "lon": 3.96814
  },
  {
    "id": 2787071,
    "name": "Schepdaal",
    "lat": 50.83836,
    "lon": 4.19609
  },
  {
    "id": 2799649,
    "name": "Denderhoutem",
    "lat": 50.87234,
    "lon": 4.01821
  },
  {
    "id": 2784168,
    "name": "Walhain-Saint-Paul",
    "lat": 50.62627,
    "lon": 4.69837
  },
  {
    "id": 2789911,
    "name": "Ohain",
    "lat": 50.69885,
    "lon": 4.4698
  },
  {
    "id": 2803266,
    "name": "Alsemberg",
    "lat": 50.74134,
    "lon": 4.33754
  },
  {
    "id": 2802828,
    "name": "Baal",
    "lat": 50.9955,
    "lon": 4.75317
  },
  {
    "id": 2795618,
    "name": "Hofstade",
    "lat": 50.9613,
    "lon": 4.02663
  },
  {
    "id": 2795024,
    "name": "Itegem",
    "lat": 51.10328,
    "lon": 4.72855
  },
  {
    "id": 2783087,
    "name": "Zwevezele",
    "lat": 51.03683,
    "lon": 3.21186
  },
  {
    "id": 2791507,
    "name": "Meerbeke",
    "lat": 50.82444,
    "lon": 4.03674
  },
  {
    "id": 2786630,
    "name": "Sint-Kwintens-Lennik",
    "lat": 50.80377,
    "lon": 4.15489
  },
  {
    "id": 2791120,
    "name": "Moerbeke",
    "lat": 51.17409,
    "lon": 3.93001
  },
  {
    "id": 2787572,
    "name": "Ruddervoorde",
    "lat": 51.09589,
    "lon": 3.20743
  },
  {
    "id": 2786873,
    "name": "Seilles",
    "lat": 50.50065,
    "lon": 5.09268
  },
  {
    "id": 2797761,
    "name": "Geetbets",
    "lat": 50.89431,
    "lon": 5.11199
  },
  {
    "id": 2798866,
    "name": "Eksel",
    "lat": 51.15184,
    "lon": 5.3906
  },
  {
    "id": 2790479,
    "name": "Nalinnes",
    "lat": 50.32434,
    "lon": 4.44572
  },
  {
    "id": 2794802,
    "name": "Kalken",
    "lat": 51.03836,
    "lon": 3.9186
  },
  {
    "id": 2788046,
    "name": "Rijmenam",
    "lat": 51.0016,
    "lon": 4.58405
  },
  {
    "id": 2788381,
    "name": "Ramillies",
    "lat": 50.63395,
    "lon": 4.90119
  },
  {
    "id": 2784980,
    "name": "Veerle",
    "lat": 51.06989,
    "lon": 4.98761
  },
  {
    "id": 2798743,
    "name": "Engis",
    "lat": 50.58156,
    "lon": 5.39916
  },
  {
    "id": 2802374,
    "name": "Bekkevoort",
    "lat": 50.94074,
    "lon": 4.969
  },
  {
    "id": 2798305,
    "name": "Flénu",
    "lat": 50.43673,
    "lon": 3.88573
  },
  {
    "id": 2802570,
    "name": "Battice",
    "lat": 50.64734,
    "lon": 5.82104
  },
  {
    "id": 2802529,
    "name": "Bazel",
    "lat": 51.14741,
    "lon": 4.30129
  },
  {
    "id": 2801147,
    "name": "Braives",
    "lat": 50.62848,
    "lon": 5.14798
  },
  {
    "id": 2795013,
    "name": "Ivoz-Ramet",
    "lat": 50.58798,
    "lon": 5.4657
  },
  {
    "id": 2791460,
    "name": "Meeuwen",
    "lat": 51.0991,
    "lon": 5.52106
  },
  {
    "id": 2798145,
    "name": "Forchies-la-Marche",
    "lat": 50.4369,
    "lon": 4.32115
  },
  {
    "id": 2789821,
    "name": "Onze-Lieve-Vrouw-Waver",
    "lat": 51.06265,
    "lon": 4.57941
  },
  {
    "id": 2792348,
    "name": "Limbourg",
    "lat": 50.61222,
    "lon": 5.9412
  },
  {
    "id": 2801550,
    "name": "Boncelles",
    "lat": 50.57108,
    "lon": 5.53625
  },
  {
    "id": 2793853,
    "name": "Kwaadmechelen",
    "lat": 51.10099,
    "lon": 5.14478
  },
  {
    "id": 2798836,
    "name": "Ellezelles",
    "lat": 50.73512,
    "lon": 3.67985
  },
  {
    "id": 2787407,
    "name": "Saint-Hubert",
    "lat": 50.02668,
    "lon": 5.37401
  },
  {
    "id": 2783805,
    "name": "Westende",
    "lat": 51.15961,
    "lon": 2.7687
  },
  {
    "id": 2788028,
    "name": "Rillaar",
    "lat": 50.97376,
    "lon": 4.89177
  },
  {
    "id": 2800711,
    "name": "Butgenbach",
    "lat": 50.42689,
    "lon": 6.20504
  },
  {
    "id": 2802518,
    "name": "Beaufays",
    "lat": 50.55884,
    "lon": 5.63881
  },
  {
    "id": 2802021,
    "name": "Beverst",
    "lat": 50.89091,
    "lon": 5.47548
  },
  {
    "id": 2799034,
    "name": "Dworp",
    "lat": 50.72983,
    "lon": 4.30106
  },
  {
    "id": 2796174,
    "name": "Heinsch",
    "lat": 49.69986,
    "lon": 5.7467
  },
  {
    "id": 2792245,
    "name": "Lobbes",
    "lat": 50.35258,
    "lon": 4.26716
  },
  {
    "id": 2791831,
    "name": "Malonne",
    "lat": 50.43969,
    "lon": 4.79562
  },
  {
    "id": 2798272,
    "name": "Florenville",
    "lat": 49.69983,
    "lon": 5.3074
  },
  {
    "id": 2785449,
    "name": "Tilff",
    "lat": 50.56432,
    "lon": 5.57642
  },
  {
    "id": 2792345,
    "name": "Limelette",
    "lat": 50.68428,
    "lon": 4.57186
  },
  {
    "id": 2800584,
    "name": "Céroux-Mousty",
    "lat": 50.66089,
    "lon": 4.5207
  },
  {
    "id": 2792879,
    "name": "Lendelede",
    "lat": 50.88626,
    "lon": 3.23747
  },
  {
    "id": 2790558,
    "name": "Muizen",
    "lat": 51.01111,
    "lon": 4.51427
  },
  {
    "id": 2803391,
    "name": "Achel",
    "lat": 51.253,
    "lon": 5.47977
  },
  {
    "id": 2786777,
    "name": "Sijsele",
    "lat": 51.20846,
    "lon": 3.31714
  },
  {
    "id": 2801283,
    "name": "Bouillon",
    "lat": 49.79324,
    "lon": 5.06703
  },
  {
    "id": 2800782,
    "name": "Bullange",
    "lat": 50.40731,
    "lon": 6.25749
  },
  {
    "id": 2791317,
    "name": "Mere",
    "lat": 50.92306,
    "lon": 3.97134
  },
  {
    "id": 2802034,
    "name": "Beveren-Leie",
    "lat": 50.87538,
    "lon": 3.34034
  },
  {
    "id": 2789769,
    "name": "Oostham",
    "lat": 51.10374,
    "lon": 5.17877
  },
  {
    "id": 2801891,
    "name": "Bissegem",
    "lat": 50.82378,
    "lon": 3.22844
  },
  {
    "id": 2800204,
    "name": "Comblain-au-Pont",
    "lat": 50.47488,
    "lon": 5.57711
  },
  {
    "id": 2796144,
    "name": "Hekelgem",
    "lat": 50.90569,
    "lon": 4.10769
  },
  {
    "id": 2798134,
    "name": "Forêt",
    "lat": 50.58387,
    "lon": 5.7
  },
  {
    "id": 2788650,
    "name": "Prayon",
    "lat": 50.57795,
    "lon": 5.6753
  },
  {
    "id": 2799509,
    "name": "Desselgem",
    "lat": 50.88611,
    "lon": 3.35958
  },
  {
    "id": 2798593,
    "name": "Étalle",
    "lat": 49.67385,
    "lon": 5.60019
  },
  {
    "id": 2803242,
    "name": "Amblève",
    "lat": 50.35357,
    "lon": 6.17002
  },
  {
    "id": 2784957,
    "name": "Veldegem",
    "lat": 51.1048,
    "lon": 3.1591
  },
  {
    "id": 2790906,
    "name": "Momignies",
    "lat": 50.0271,
    "lon": 4.16519
  },
  {
    "id": 2798847,
    "name": "Elewijt",
    "lat": 50.96043,
    "lon": 4.49684
  },
  {
    "id": 2798882,
    "name": "Eke",
    "lat": 50.95929,
    "lon": 3.6396
  },
  {
    "id": 2790043,
    "name": "Noorderwijk",
    "lat": 51.14122,
    "lon": 4.84061
  },
  {
    "id": 2796482,
    "name": "Hastière-Lavaux",
    "lat": 50.21849,
    "lon": 4.82446
  },
  {
    "id": 2787547,
    "name": "Ruiselede",
    "lat": 51.04039,
    "lon": 3.39416
  },
  {
    "id": 2790736,
    "name": "Moorsel",
    "lat": 50.94743,
    "lon": 4.09825
  },
  {
    "id": 2791566,
    "name": "Maurage",
    "lat": 50.45652,
    "lon": 4.09704
  },
  {
    "id": 2790451,
    "name": "Nassogne",
    "lat": 50.12849,
    "lon": 5.34274
  },
  {
    "id": 2785021,
    "name": "Varsenare",
    "lat": 51.18981,
    "lon": 3.13916
  },
  {
    "id": 2793392,
    "name": "Langemark",
    "lat": 50.9131,
    "lon": 2.91965
  },
  {
    "id": 2797500,
    "name": "Glabbeek",
    "lat": 50.87267,
    "lon": 4.95615
  },
  {
    "id": 2791733,
    "name": "Marchin",
    "lat": 50.46707,
    "lon": 5.2428
  },
  {
    "id": 2786938,
    "name": "Schriek",
    "lat": 51.02844,
    "lon": 4.69357
  },
  {
    "id": 2798678,
    "name": "Erpe",
    "lat": 50.93565,
    "lon": 3.97219
  },
  {
    "id": 2785477,
    "name": "Tielt",
    "lat": 50.9421,
    "lon": 4.90505
  },
  {
    "id": 2788211,
    "name": "Remicourt",
    "lat": 50.68069,
    "lon": 5.32785
  },
  {
    "id": 2795740,
    "name": "Hingene",
    "lat": 51.10345,
    "lon": 4.26904
  },
  {
    "id": 2792313,
    "name": "Linden",
    "lat": 50.89494,
    "lon": 4.77027
  },
  {
    "id": 2789354,
    "name": "Paliseul",
    "lat": 49.90395,
    "lon": 5.13537
  },
  {
    "id": 2800541,
    "name": "Champion",
    "lat": 50.4953,
    "lon": 4.90385
  },
  {
    "id": 2787176,
    "name": "Sauvenière",
    "lat": 50.58157,
    "lon": 4.72466
  },
  {
    "id": 2799416,
    "name": "Diegem",
    "lat": 50.89727,
    "lon": 4.43354
  },
  {
    "id": 2786728,
    "name": "Sint-Antonius",
    "lat": 51.26667,
    "lon": 4.63861
  },
  {
    "id": 2795337,
    "name": "Hotton",
    "lat": 50.26742,
    "lon": 5.44609
  },
  {
    "id": 2787147,
    "name": "Schaffen",
    "lat": 50.99993,
    "lon": 5.08667
  },
  {
    "id": 2801992,
    "name": "Bierges",
    "lat": 50.71143,
    "lon": 4.58658
  },
  {
    "id": 2788227,
    "name": "Rekkem",
    "lat": 50.7837,
    "lon": 3.16346
  },
  {
    "id": 2790868,
    "name": "Mons-lez-Liège",
    "lat": 50.62306,
    "lon": 5.45626
  },
  {
    "id": 2803014,
    "name": "Astene",
    "lat": 50.98512,
    "lon": 3.56654
  },
  {
    "id": 2801292,
    "name": "Bouffioulx",
    "lat": 50.39116,
    "lon": 4.5155
  },
  {
    "id": 2784211,
    "name": "Waha",
    "lat": 50.20915,
    "lon": 5.34174
  },
  {
    "id": 2787530,
    "name": "Rumes",
    "lat": 50.5545,
    "lon": 3.30535
  },
  {
    "id": 2792108,
    "name": "Loppem",
    "lat": 51.15662,
    "lon": 3.19599
  },
  {
    "id": 2803252,
    "name": "Alveringem",
    "lat": 51.01238,
    "lon": 2.71117
  },
  {
    "id": 2789943,
    "name": "Oelegem",
    "lat": 51.2131,
    "lon": 4.59832
  },
  {
    "id": 2800320,
    "name": "Chiny",
    "lat": 49.73833,
    "lon": 5.34104
  },
  {
    "id": 2793558,
    "name": "La Hestre",
    "lat": 50.47556,
    "lon": 4.24739
  },
  {
    "id": 2783791,
    "name": "Westkapelle",
    "lat": 51.31511,
    "lon": 3.3017
  },
  {
    "id": 2802087,
    "name": "Betekom",
    "lat": 50.98683,
    "lon": 4.78185
  },
  {
    "id": 2795617,
    "name": "Hofstade",
    "lat": 50.99134,
    "lon": 4.49229
  },
  {
    "id": 2792119,
    "name": "Lontzen",
    "lat": 50.68126,
    "lon": 6.00712
  },
  {
    "id": 2787550,
    "name": "Ruisbroek",
    "lat": 51.08832,
    "lon": 4.33127
  },
  {
    "id": 2789172,
    "name": "Péronnes",
    "lat": 50.43782,
    "lon": 4.14906
  },
  {
    "id": 2783915,
    "name": "Weelde",
    "lat": 51.40777,
    "lon": 4.99251
  },
  {
    "id": 2799114,
    "name": "Drogenbos",
    "lat": 50.78733,
    "lon": 4.31471
  },
  {
    "id": 2796616,
    "name": "Ham-sur-Heure",
    "lat": 50.323,
    "lon": 4.38844
  },
  {
    "id": 2796052,
    "name": "Heppen",
    "lat": 51.10934,
    "lon": 5.22898
  },
  {
    "id": 8521705,
    "name": "Aartrijke",
    "lat": 51.11915,
    "lon": 3.09076
  },
  {
    "id": 2792301,
    "name": "Linkebeek",
    "lat": 50.76781,
    "lon": 4.33688
  },
  {
    "id": 2795021,
    "name": "Itterbeek",
    "lat": 50.83803,
    "lon": 4.24948
  },
  {
    "id": 2785631,
    "name": "Tertre",
    "lat": 50.4692,
    "lon": 3.81243
  },
  {
    "id": 2796369,
    "name": "Havelange",
    "lat": 50.38931,
    "lon": 5.23816
  },
  {
    "id": 2800286,
    "name": "Clabecq",
    "lat": 50.69245,
    "lon": 4.2215
  },
  {
    "id": 2787307,
    "name": "Saive",
    "lat": 50.65316,
    "lon": 5.68517
  },
  {
    "id": 2792023,
    "name": "Luingne",
    "lat": 50.73952,
    "lon": 3.23603
  },
  {
    "id": 2802359,
    "name": "Belgrade",
    "lat": 50.47138,
    "lon": 4.82935
  },
  {
    "id": 2801525,
    "name": "Bonnert",
    "lat": 49.71131,
    "lon": 5.81865
  },
  {
    "id": 2790120,
    "name": "Nimy",
    "lat": 50.47668,
    "lon": 3.95516
  },
  {
    "id": 2783868,
    "name": "Welle",
    "lat": 50.89876,
    "lon": 4.05602
  },
  {
    "id": 2784786,
    "name": "Vichte",
    "lat": 50.83868,
    "lon": 3.40129
  },
  {
    "id": 2783575,
    "name": "Winksele",
    "lat": 50.8986,
    "lon": 4.64607
  },
  {
    "id": 2783168,
    "name": "Zuun",
    "lat": 50.7902,
    "lon": 4.27711
  },
  {
    "id": 2797346,
    "name": "Gouvy",
    "lat": 50.186,
    "lon": 5.93917
  },
  {
    "id": 2792093,
    "name": "Lot",
    "lat": 50.7679,
    "lon": 4.27711
  },
  {
    "id": 2784907,
    "name": "Veltem-Beisem",
    "lat": 50.90807,
    "lon": 4.61906
  },
  {
    "id": 2798730,
    "name": "Ensival",
    "lat": 50.58053,
    "lon": 5.84927
  },
  {
    "id": 2800363,
    "name": "Cheratte",
    "lat": 50.68237,
    "lon": 5.66955
  },
  {
    "id": 2786628,
    "name": "Sint-Lambrechts-Herk",
    "lat": 50.89914,
    "lon": 5.30786
  },
  {
    "id": 2791090,
    "name": "Moerzeke",
    "lat": 51.06914,
    "lon": 4.16137
  },
  {
    "id": 2789409,
    "name": "Overmere",
    "lat": 51.04691,
    "lon": 3.9466
  },
  {
    "id": 2795322,
    "name": "Houffalize",
    "lat": 50.13235,
    "lon": 5.78962
  },
  {
    "id": 2792442,
    "name": "Libin",
    "lat": 49.98107,
    "lon": 5.25612
  },
  {
    "id": 2786570,
    "name": "Sint-Pauwels",
    "lat": 51.19391,
    "lon": 4.09649
  },
  {
    "id": 2798714,
    "name": "Eppegem",
    "lat": 50.96237,
    "lon": 4.45513
  },
  {
    "id": 2784994,
    "name": "Vaux-sur-Sûre",
    "lat": 49.911,
    "lon": 5.57848
  },
  {
    "id": 2794632,
    "name": "Kaulille",
    "lat": 51.18763,
    "lon": 5.52372
  },
  {
    "id": 2788135,
    "name": "Retinne",
    "lat": 50.63084,
    "lon": 5.69821
  },
  {
    "id": 2802042,
    "name": "Bévercé",
    "lat": 50.44101,
    "lon": 6.03535
  },
  {
    "id": 2794525,
    "name": "Kermt",
    "lat": 50.94757,
    "lon": 5.24832
  },
  {
    "id": 2798313,
    "name": "Flawinne",
    "lat": 50.45794,
    "lon": 4.81047
  },
  {
    "id": 2786387,
    "name": "Somme-Leuze",
    "lat": 50.33699,
    "lon": 5.36705
  },
  {
    "id": 2785736,
    "name": "Teralfene",
    "lat": 50.89195,
    "lon": 4.09895
  },
  {
    "id": 2803040,
    "name": "Asper",
    "lat": 50.9137,
    "lon": 3.65126
  },
  {
    "id": 2795238,
    "name": "Houyet",
    "lat": 50.18619,
    "lon": 5.00762
  },
  {
    "id": 2800591,
    "name": "Cerfontaine",
    "lat": 50.17047,
    "lon": 4.41028
  },
  {
    "id": 2790532,
    "name": "Munsterbilzen",
    "lat": 50.88939,
    "lon": 5.52647
  },
  {
    "id": 2788231,
    "name": "Rekem",
    "lat": 50.92244,
    "lon": 5.6938
  },
  {
    "id": 2802996,
    "name": "Attert",
    "lat": 49.75035,
    "lon": 5.78634
  },
  {
    "id": 2797552,
    "name": "Gierle",
    "lat": 51.26852,
    "lon": 4.86733
  },
  {
    "id": 2801290,
    "name": "Bouge",
    "lat": 50.47193,
    "lon": 4.89218
  },
  {
    "id": 2801636,
    "name": "Bois-d'Haine",
    "lat": 50.5018,
    "lon": 4.21555
  },
  {
    "id": 2795148,
    "name": "Humbeek",
    "lat": 50.96799,
    "lon": 4.3796
  },
  {
    "id": 2793054,
    "name": "Leefdaal",
    "lat": 50.84759,
    "lon": 4.58936
  },
  {
    "id": 2793346,
    "name": "Lanklaar",
    "lat": 51.01937,
    "lon": 5.72508
  },
  {
    "id": 2803150,
    "name": "Antheit",
    "lat": 50.54927,
    "lon": 5.24022
  },
  {
    "id": 2786349,
    "name": "Sougné-Remouchamps",
    "lat": 50.48242,
    "lon": 5.70757
  },
  {
    "id": 2783739,
    "name": "Wezemaal",
    "lat": 50.94848,
    "lon": 4.75536
  },
  {
    "id": 2798365,
    "name": "Ferrières",
    "lat": 50.40157,
    "lon": 5.61092
  },
  {
    "id": 2789972,
    "name": "Obourg",
    "lat": 50.47384,
    "lon": 4.00881
  },
  {
    "id": 2788368,
    "name": "Ramsel",
    "lat": 51.0324,
    "lon": 4.83242
  },
  {
    "id": 2797781,
    "name": "Gedinne",
    "lat": 49.98037,
    "lon": 4.93674
  },
  {
    "id": 2795063,
    "name": "Incourt",
    "lat": 50.69151,
    "lon": 4.79816
  },
  {
    "id": 2784529,
    "name": "Vivegnis",
    "lat": 50.69243,
    "lon": 5.64757
  },
  {
    "id": 2801880,
    "name": "Blaasveld",
    "lat": 51.05585,
    "lon": 4.37668
  },
  {
    "id": 2788854,
    "name": "Ploegsteert",
    "lat": 50.72659,
    "lon": 2.88019
  },
  {
    "id": 2792356,
    "name": "Lillois-Witterzée",
    "lat": 50.64549,
    "lon": 4.36681
  },
  {
    "id": 2785957,
    "name": "Strijpen",
    "lat": 50.86801,
    "lon": 3.78797
  },
  {
    "id": 2796820,
    "name": "Haasdonk",
    "lat": 51.18151,
    "lon": 4.24137
  },
  {
    "id": 2789684,
    "name": "Opoeteren",
    "lat": 51.06923,
    "lon": 5.65556
  },
  {
    "id": 2789908,
    "name": "Ohey",
    "lat": 50.4357,
    "lon": 5.12375
  },
  {
    "id": 2795949,
    "name": "Héron",
    "lat": 50.54731,
    "lon": 5.09774
  },
  {
    "id": 2792219,
    "name": "Loenhout",
    "lat": 51.39947,
    "lon": 4.64404
  },
  {
    "id": 2800497,
    "name": "Lasne-Chapelle-Saint-Lambert",
    "lat": 50.69298,
    "lon": 4.50105
  },
  {
    "id": 2794127,
    "name": "Koningshooikt",
    "lat": 51.09607,
    "lon": 4.60992
  },
  {
    "id": 2790240,
    "name": "Neuville-en-Condroz",
    "lat": 50.55293,
    "lon": 5.45076
  },
  {
    "id": 2787805,
    "name": "Romsée",
    "lat": 50.61091,
    "lon": 5.66457
  },
  {
    "id": 2792071,
    "name": "Louveigné",
    "lat": 50.53015,
    "lon": 5.71547
  },
  {
    "id": 2791154,
    "name": "Minderhout",
    "lat": 51.41709,
    "lon": 4.76292
  },
  {
    "id": 2801849,
    "name": "Blaton",
    "lat": 50.50038,
    "lon": 3.66008
  },
  {
    "id": 2789708,
    "name": "Ophain-Bois-Seigneur-Isaac",
    "lat": 50.66646,
    "lon": 4.34865
  },
  {
    "id": 2786236,
    "name": "Spy",
    "lat": 50.48143,
    "lon": 4.70944
  },
  {
    "id": 2798056,
    "name": "Sint-Pieters-Voeren",
    "lat": 50.73863,
    "lon": 5.82224
  },
  {
    "id": 2790515,
    "name": "Musson",
    "lat": 49.55835,
    "lon": 5.70525
  },
  {
    "id": 2793279,
    "name": "La Roche-en-Ardenne",
    "lat": 50.18361,
    "lon": 5.57547
  },
  {
    "id": 2785436,
    "name": "Tilleur",
    "lat": 50.61805,
    "lon": 5.54277
  },
  {
    "id": 2795502,
    "name": "Hombeek",
    "lat": 51.01753,
    "lon": 4.43891
  },
  {
    "id": 2786330,
    "name": "Souvret",
    "lat": 50.4486,
    "lon": 4.34569
  },
  {
    "id": 2791950,
    "name": "Machelen-aan-de-Leie",
    "lat": 50.95973,
    "lon": 3.49046
  },
  {
    "id": 2789439,
    "name": "Overboelare",
    "lat": 50.76382,
    "lon": 3.86369
  },
  {
    "id": 2797513,
    "name": "Gits",
    "lat": 50.99687,
    "lon": 3.09564
  },
  {
    "id": 2802985,
    "name": "Aubel",
    "lat": 50.70189,
    "lon": 5.85812
  },
  {
    "id": 2803148,
    "name": "Anthisnes",
    "lat": 50.48323,
    "lon": 5.519
  },
  {
    "id": 2794488,
    "name": "Kettenis",
    "lat": 50.64761,
    "lon": 6.04686
  },
  {
    "id": 2797341,
    "name": "Gozée",
    "lat": 50.33461,
    "lon": 4.35273
  },
  {
    "id": 2784328,
    "name": "Vrasene",
    "lat": 51.22098,
    "lon": 4.19094
  },
  {
    "id": 2800269,
    "name": "Clavier",
    "lat": 50.40069,
    "lon": 5.35154
  },
  {
    "id": 2801013,
    "name": "Broechem",
    "lat": 51.18133,
    "lon": 4.60181
  },
  {
    "id": 2788151,
    "name": "Ressaix",
    "lat": 50.42285,
    "lon": 4.19442
  },
  {
    "id": 2795108,
    "name": "Hyon",
    "lat": 50.43805,
    "lon": 3.96031
  },
  {
    "id": 2798556,
    "name": "Everberg",
    "lat": 50.87685,
    "lon": 4.56983
  },
  {
    "id": 2789551,
    "name": "Oudegem",
    "lat": 51.01017,
    "lon": 4.06195
  },
  {
    "id": 2786705,
    "name": "Sint-Eloois-Winkel",
    "lat": 50.87591,
    "lon": 3.18144
  },
  {
    "id": 2788724,
    "name": "Poppel",
    "lat": 51.44565,
    "lon": 5.0433
  },
  {
    "id": 2783854,
    "name": "Wenduine",
    "lat": 51.2983,
    "lon": 3.08213
  },
  {
    "id": 2791329,
    "name": "Merbes-le-Château",
    "lat": 50.32449,
    "lon": 4.16489
  },
  {
    "id": 2791901,
    "name": "Maisières",
    "lat": 50.4882,
    "lon": 3.96564
  },
  {
    "id": 2794466,
    "name": "Kieldrecht",
    "lat": 51.28914,
    "lon": 4.17587
  },
  {
    "id": 2785451,
    "name": "Tildonk",
    "lat": 50.94383,
    "lon": 4.64481
  },
  {
    "id": 2785232,
    "name": "Trivières",
    "lat": 50.44827,
    "lon": 4.14511
  },
  {
    "id": 2786707,
    "name": "Sint-Eloois-Vijve",
    "lat": 50.90911,
    "lon": 3.41545
  },
  {
    "id": 2783380,
    "name": "Zaffelare",
    "lat": 51.13385,
    "lon": 3.86357
  },
  {
    "id": 2796005,
    "name": "Herenthout",
    "lat": 51.1401,
    "lon": 4.75572
  },
  {
    "id": 2785482,
    "name": "Tielen",
    "lat": 51.24295,
    "lon": 4.89956
  },
  {
    "id": 2789867,
    "name": "Olsene",
    "lat": 50.93422,
    "lon": 3.46389
  },
  {
    "id": 2795963,
    "name": "Hermée",
    "lat": 50.70883,
    "lon": 5.61831
  },
  {
    "id": 2802787,
    "name": "Baelen",
    "lat": 50.63131,
    "lon": 5.97433
  },
  {
    "id": 2792437,
    "name": "Libramont",
    "lat": 49.91741,
    "lon": 5.37318
  },
  {
    "id": 2792871,
    "name": "Lens",
    "lat": 50.55696,
    "lon": 3.89946
  },
  {
    "id": 2783924,
    "name": "Wechelderzande",
    "lat": 51.26304,
    "lon": 4.78652
  },
  {
    "id": 2792692,
    "name": "Deux-Acren",
    "lat": 50.73026,
    "lon": 3.85315
  },
  {
    "id": 2796722,
    "name": "Halanzy",
    "lat": 49.56052,
    "lon": 5.74433
  },
  {
    "id": 2791854,
    "name": "Malderen",
    "lat": 51.02077,
    "lon": 4.24639
  },
  {
    "id": 2792985,
    "name": "Léglise",
    "lat": 49.79985,
    "lon": 5.53652
  },
  {
    "id": 2783307,
    "name": "Zeebrugge",
    "lat": 51.32901,
    "lon": 3.18188
  },
  {
    "id": 2799642,
    "name": "Denderwindeke",
    "lat": 50.79731,
    "lon": 4.02512
  },
  {
    "id": 2784924,
    "name": "Veldwezelt",
    "lat": 50.86805,
    "lon": 5.63101
  },
  {
    "id": 2796798,
    "name": "Haccourt",
    "lat": 50.73091,
    "lon": 5.66963
  },
  {
    "id": 2789869,
    "name": "Olne",
    "lat": 50.58994,
    "lon": 5.74662
  },
  {
    "id": 2791132,
    "name": "Modave",
    "lat": 50.44614,
    "lon": 5.29532
  },
  {
    "id": 2798539,
    "name": "Eynatten",
    "lat": 50.69243,
    "lon": 6.08351
  },
  {
    "id": 2785480,
    "name": "Tielrode",
    "lat": 51.11303,
    "lon": 4.17707
  },
  {
    "id": 2802334,
    "name": "Bellegem",
    "lat": 50.77686,
    "lon": 3.27933
  },
  {
    "id": 2799728,
    "name": "De Klinge",
    "lat": 51.25627,
    "lon": 4.09041
  },
  {
    "id": 2798787,
    "name": "Emblem",
    "lat": 51.16238,
    "lon": 4.60485
  },
  {
    "id": 2799908,
    "name": "Dadizele",
    "lat": 50.85138,
    "lon": 3.09468
  },
  {
    "id": 2787077,
    "name": "Schellebelle",
    "lat": 51.01136,
    "lon": 3.92843
  },
  {
    "id": 2784345,
    "name": "Vossem",
    "lat": 50.8363,
    "lon": 4.56036
  },
  {
    "id": 2789873,
    "name": "Olmen",
    "lat": 51.14228,
    "lon": 5.14999
  },
  {
    "id": 2786537,
    "name": "Sirault",
    "lat": 50.50546,
    "lon": 3.78908
  },
  {
    "id": 2802532,
    "name": "Bavikhove",
    "lat": 50.87532,
    "lon": 3.31062
  },
  {
    "id": 2786015,
    "name": "Stokkem",
    "lat": 51.02326,
    "lon": 5.74499
  },
  {
    "id": 2786046,
    "name": "Stevoort",
    "lat": 50.91862,
    "lon": 5.25327
  },
  {
    "id": 2787666,
    "name": "Rotem",
    "lat": 51.05289,
    "lon": 5.74096
  },
  {
    "id": 2798826,
    "name": "Élouges",
    "lat": 50.40245,
    "lon": 3.75175
  },
  {
    "id": 2796886,
    "name": "Gruitrode",
    "lat": 51.08936,
    "lon": 5.58824
  },
  {
    "id": 2787084,
    "name": "Scheldewindeke",
    "lat": 50.93436,
    "lon": 3.78663
  },
  {
    "id": 2802273,
    "name": "Ben-Ahin",
    "lat": 50.50415,
    "lon": 5.18683
  },
  {
    "id": 2792893,
    "name": "Lembeke",
    "lat": 51.19487,
    "lon": 3.63333
  },
  {
    "id": 2801218,
    "name": "Bousval",
    "lat": 50.61663,
    "lon": 4.508
  },
  {
    "id": 2783946,
    "name": "Wauthier-Braine",
    "lat": 50.68183,
    "lon": 4.29849
  },
  {
    "id": 2798501,
    "name": "Falisolle",
    "lat": 50.41814,
    "lon": 4.62104
  },
  {
    "id": 2791486,
    "name": "Meerle",
    "lat": 51.47235,
    "lon": 4.80316
  },
  {
    "id": 2785784,
    "name": "Templeuve",
    "lat": 50.6441,
    "lon": 3.28013
  },
  {
    "id": 2802746,
    "name": "Balegem",
    "lat": 50.9257,
    "lon": 3.79076
  },
  {
    "id": 2784370,
    "name": "Vorselaar",
    "lat": 51.20243,
    "lon": 4.77259
  },
  {
    "id": 2794567,
    "name": "Kemzeke",
    "lat": 51.20981,
    "lon": 4.07428
  },
  {
    "id": 2784504,
    "name": "Vlamertinge",
    "lat": 50.85485,
    "lon": 2.82024
  },
  {
    "id": 2783817,
    "name": "Wespelaar",
    "lat": 50.96081,
    "lon": 4.63984
  },
  {
    "id": 2784141,
    "name": "Walsbets",
    "lat": 50.73762,
    "lon": 5.08409
  },
  {
    "id": 2794092,
    "name": "Korbeek-Lo",
    "lat": 50.86028,
    "lon": 4.76274
  },
  {
    "id": 2797805,
    "name": "Gaurain-Ramecroix",
    "lat": 50.58923,
    "lon": 3.48798
  },
  {
    "id": 2784856,
    "name": "Verlaine",
    "lat": 50.60743,
    "lon": 5.3174
  },
  {
    "id": 2789929,
    "name": "Oevel",
    "lat": 51.13789,
    "lon": 4.90471
  },
  {
    "id": 2783721,
    "name": "Wiekevorst",
    "lat": 51.10796,
    "lon": 4.7924
  },
  {
    "id": 2797937,
    "name": "Froidchapelle",
    "lat": 50.15106,
    "lon": 4.32742
  },
  {
    "id": 2783271,
    "name": "Zepperen",
    "lat": 50.82139,
    "lon": 5.24769
  },
  {
    "id": 2803217,
    "name": "Ampsin",
    "lat": 50.54153,
    "lon": 5.2779
  },
  {
    "id": 2791098,
    "name": "Moerkerke",
    "lat": 51.24547,
    "lon": 3.34251
  },
  {
    "id": 2789741,
    "name": "Oostnieuwkerke",
    "lat": 50.93959,
    "lon": 3.05742
  },
  {
    "id": 2783844,
    "name": "Werchter",
    "lat": 50.97308,
    "lon": 4.7012
  },
  {
    "id": 2789712,
    "name": "Opgrimbie",
    "lat": 50.94188,
    "lon": 5.67967
  },
  {
    "id": 2791013,
    "name": "Molenbeersel",
    "lat": 51.17041,
    "lon": 5.73761
  },
  {
    "id": 2802639,
    "name": "Basècles",
    "lat": 50.52549,
    "lon": 3.64944
  },
  {
    "id": 2785422,
    "name": "Tintigny",
    "lat": 49.68326,
    "lon": 5.51349
  },
  {
    "id": 2789053,
    "name": "Petit-Rechain",
    "lat": 50.61489,
    "lon": 5.83417
  },
  {
    "id": 2786810,
    "name": "Serskamp",
    "lat": 50.98849,
    "lon": 3.92657
  },
  {
    "id": 2790272,
    "name": "Neufvilles",
    "lat": 50.57107,
    "lon": 4.00041
  },
  {
    "id": 2791515,
    "name": "Meer",
    "lat": 51.44641,
    "lon": 4.73906
  },
  {
    "id": 2784971,
    "name": "Velaine",
    "lat": 50.47805,
    "lon": 4.61031
  },
  {
    "id": 2796700,
    "name": "Hallaar",
    "lat": 51.0842,
    "lon": 4.72918
  },
  {
    "id": 2796629,
    "name": "Hamoir",
    "lat": 50.42675,
    "lon": 5.53304
  },
  {
    "id": 2790744,
    "name": "Montzen",
    "lat": 50.70793,
    "lon": 5.96223
  },
  {
    "id": 2786154,
    "name": "Steendorp",
    "lat": 51.12681,
    "lon": 4.27031
  },
  {
    "id": 2791994,
    "name": "Luttre",
    "lat": 50.51006,
    "lon": 4.39709
  },
  {
    "id": 2783333,
    "name": "Zandvoorde",
    "lat": 51.19942,
    "lon": 2.9722
  },
  {
    "id": 2799078,
    "name": "Duisburg",
    "lat": 50.81584,
    "lon": 4.55533
  },
  {
    "id": 2785296,
    "name": "Trembleur",
    "lat": 50.69544,
    "lon": 5.72604
  },
  {
    "id": 2802225,
    "name": "Berg",
    "lat": 50.93063,
    "lon": 4.54336
  },
  {
    "id": 2789716,
    "name": "Opdorp",
    "lat": 51.02806,
    "lon": 4.21801
  },
  {
    "id": 2795170,
    "name": "Hulshout",
    "lat": 51.07451,
    "lon": 4.79081
  },
  {
    "id": 2798611,
    "name": "Essene",
    "lat": 50.90163,
    "lon": 4.13743
  },
  {
    "id": 2796614,
    "name": "Ham-sur-Sambre",
    "lat": 50.44368,
    "lon": 4.67425
  },
  {
    "id": 2789817,
    "name": "Ooigem",
    "lat": 50.89334,
    "lon": 3.3363
  },
  {
    "id": 2785418,
    "name": "Tisselt",
    "lat": 51.03398,
    "lon": 4.35947
  },
  {
    "id": 2793434,
    "name": "Landegem",
    "lat": 51.05518,
    "lon": 3.57667
  },
  {
    "id": 2793031,
    "name": "Leernes",
    "lat": 50.39812,
    "lon": 4.33239
  },
  {
    "id": 2784280,
    "name": "Vucht",
    "lat": 50.97832,
    "lon": 5.711
  },
  {
    "id": 2787322,
    "name": "Saint-Symphorien",
    "lat": 50.43903,
    "lon": 4.00726
  },
  {
    "id": 2802865,
    "name": "Averbode",
    "lat": 51.02887,
    "lon": 4.98067
  },
  {
    "id": 2783901,
    "name": "Wegnez",
    "lat": 50.57895,
    "lon": 5.81705
  },
  {
    "id": 2797542,
    "name": "Gijzegem",
    "lat": 50.98602,
    "lon": 4.04938
  },
  {
    "id": 2796066,
    "name": "Hennuyères",
    "lat": 50.6386,
    "lon": 4.16935
  },
  {
    "id": 2797344,
    "name": "Gouy-lez-Piéton",
    "lat": 50.4907,
    "lon": 4.3289
  },
  {
    "id": 2784487,
    "name": "Vlezenbeek",
    "lat": 50.80778,
    "lon": 4.23197
  },
  {
    "id": 2790953,
    "name": "Molenstede",
    "lat": 51.00401,
    "lon": 5.01298
  },
  {
    "id": 2789635,
    "name": "Oreye",
    "lat": 50.73187,
    "lon": 5.35818
  },
  {
    "id": 2784903,
    "name": "Velzeke-Ruddershove",
    "lat": 50.88288,
    "lon": 3.78292
  },
  {
    "id": 2800936,
    "name": "Brugelette",
    "lat": 50.59577,
    "lon": 3.85363
  },
  {
    "id": 2797977,
    "name": "Frasnes-lez-Gosselies",
    "lat": 50.53838,
    "lon": 4.45232
  },
  {
    "id": 2786685,
    "name": "Sint-Huibrechts-Lille",
    "lat": 51.22266,
    "lon": 5.49437
  },
  {
    "id": 2798512,
    "name": "Faimes",
    "lat": 50.66252,
    "lon": 5.26005
  },
  {
    "id": 2796809,
    "name": "Habay-la-Neuve",
    "lat": 49.7282,
    "lon": 5.6474
  },
  {
    "id": 2795157,
    "name": "Hulste",
    "lat": 50.88217,
    "lon": 3.29497
  },
  {
    "id": 2792400,
    "name": "Lierneux",
    "lat": 50.28477,
    "lon": 5.79236
  },
  {
    "id": 2788450,
    "name": "Quevaucamps",
    "lat": 50.51888,
    "lon": 3.68128
  },
  {
    "id": 2791719,
    "name": "Mark",
    "lat": 50.6914,
    "lon": 4.01559
  },
  {
    "id": 2801640,
    "name": "Bois-de-Villers",
    "lat": 50.39033,
    "lon": 4.82407
  },
  {
    "id": 2798897,
    "name": "Eindhout",
    "lat": 51.10385,
    "lon": 4.9999
  },
  {
    "id": 2802596,
    "name": "Bassevelde",
    "lat": 51.23103,
    "lon": 3.67798
  },
  {
    "id": 2799351,
    "name": "Dion-le-Mont",
    "lat": 50.69653,
    "lon": 4.66657
  },
  {
    "id": 2794823,
    "name": "Kachtem",
    "lat": 50.93341,
    "lon": 3.19425
  },
  {
    "id": 2784014,
    "name": "Wasmuel",
    "lat": 50.44493,
    "lon": 3.84813
  },
  {
    "id": 2785562,
    "name": "Thimister",
    "lat": 50.65539,
    "lon": 5.86421
  },
  {
    "id": 2795752,
    "name": "Hillegem",
    "lat": 50.89567,
    "lon": 3.8531
  },
  {
    "id": 2783229,
    "name": "Zichen-Zussen-Bolder",
    "lat": 50.79422,
    "lon": 5.62483
  },
  {
    "id": 2794107,
    "name": "Koolkerke",
    "lat": 51.23931,
    "lon": 3.24745
  },
  {
    "id": 2795703,
    "name": "Hoegaarden",
    "lat": 50.7756,
    "lon": 4.88952
  },
  {
    "id": 2788471,
    "name": "Quenast",
    "lat": 50.66959,
    "lon": 4.15661
  },
  {
    "id": 2789459,
    "name": "Outer",
    "lat": 50.84189,
    "lon": 3.9987
  },
  {
    "id": 2789886,
    "name": "Olen",
    "lat": 51.14391,
    "lon": 4.8598
  },
  {
    "id": 2801949,
    "name": "Bièvre",
    "lat": 49.94085,
    "lon": 5.01591
  },
  {
    "id": 2793482,
    "name": "Lambermont",
    "lat": 50.59038,
    "lon": 5.83245
  },
  {
    "id": 2802759,
    "name": "Baisy-Thy",
    "lat": 50.59708,
    "lon": 4.47598
  },
  {
    "id": 2791400,
    "name": "Melen",
    "lat": 50.6462,
    "lon": 5.73589
  },
  {
    "id": 2795189,
    "name": "Huizingen",
    "lat": 50.7465,
    "lon": 4.27377
  },
  {
    "id": 2790022,
    "name": "Nossegem",
    "lat": 50.88181,
    "lon": 4.50817
  },
  {
    "id": 2784195,
    "name": "Wakken",
    "lat": 50.93304,
    "lon": 3.39743
  },
  {
    "id": 2798575,
    "name": "Eugies",
    "lat": 50.38893,
    "lon": 3.88513
  },
  {
    "id": 2798638,
    "name": "Esen",
    "lat": 51.0294,
    "lon": 2.90189
  },
  {
    "id": 2785401,
    "name": "Tollembeek",
    "lat": 50.74096,
    "lon": 4.00666
  },
  {
    "id": 2787512,
    "name": "Rupelmonde",
    "lat": 51.12931,
    "lon": 4.29434
  },
  {
    "id": 2796603,
    "name": "Handzame",
    "lat": 51.0254,
    "lon": 3.0032
  },
  {
    "id": 2803343,
    "name": "Adinkerke",
    "lat": 51.07409,
    "lon": 2.59914
  },
  {
    "id": 2798290,
    "name": "Flobecq",
    "lat": 50.73733,
    "lon": 3.73876
  },
  {
    "id": 2785456,
    "name": "Tihange",
    "lat": 50.52974,
    "lon": 5.26176
  },
  {
    "id": 2785610,
    "name": "Testelt",
    "lat": 51.01084,
    "lon": 4.95312
  },
  {
    "id": 2803061,
    "name": "Arquennes",
    "lat": 50.56765,
    "lon": 4.27341
  },
  {
    "id": 2791757,
    "name": "Marbais",
    "lat": 50.54652,
    "lon": 4.53499
  },
  {
    "id": 2791790,
    "name": "Manhay",
    "lat": 50.29219,
    "lon": 5.67562
  },
  {
    "id": 2792167,
    "name": "Loncin",
    "lat": 50.66655,
    "lon": 5.50509
  },
  {
    "id": 2789832,
    "name": "Onkerzele",
    "lat": 50.78212,
    "lon": 3.91145
  },
  {
    "id": 2789696,
    "name": "Ophoven",
    "lat": 51.12571,
    "lon": 5.80155
  },
  {
    "id": 2798649,
    "name": "Erwetegem",
    "lat": 50.85547,
    "lon": 3.81444
  },
  {
    "id": 2789270,
    "name": "Passendale",
    "lat": 50.89979,
    "lon": 3.02133
  },
  {
    "id": 2787378,
    "name": "Saint-Léger",
    "lat": 49.61196,
    "lon": 5.65688
  },
  {
    "id": 2797455,
    "name": "Goeferdinge",
    "lat": 50.76605,
    "lon": 3.83978
  },
  {
    "id": 2798357,
    "name": "Fexhe-le-Haut-Clocher",
    "lat": 50.6654,
    "lon": 5.39978
  },
  {
    "id": 2784465,
    "name": "Vlimmeren",
    "lat": 51.2952,
    "lon": 4.78128
  },
  {
    "id": 2797696,
    "name": "Gemmenich",
    "lat": 50.74608,
    "lon": 5.99507
  },
  {
    "id": 2793478,
    "name": "Lambusart",
    "lat": 50.45433,
    "lon": 4.55263
  },
  {
    "id": 2801199,
    "name": "Bouwel",
    "lat": 51.17289,
    "lon": 4.7418
  },
  {
    "id": 2783696,
    "name": "Wijchmaal",
    "lat": 51.13515,
    "lon": 5.41334
  },
  {
    "id": 2784033,
    "name": "Warneton",
    "lat": 50.75158,
    "lon": 2.94635
  },
  {
    "id": 2801108,
    "name": "Bray",
    "lat": 50.43242,
    "lon": 4.10588
  },
  {
    "id": 2787235,
    "name": "Sart-Dames-Avelines",
    "lat": 50.56863,
    "lon": 4.49221
  },
  {
    "id": 2789834,
    "name": "Onhaye",
    "lat": 50.24148,
    "lon": 4.84069
  },
  {
    "id": 2789167,
    "name": "Perre",
    "lat": 50.88914,
    "lon": 3.86098
  },
  {
    "id": 2789807,
    "name": "Oordegem",
    "lat": 50.95727,
    "lon": 3.90201
  },
  {
    "id": 2800629,
    "name": "Casteau",
    "lat": 50.51233,
    "lon": 4.01121
  },
  {
    "id": 2800732,
    "name": "Burst",
    "lat": 50.91497,
    "lon": 3.91636
  },
  {
    "id": 2803119,
    "name": "Appelterre-Eichem",
    "lat": 50.81597,
    "lon": 3.97808
  },
  {
    "id": 2791403,
    "name": "Meldert",
    "lat": 50.93449,
    "lon": 4.13504
  },
  {
    "id": 2796816,
    "name": "Haasrode",
    "lat": 50.83169,
    "lon": 4.72953
  },
  {
    "id": 2785989,
    "name": "Stoumont",
    "lat": 50.40667,
    "lon": 5.80838
  },
  {
    "id": 2803427,
    "name": "Aarsele",
    "lat": 50.99663,
    "lon": 3.41954
  },
  {
    "id": 2796391,
    "name": "Hautrage",
    "lat": 50.48192,
    "lon": 3.76522
  },
  {
    "id": 2797349,
    "name": "Goutroux",
    "lat": 50.41333,
    "lon": 4.36226
  },
  {
    "id": 2783862,
    "name": "Wellin",
    "lat": 50.08133,
    "lon": 5.11413
  },
  {
    "id": 2802653,
    "name": "Barvaux",
    "lat": 50.34832,
    "lon": 5.49058
  },
  {
    "id": 2798698,
    "name": "Érezée",
    "lat": 50.29292,
    "lon": 5.55815
  },
  {
    "id": 2786913,
    "name": "Schulen",
    "lat": 50.95972,
    "lon": 5.1901
  },
  {
    "id": 2803454,
    "name": "Aalbeke",
    "lat": 50.77848,
    "lon": 3.22952
  },
  {
    "id": 2786140,
    "name": "Steenhuffel",
    "lat": 50.99539,
    "lon": 4.26788
  },
  {
    "id": 2783290,
    "name": "Zelem",
    "lat": 50.97739,
    "lon": 5.10687
  },
  {
    "id": 2801083,
    "name": "Breendonk",
    "lat": 51.04301,
    "lon": 4.32364
  },
  {
    "id": 2786649,
    "name": "Sint-Joris-Winge",
    "lat": 50.90446,
    "lon": 4.8749
  },
  {
    "id": 2797496,
    "name": "Glain",
    "lat": 50.64772,
    "lon": 5.5438
  },
  {
    "id": 2787664,
    "name": "Rotheux-Rimière",
    "lat": 50.53356,
    "lon": 5.48063
  },
  {
    "id": 2788752,
    "name": "Pont-de-Loup",
    "lat": 50.41656,
    "lon": 4.54594
  },
  {
    "id": 2787370,
    "name": "Saint-Mard",
    "lat": 49.55403,
    "lon": 5.53427
  },
  {
    "id": 2783710,
    "name": "Wiers",
    "lat": 50.50862,
    "lon": 3.53468
  },
  {
    "id": 2792332,
    "name": "Lincent",
    "lat": 50.71222,
    "lon": 5.03654
  },
  {
    "id": 2793293,
    "name": "La Reid",
    "lat": 50.48914,
    "lon": 5.79098
  },
  {
    "id": 2796288,
    "name": "Heestert",
    "lat": 50.78204,
    "lon": 3.41218
  },
  {
    "id": 2803122,
    "name": "Appels",
    "lat": 51.03225,
    "lon": 4.06141
  },
  {
    "id": 2783913,
    "name": "Weerde",
    "lat": 50.97345,
    "lon": 4.47487
  },
  {
    "id": 2802032,
    "name": "Beveren",
    "lat": 50.97256,
    "lon": 3.14389
  },
  {
    "id": 2802113,
    "name": "Bertogne",
    "lat": 50.08364,
    "lon": 5.66689
  },
  {
    "id": 2788837,
    "name": "Poederlee",
    "lat": 51.22769,
    "lon": 4.84034
  },
  {
    "id": 2791121,
    "name": "Moerbeke",
    "lat": 50.75254,
    "lon": 3.91724
  },
  {
    "id": 2790504,
    "name": "Naast",
    "lat": 50.55413,
    "lon": 4.10082
  },
  {
    "id": 2800036,
    "name": "Couthuin",
    "lat": 50.5316,
    "lon": 5.12323
  },
  {
    "id": 2788539,
    "name": "Pulderbos",
    "lat": 51.2171,
    "lon": 4.69357
  },
  {
    "id": 2787527,
    "name": "Rumillies",
    "lat": 50.62105,
    "lon": 3.44325
  },
  {
    "id": 2796966,
    "name": "Grote-Brogel",
    "lat": 51.15281,
    "lon": 5.5059
  },
  {
    "id": 2793867,
    "name": "Kumtich",
    "lat": 50.82101,
    "lon": 4.88723
  },
  {
    "id": 2802842,
    "name": "Aye",
    "lat": 50.22471,
    "lon": 5.30064
  },
  {
    "id": 2788534,
    "name": "Pulle",
    "lat": 51.20317,
    "lon": 4.71434
  },
  {
    "id": 2790267,
    "name": "Neu-Moresnet",
    "lat": 50.71575,
    "lon": 6.02119
  },
  {
    "id": 2787432,
    "name": "Saintes",
    "lat": 50.70499,
    "lon": 4.16006
  },
  {
    "id": 2792090,
    "name": "Lotenhulle",
    "lat": 51.0502,
    "lon": 3.46162
  },
  {
    "id": 2789178,
    "name": "Perk",
    "lat": 50.93571,
    "lon": 4.49615
  },
  {
    "id": 2800761,
    "name": "Burdinne",
    "lat": 50.58454,
    "lon": 5.07663
  },
  {
    "id": 2790144,
    "name": "Nieuwrode",
    "lat": 50.95,
    "lon": 4.83333
  },
  {
    "id": 2787559,
    "name": "Ruien",
    "lat": 50.76865,
    "lon": 3.48581
  },
  {
    "id": 2795104,
    "name": "Iddergem",
    "lat": 50.87634,
    "lon": 4.04434
  },
  {
    "id": 2785094,
    "name": "Ursel",
    "lat": 51.12895,
    "lon": 3.48655
  },
  {
    "id": 2802424,
    "name": "Beervelde",
    "lat": 51.08302,
    "lon": 3.88635
  },
  {
    "id": 2802143,
    "name": "Berloz",
    "lat": 50.69829,
    "lon": 5.21236
  },
  {
    "id": 2787837,
    "name": "Rollegem",
    "lat": 50.76565,
    "lon": 3.26317
  },
  {
    "id": 2784558,
    "name": "Virginal-Samme",
    "lat": 50.64037,
    "lon": 4.20579
  },
  {
    "id": 2798674,
    "name": "Erpent",
    "lat": 50.45116,
    "lon": 4.90557
  },
  {
    "id": 2793023,
    "name": "Leest",
    "lat": 51.03319,
    "lon": 4.4153
  },
  {
    "id": 2783952,
    "name": "Waudrez",
    "lat": 50.4135,
    "lon": 4.15051
  },
  {
    "id": 2796001,
    "name": "Hergenrath",
    "lat": 50.70912,
    "lon": 6.03089
  },
  {
    "id": 2794537,
    "name": "Kerksken",
    "lat": 50.89068,
    "lon": 3.99478
  },
  {
    "id": 2799328,
    "name": "Doische",
    "lat": 50.13356,
    "lon": 4.73545
  },
  {
    "id": 2785705,
    "name": "Terhagen",
    "lat": 51.07966,
    "lon": 4.39907
  },
  {
    "id": 2783153,
    "name": "Zuienkerke",
    "lat": 51.26511,
    "lon": 3.15506
  },
  {
    "id": 2791126,
    "name": "Moen",
    "lat": 50.77013,
    "lon": 3.39485
  },
  {
    "id": 2791608,
    "name": "Massemen",
    "lat": 50.98086,
    "lon": 3.87394
  },
  {
    "id": 2790591,
    "name": "Moustier-sur-Sambre",
    "lat": 50.46668,
    "lon": 4.69614
  },
  {
    "id": 2789792,
    "name": "Oosteeklo",
    "lat": 51.19302,
    "lon": 3.68928
  },
  {
    "id": 2786595,
    "name": "Sint-Martens-Bodegem",
    "lat": 50.86185,
    "lon": 4.21317
  },
  {
    "id": 2799317,
    "name": "Donceel",
    "lat": 50.64827,
    "lon": 5.32
  },
  {
    "id": 2800875,
    "name": "Brustem",
    "lat": 50.80485,
    "lon": 5.22263
  },
  {
    "id": 2800880,
    "name": "Brussegem",
    "lat": 50.9256,
    "lon": 4.26682
  },
  {
    "id": 2797770,
    "name": "Geer",
    "lat": 50.6699,
    "lon": 5.17364
  },
  {
    "id": 2789020,
    "name": "Peutie",
    "lat": 50.92998,
    "lon": 4.45187
  },
  {
    "id": 2784130,
    "name": "Wambeek",
    "lat": 50.85281,
    "lon": 4.16169
  },
  {
    "id": 2791616,
    "name": "Masnuy-Saint-Jean",
    "lat": 50.53209,
    "lon": 3.94032
  },
  {
    "id": 2783704,
    "name": "Wieze",
    "lat": 50.97691,
    "lon": 4.07876
  },
  {
    "id": 2787423,
    "name": "Saint-Gérard",
    "lat": 50.34645,
    "lon": 4.74098
  },
  {
    "id": 2796632,
    "name": "Hamme-Mille",
    "lat": 50.78022,
    "lon": 4.71734
  },
  {
    "id": 2786399,
    "name": "Solre-sur-Sambre",
    "lat": 50.30809,
    "lon": 4.15429
  },
  {
    "id": 2784467,
    "name": "Vlijtingen",
    "lat": 50.83202,
    "lon": 5.58432
  },
  {
    "id": 2796063,
    "name": "Henri-Chapelle",
    "lat": 50.67688,
    "lon": 5.93009
  },
  {
    "id": 2792369,
    "name": "Ligny",
    "lat": 50.51244,
    "lon": 4.57735
  },
  {
    "id": 2797485,
    "name": "Glons",
    "lat": 50.75307,
    "lon": 5.54578
  },
  {
    "id": 2791419,
    "name": "Meix-devant-Virton",
    "lat": 49.60581,
    "lon": 5.48045
  },
  {
    "id": 2791368,
    "name": "Melsbroek",
    "lat": 50.91559,
    "lon": 4.47985
  },
  {
    "id": 2797727,
    "name": "Gellik",
    "lat": 50.88473,
    "lon": 5.61007
  },
  {
    "id": 2785845,
    "name": "Taintignies",
    "lat": 50.55277,
    "lon": 3.34224
  },
  {
    "id": 2787962,
    "name": "Robertville",
    "lat": 50.45406,
    "lon": 6.12205
  },
  {
    "id": 2789156,
    "name": "Perwez",
    "lat": 50.62426,
    "lon": 4.81354
  },
  {
    "id": 2791376,
    "name": "Mellet",
    "lat": 50.50573,
    "lon": 4.47856
  },
  {
    "id": 2802098,
    "name": "Beselare",
    "lat": 50.84812,
    "lon": 3.02449
  },
  {
    "id": 2798852,
    "name": "Elen",
    "lat": 51.06643,
    "lon": 5.75126
  },
  {
    "id": 2795970,
    "name": "Hermalle-sous-Argenteau",
    "lat": 50.71231,
    "lon": 5.67753
  },
  {
    "id": 2799586,
    "name": "Dentergem",
    "lat": 50.96429,
    "lon": 3.41617
  },
  {
    "id": 2784317,
    "name": "Vremde",
    "lat": 51.17535,
    "lon": 4.52321
  },
  {
    "id": 2799997,
    "name": "Crisnée",
    "lat": 50.71703,
    "lon": 5.39802
  },
  {
    "id": 2784914,
    "name": "Velm",
    "lat": 50.7787,
    "lon": 5.13096
  },
  {
    "id": 2785514,
    "name": "Thulin",
    "lat": 50.43006,
    "lon": 3.74007
  },
  {
    "id": 2800821,
    "name": "Budingen",
    "lat": 50.86509,
    "lon": 5.09847
  },
  {
    "id": 2789588,
    "name": "Otegem",
    "lat": 50.80693,
    "lon": 3.42043
  },
  {
    "id": 2801970,
    "name": "Biesme",
    "lat": 50.34015,
    "lon": 4.61048
  },
  {
    "id": 2791402,
    "name": "Meldert",
    "lat": 51.00007,
    "lon": 5.14215
  },
  {
    "id": 2799511,
    "name": "Dessel",
    "lat": 51.23855,
    "lon": 5.11448
  },
  {
    "id": 2795780,
    "name": "Hévillers",
    "lat": 50.62328,
    "lon": 4.61735
  },
  {
    "id": 2796020,
    "name": "Herdersem",
    "lat": 50.97193,
    "lon": 4.06667
  },
  {
    "id": 2793427,
    "name": "Landenne",
    "lat": 50.51534,
    "lon": 5.06684
  },
  {
    "id": 2789692,
    "name": "Opitter",
    "lat": 51.11705,
    "lon": 5.64749
  },
  {
    "id": 2784072,
    "name": "Wardin",
    "lat": 49.99213,
    "lon": 5.79117
  },
  {
    "id": 2790221,
    "name": "Niel-bij-As",
    "lat": 51.01851,
    "lon": 5.60526
  },
  {
    "id": 2788790,
    "name": "Polleur",
    "lat": 50.5394,
    "lon": 5.88078
  },