[
  {
    "id": 385038,
    "name": "Ar Rifā‘",
    "lat": 26.13,
    "lon": 50.555
  },
  {
    "id": 290340,
    "name": "Manama",
    "lat": 26.22787,
    "lon": 50.58565
  },
  {
    "id": 290332,
    "name": "Al Muharraq",
    "lat": 26.25722,
    "lon": 50.61194
  },
  {
    "id": 290269,
    "name": "Dār Kulayb",
    "lat": 26.06861,
    "lon": 50.50389
  },
  {
    "id": 290247,
    "name": "Madīnat Ḩamad",
    "lat": 26.11528,
    "lon": 50.50694
  },
  {
    "id": 290187,
    "name": "Madīnat ‘Īsá",
    "lat": 26.17361,
    "lon": 50.54778
  },
  {
    "id": 290104,
    "name": "Sitrah",
    "lat": 26.15472,
    "lon": 50.62056
  },
  {
    "id": 290215,
    "name": "Jidd Ḩafş",
    "lat": 26.21861,
    "lon": 50.54778
  },
  {
    "id": 290363,
    "name": "Al Ḩadd",
    "lat": 26.24556,
    "lon": 50.65417
  },
  {
    "id": 290121,
    "name": "Sanābis",
    "lat": 26.22722,
    "lon": 50.55083
  }
]