[
  {
    "id": 2394819,
    "name": "Cotonou",
    "lat": 6.36536,
    "lon": 2.41833
  },
  {
    "id": 2395914,
    "name": "Abomey-Calavi",
    "lat": 6.44852,
    "lon": 2.35566
  },
  {
    "id": 2392087,
    "name": "Porto-Novo",
    "lat": 6.49646,
    "lon": 2.60359
  },
  {
    "id": 2392204,
    "name": "Parakou",
    "lat": 9.33716,
    "lon": 2.63031
  },
  {
    "id": 2394092,
    "name": "Godomè",
    "lat": 6.38948,
    "lon": 2.34581
  },
  {
    "id": 2395915,
    "name": "Abomey",
    "lat": 7.18286,
    "lon": 1.99119
  },
  {
    "id": 2394560,
    "name": "Djougou",
    "lat": 9.70853,
    "lon": 1.66598
  },
  {
    "id": 2395049,
    "name": "Bohicon",
    "lat": 7.17826,
    "lon": 2.0667
  },
  {
    "id": 2394427,
    "name": "Ekpé",
    "lat": 6.39209,
    "lon": 2.53725
  },
  {
    "id": 2392505,
    "name": "Nikki",
    "lat": 9.94009,
    "lon": 3.21075
  },
  {
    "id": 2392837,
    "name": "Malanville",
    "lat": 11.86819,
    "lon": 3.38327
  },
  {
    "id": 2393693,
    "name": "Kandi",
    "lat": 11.13417,
    "lon": 2.93861
  },
  {
    "id": 2393561,
    "name": "Kérou",
    "lat": 10.82578,
    "lon": 2.10479
  },
  {
    "id": 2392601,
    "name": "Natitingou",
    "lat": 10.30416,
    "lon": 1.37962
  },
  {
    "id": 2392108,
    "name": "Pobé",
    "lat": 6.98008,
    "lon": 2.6649
  },
  {
    "id": 2392308,
    "name": "Ouidah",
    "lat": 6.36307,
    "lon": 2.08506
  },
  {
    "id": 2392897,
    "name": "Lokossa",
    "lat": 6.63869,
    "lon": 1.71674
  },
  {
    "id": 2395261,
    "name": "Bassila",
    "lat": 9.00814,
    "lon": 1.6654
  },
  {
    "id": 2391377,
    "name": "Tchaourou",
    "lat": 8.88649,
    "lon": 2.59753
  },
  {
    "id": 2394814,
    "name": "Cové",
    "lat": 7.22097,
    "lon": 2.34017
  },
  {
    "id": 2392009,
    "name": "Sakété",
    "lat": 6.73618,
    "lon": 2.65866
  },
  {
    "id": 2394824,
    "name": "Comé",
    "lat": 6.40764,
    "lon": 1.88198
  },
  {
    "id": 2392746,
    "name": "Missérété",
    "lat": 6.55872,
    "lon": 2.59063
  },
  {
    "id": 2394545,
    "name": "Dogbo",
    "lat": 6.79911,
    "lon": 1.78073
  },
  {
    "id": 2393551,
    "name": "Kétou",
    "lat": 7.36332,
    "lon": 2.59978
  },
  {
    "id": 2391895,
    "name": "Savalou",
    "lat": 7.92807,
    "lon": 1.97558
  },
  {
    "id": 2395317,
    "name": "Banikoara",
    "lat": 11.29845,
    "lon": 2.43856
  },
  {
    "id": 2392164,
    "name": "Péhonko",
    "lat": 10.22746,
    "lon": 2.00192
  },
  {
    "id": 2393722,
    "name": "Kalalé",
    "lat": 10.29275,
    "lon": 3.38367
  },
  {
    "id": 2391739,
    "name": "Sinendé",
    "lat": 10.34963,
    "lon": 2.37906
  },
  {
    "id": 2395325,
    "name": "Banigbé",
    "lat": 6.64756,
    "lon": 2.70695
  },
  {
    "id": 2391893,
    "name": "Savé",
    "lat": 8.03424,
    "lon": 2.4866
  },
  {
    "id": 2395182,
    "name": "Bembèrèkè",
    "lat": 10.22827,
    "lon": 2.66335
  },
  {
    "id": 2394711,
    "name": "Dassa-Zoumè",
    "lat": 7.75,
    "lon": 2.18333
  },
  {
    "id": 2394822,
    "name": "Kopargo",
    "lat": 9.84108,
    "lon": 1.54231
  },
  {
    "id": 2393287,
    "name": "Kouandé",
    "lat": 6.4,
    "lon": 2.06667
  },
  {
    "id": 2391455,
    "name": "Tanguiéta",
    "lat": 10.62118,
    "lon": 1.26651
  },
  {
    "id": 11427410,
    "name": "Kpozoun",
    "lat": 7.22868,
    "lon": 2.21317
  },
  {
    "id": 2391881,
    "name": "Sé",
    "lat": 6.51115,
    "lon": 1.82831
  },
  {
    "id": 2391871,
    "name": "Ségbana",
    "lat": 10.92821,
    "lon": 3.69429
  },
  {
    "id": 2395568,
    "name": "Aplahoué",
    "lat": 6.93333,
    "lon": 1.68333
  },
  {
    "id": 10339095,
    "name": "Cobly",
    "lat": 10.49222,
    "lon": 0.99972
  },
  {
    "id": 2392781,
    "name": "Matéri",
    "lat": 10.69623,
    "lon": 1.06307
  },
  {
    "id": 2395870,
    "name": "Adjarra",
    "lat": 6.53445,
    "lon": 2.66833
  },
  {
    "id": 2394576,
    "name": "Djidja",
    "lat": 7.34436,
    "lon": 1.93447
  },
  {
    "id": 10339148,
    "name": "Klouékanmè",
    "lat": 6.98028,
    "lon": 1.84222
  },
  {
    "id": 2391833,
    "name": "Semi",
    "lat": 6.36667,
    "lon": 2.61667
  },
  {
    "id": 2395635,
    "name": "Allada",
    "lat": 6.66547,
    "lon": 2.15138
  },
  {
    "id": 2392595,
    "name": "Ndali",
    "lat": 9.8636,
    "lon": 2.72094
  },
  {
    "id": 2394914,
    "name": "Boukoumbé",
    "lat": 10.17711,
    "lon": 1.10621
  },
  {
    "id": 2395874,
    "name": "Adjaouèrè",
    "lat": 7.00228,
    "lon": 2.60591
  },
  {
    "id": 2391034,
    "name": "Toviklin",
    "lat": 6.88935,
    "lon": 1.83722
  },
  {
    "id": 2395477,
    "name": "Avrankou",
    "lat": 6.55591,
    "lon": 2.65123
  },
  {
    "id": 2394111,
    "name": "Glazoué",
    "lat": 7.97252,
    "lon": 2.22176
  },
  {
    "id": 2394227,
    "name": "Ganvié",
    "lat": 6.46441,
    "lon": 2.39288
  },
  {
    "id": 2394597,
    "name": "Djakotomé",
    "lat": 6.8991,
    "lon": 1.71618
  },
  {
    "id": 2390731,
    "name": "Zinvié",
    "lat": 6.61738,
    "lon": 2.35776
  },
  {
    "id": 2395301,
    "name": "Banté",
    "lat": 8.41221,
    "lon": 1.88969
  },
  {
    "id": 2596746,
    "name": "Ouaké",
    "lat": 9.66167,
    "lon": 1.38472
  },
  {
    "id": 2392303,
    "name": "Ouinhi",
    "lat": 7.08411,
    "lon": 2.48343
  },
  {
    "id": 2390740,
    "name": "Zé",
    "lat": 6.78333,
    "lon": 2.3
  },
  {
    "id": 2391067,
    "name": "Toukountouna",
    "lat": 10.50279,
    "lon": 1.37437
  },
  {
    "id": 2392134,
    "name": "Pèrèrè",
    "lat": 9.79721,
    "lon": 2.98403
  },
  {
    "id": 2392319,
    "name": "Ouessé",
    "lat": 8.48639,
    "lon": 2.42872
  },
  {
    "id": 2395510,
    "name": "Athiémé",
    "lat": 6.5808,
    "lon": 1.6696
  },
  {
    "id": 2391101,
    "name": "Tori-Bossito",
    "lat": 6.50302,
    "lon": 2.1441
  },
  {
    "id": 2394087,
    "name": "Gogounou",
    "lat": 10.8399,
    "lon": 2.83174
  },
  {
    "id": 2392963,
    "name": "Lalo",
    "lat": 6.92869,
    "lon": 1.88994
  },
  {
    "id": 2393887,
    "name": "Hévié",
    "lat": 6.41667,
    "lon": 2.25
  },
  {
    "id": 2395127,
    "name": "Bétérou",
    "lat": 9.19916,
    "lon": 2.25855
  },
  {
    "id": 2393947,
    "name": "Grand-Popo",
    "lat": 6.28036,
    "lon": 1.82251
  },
  {
    "id": 2393917,
    "name": "Guilmaro",
    "lat": 10.56583,
    "lon": 1.72444
  },
  {
    "id": 2395752,
    "name": "Agoué",
    "lat": 6.2463,
    "lon": 1.67624
  },
  {
    "id": 2393883,
    "name": "Hinvi",
    "lat": 6.76667,
    "lon": 2.16667
  }
]