[
  {
    "id": 1820906,
    "name": "Bandar Seri Begawan",
    "lat": 4.89035,
    "lng": 114.94006
  },
  {
    "id": 1820575,
    "name": "Sengkurong",
    "lat": 4.88333,
    "lng": 114.83333
  },
  {
    "id": 1820635,
    "name": "Mentiri",
    "lat": 4.97058,
    "lng": 115.02078
  },
  {
    "id": 1820491,
    "name": "Kuala Belait",
    "lat": 4.58361,
    "lng": 114.2312
  },
  {
    "id": 1820187,
    "name": "Seria",
    "lat": 4.60637,
    "lng": 114.32476
  },
  {
    "id": 1820071,
    "name": "Tutong",
    "lat": 4.80278,
    "lng": 114.64917
  },
  {
    "id": 1820574,
    "name": "Serasa",
    "lat": 5.01761,
    "lng": 115.05798
  },
  {
    "id": 1820557,
    "name": "Liang",
    "lat": 4.67747,
    "lng": 114.49587
  },
  {
    "id": 1820622,
    "name": "Perumahan Negara Panchor",
    "lat": 4.96667,
    "lng": 115.01667
  },
  {
    "id": 1820545,
    "name": "Telisai",
    "lat": 4.73558,
    "lng": 114.56324
  },
  {
    "id": 1820659,
    "name": "Kota Batu",
    "lat": 4.88333,
    "lng": 114.95
  },
  {
    "id": 1820540,
    "name": "Kampong Tunah Jambu",
    "lat": 4.98333,
    "lng": 114.98333
  },
  {
    "id": 1820610,
    "name": "Pengkalan Batu",
    "lat": 4.78333,
    "lng": 114.83333
  },
  {
    "id": 1820593,
    "name": "Kampong Meragang",
    "lat": 4.93333,
    "lng": 114.91667
  },
  {
    "id": 1820665,
    "name": "Keriam",
    "lat": 4.81603,
    "lng": 114.6941
  },
  {
    "id": 1820641,
    "name": "Lumapas",
    "lat": 4.85,
    "lng": 114.91667
  },
  {
    "id": 1820653,
    "name": "Kampong Lambak A",
    "lat": 4.96611,
    "lng": 114.94296
  },
  {
    "id": 1820638,
    "name": "Kampong Mata Mata",
    "lat": 4.9,
    "lng": 114.9
  },
  {
    "id": 1820707,
    "name": "Kampong Beribi",
    "lat": 4.88333,
    "lng": 114.88333
  },
  {
    "id": 1820560,
    "name": "Sungai Hanching",
    "lat": 4.96806,
    "lng": 114.97753
  },
  {
    "id": 1820632,
    "name": "Kampong Mulaut",
    "lat": 4.86667,
    "lng": 114.83333
  },
  {
    "id": 1820642,
    "name": "Kampong Lugu",
    "lat": 4.88333,
    "lng": 114.8
  },
  {
    "id": 1820586,
    "name": "Kampong Rimba",
    "lat": 4.91667,
    "lng": 114.9
  },
  {
    "id": 1820662,
    "name": "Kiudang",
    "lat": 4.75,
    "lng": 114.73333
  },
  {
    "id": 1820664,
    "name": "Kampong Kiajong",
    "lat": 4.88896,
    "lng": 114.91912
  },
  {
    "id": 1820676,
    "name": "Kapok",
    "lat": 5.02447,
    "lng": 115.04664
  },
  {
    "id": 1820604,
    "name": "Kampong Peninjau",
    "lat": 4.93333,
    "lng": 114.83333
  },
  {
    "id": 1820903,
    "name": "Bangar",
    "lat": 4.70861,
    "lng": 115.07167
  },
  {
    "id": 1820549,
    "name": "Kampong Tanjong Nangka",
    "lat": 4.88333,
    "lng": 114.81667
  },
  {
    "id": 1820680,
    "name": "Kampong Jerudong",
    "lat": 4.95,
    "lng": 114.85
  },
  {
    "id": 1820684,
    "name": "Kampong Gadong",
    "lat": 4.91667,
    "lng": 114.91667
  },
  {
    "id": 1820577,
    "name": "Kampong Selayun",
    "lat": 4.9,
    "lng": 114.85
  },
  {
    "id": 1820673,
    "name": "Katok",
    "lat": 4.91619,
    "lng": 114.89353
  },
  {
    "id": 11807073,
    "name": "Kulapis",
    "lat": 4.85045,
    "lng": 114.82322
  },
  {
    "id": 1820582,
    "name": "Salambigar",
    "lat": 4.97877,
    "lng": 114.9878
  },
  {
    "id": 12547935,
    "name": "Kampung Sungai Teraban",
    "lat": 4.58445,
    "lng": 114.18117
  }
]