[
  {
    "id": 3513563,
    "name": "Kralendijk",
    "lat": 12.15,
    "lon": -68.26667
  },
  {
    "id": 3513768,
    "name": "Dorp Antriol",
    "lat": 12.16631,
    "lon": -68.27042
  },
  {
    "id": 3513767,
    "name": "Dorp Nikiboko",
    "lat": 12.14444,
    "lon": -68.26121
  },
  {
    "id": 3513146,
    "name": "Upper Hell's Gate",
    "lat": 17.643,
    "lon": -63.22649
  },
  {
    "id": 3513765,
    "name": "Dorp Rincon",
    "lat": 12.23762,
    "lon": -68.33059
  },
  {
    "id": 3513760,
    "name": "Dorp Tera Kora",
    "lat": 12.13728,
    "lon": -68.26039
  },
  {
    "id": 3513426,
    "name": "Oranjestad",
    "lat": 17.48303,
    "lon": -62.9864
  },
  {
    "id": 6692388,
    "name": "Belnem",
    "lat": 12.12329,
    "lon": -68.28739
  },
  {
    "id": 3513714,
    "name": "Golden Rock",
    "lat": 17.49142,
    "lon": -62.98119
  }
]