[
  {
    "id": 3448439,
    "name": "São Paulo",
    "lat": -23.5475,
    "lon": -46.63611
  },
  {
    "id": 3451190,
    "name": "Rio de Janeiro",
    "lat": -22.90642,
    "lon": -43.18223
  },
  {
    "id": 3470127,
    "name": "Belo Horizonte",
    "lat": -19.92083,
    "lon": -43.93778
  },
  {
    "id": 3450554,
    "name": "Salvador",
    "lat": -12.97563,
    "lon": -38.49096
  },
  {
    "id": 3399415,
    "name": "Fortaleza",
    "lat": -3.71722,
    "lon": -38.54306
  },
  {
    "id": 3663517,
    "name": "Manaus",
    "lat": -3.10194,
    "lon": -60.025
  },
  {
    "id": 3469058,
    "name": "Brasília",
    "lat": -15.77972,
    "lon": -47.92972
  },
  {
    "id": 3464975,
    "name": "Curitiba",
    "lat": -25.42778,
    "lon": -49.27306
  },
  {
    "id": 3390760,
    "name": "Recife",
    "lat": -8.05389,
    "lon": -34.88111
  },
  {
    "id": 3462377,
    "name": "Goiânia",
    "lat": -16.67861,
    "lon": -49.25389
  },
  {
    "id": 3405870,
    "name": "Belém",
    "lat": -1.45583,
    "lon": -48.50444
  },
  {
    "id": 3452925,
    "name": "Porto Alegre",
    "lat": -30.03283,
    "lon": -51.23019
  },
  {
    "id": 3461786,
    "name": "Guarulhos",
    "lat": -23.46278,
    "lon": -46.53333
  },
  {
    "id": 3395981,
    "name": "Maceió",
    "lat": -9.66583,
    "lon": -35.73528
  },
  {
    "id": 3467865,
    "name": "Campinas",
    "lat": -22.90556,
    "lon": -47.06083
  },
  {
    "id": 3388368,
    "name": "São Luís",
    "lat": -2.52972,
    "lon": -44.30278
  },
  {
    "id": 3467747,
    "name": "Campo Grande",
    "lat": -20.44278,
    "lon": -54.64639
  },
  {
    "id": 3394023,
    "name": "Natal",
    "lat": -5.795,
    "lon": -35.20944
  },
  {
    "id": 3386496,
    "name": "Teresina",
    "lat": -5.08917,
    "lon": -42.80194
  },
  {
    "id": 3456160,
    "name": "Nova Iguaçu",
    "lat": -22.75917,
    "lon": -43.45111
  },
  {
    "id": 3464374,
    "name": "Duque de Caxias",
    "lat": -22.78556,
    "lon": -43.31167
  },
  {
    "id": 3397277,
    "name": "João Pessoa",
    "lat": -7.115,
    "lon": -34.86306
  },
  {
    "id": 3449344,
    "name": "São Bernardo do Campo",
    "lat": -23.69389,
    "lon": -46.565
  },
  {
    "id": 3448636,
    "name": "São José dos Campos",
    "lat": -23.17944,
    "lon": -45.88694
  },
  {
    "id": 3455775,
    "name": "Osasco",
    "lat": -23.5325,
    "lon": -46.79167
  },
  {
    "id": 3451328,
    "name": "Ribeirão Preto",
    "lat": -21.1775,
    "lon": -47.81028
  },
  {
    "id": 3397838,
    "name": "Jaboatão",
    "lat": -8.18028,
    "lon": -35.00139
  },
  {
    "id": 3447399,
    "name": "Sorocaba",
    "lat": -23.50167,
    "lon": -47.45806
  },
  {
    "id": 3471872,
    "name": "Aracaju",
    "lat": -10.91111,
    "lon": -37.07167
  },
  {
    "id": 3449701,
    "name": "Santo André",
    "lat": -23.66389,
    "lon": -46.53833
  },
  {
    "id": 6317344,
    "name": "Jaboatão dos Guararapes",
    "lat": -8.11278,
    "lon": -35.01472
  },
  {
    "id": 3465624,
    "name": "Contagem",
    "lat": -19.93167,
    "lon": -44.05361
  },
  {
    "id": 3463478,
    "name": "Feira de Santana",
    "lat": -12.26667,
    "lon": -38.96667
  },
  {
    "id": 3465038,
    "name": "Cuiabá",
    "lat": -15.59611,
    "lon": -56.09667
  },
  {
    "id": 3458449,
    "name": "Londrina",
    "lat": -23.31028,
    "lon": -51.16278
  },
  {
    "id": 3459505,
    "name": "Juiz de Fora",
    "lat": -21.76417,
    "lon": -43.35028
  },
  {
    "id": 3445831,
    "name": "Uberlândia",
    "lat": -18.91861,
    "lon": -48.27722
  },
  {
    "id": 3662762,
    "name": "Porto Velho",
    "lat": -8.76194,
    "lon": -63.90389
  },
  {
    "id": 3447779,
    "name": "Serra",
    "lat": -20.12861,
    "lon": -40.30778
  },
  {
    "id": 3396016,
    "name": "Macapá",
    "lat": 0.03889,
    "lon": -51.06639
  },
  {
    "id": 3467693,
    "name": "Campos dos Goytacazes",
    "lat": -21.75227,
    "lon": -41.33044
  },
  {
    "id": 6316406,
    "name": "Aparecida de Goiânia",
    "lat": -16.82333,
    "lon": -49.24389
  },
  {
    "id": 3463237,
    "name": "Florianópolis",
    "lat": -27.59667,
    "lon": -48.54917
  },
  {
    "id": 3448639,
    "name": "São José do Rio Preto",
    "lat": -20.81972,
    "lon": -49.37944
  },
  {
    "id": 3457381,
    "name": "Mauá",
    "lat": -23.66778,
    "lon": -46.46139
  },
  {
    "id": 3448877,
    "name": "São João de Meriti",
    "lat": -22.80389,
    "lon": -43.37222
  },
  {
    "id": 3470142,
    "name": "Belford Roxo",
    "lat": -22.76417,
    "lon": -43.39944
  },
  {
    "id": 3459712,
    "name": "Joinville",
    "lat": -26.30444,
    "lon": -48.84556
  },
  {
    "id": 3456283,
    "name": "Niterói",
    "lat": -22.88333,
    "lon": -43.10361
  },
  {
    "id": 3459462,
    "name": "Jundiaí",
    "lat": -23.18639,
    "lon": -46.88417
  },
  {
    "id": 3407669,
    "name": "Ananindeua",
    "lat": -1.36556,
    "lon": -48.37222
  },
  {
    "id": 3449433,
    "name": "Santos",
    "lat": -23.96083,
    "lon": -46.33361
  },
  {
    "id": 3664980,
    "name": "Boa Vista",
    "lat": 2.81972,
    "lon": -60.67333
  },
  {
    "id": 3662574,
    "name": "Rio Branco",
    "lat": -9.97472,
    "lon": -67.81
  },
  {
    "id": 3456814,
    "name": "Montes Claros",
    "lat": -16.735,
    "lon": -43.86167
  },
  {
    "id": 3453643,
    "name": "Piracicaba",
    "lat": -22.72528,
    "lon": -47.64917
  },
  {
    "id": 3402655,
    "name": "Caruaru",
    "lat": -8.28333,
    "lon": -35.97611
  },
  {
    "id": 3445026,
    "name": "Vila Velha",
    "lat": -20.32972,
    "lon": -40.2925
  },
  {
    "id": 3464739,
    "name": "Diadema",
    "lat": -23.68611,
    "lon": -46.62278
  },
  {
    "id": 3466998,
    "name": "Carapicuíba",
    "lat": -23.52272,
    "lon": -46.835
  },
  {
    "id": 3392242,
    "name": "Petrolina",
    "lat": -9.39861,
    "lon": -40.50083
  },
  {
    "id": 3470044,
    "name": "Betim",
    "lat": -19.96778,
    "lon": -44.19833
  },
  {
    "id": 3466537,
    "name": "Caxias do Sul",
    "lat": -29.16806,
    "lon": -51.17944
  },
  {
    "id": 3470279,
    "name": "Bauru",
    "lat": -22.31472,
    "lon": -49.06056
  },
  {
    "id": 3460644,
    "name": "Itaquaquecetuba",
    "lat": -23.48611,
    "lon": -46.34833
  },
  {
    "id": 3393536,
    "name": "Olinda",
    "lat": -8.00889,
    "lon": -34.85528
  },
  {
    "id": 3469968,
    "name": "Blumenau",
    "lat": -26.91944,
    "lon": -49.06611
  },
  {
    "id": 3463011,
    "name": "Franca",
    "lat": -20.53861,
    "lon": -47.40083
  },
  {
    "id": 3402429,
    "name": "Caucaia",
    "lat": -3.73611,
    "lon": -38.65306
  },
  {
    "id": 3466954,
    "name": "Cariacica",
    "lat": -20.26389,
    "lon": -40.42
  },
  {
    "id": 3452465,
    "name": "Praia Grande",
    "lat": -24.00583,
    "lon": -46.40278
  },
  {
    "id": 3403642,
    "name": "Campina Grande",
    "lat": -7.23056,
    "lon": -35.88111
  },
  {
    "id": 3392740,
    "name": "Paulista",
    "lat": -7.94083,
    "lon": -34.87306
  },
  {
    "id": 3445839,
    "name": "Uberaba",
    "lat": -19.74833,
    "lon": -47.93194
  },
  {
    "id": 3448136,
    "name": "São Vicente",
    "lat": -23.96306,
    "lon": -46.39194
  },
  {
    "id": 3451353,
    "name": "Ribeirão das Neves",
    "lat": -19.76694,
    "lon": -44.08667
  },
  {
    "id": 3448632,
    "name": "São José dos Pinhais",
    "lat": -25.5302,
    "lon": -49.20836
  },
  {
    "id": 3467467,
    "name": "Canoas",
    "lat": -29.91778,
    "lon": -51.18361
  },
  {
    "id": 3457001,
    "name": "Mogi das Cruzes",
    "lat": -23.52278,
    "lon": -46.18833
  },
  {
    "id": 3461789,
    "name": "Guarujá",
    "lat": -23.99306,
    "lon": -46.25639
  },
  {
    "id": 3454244,
    "name": "Pelotas",
    "lat": -31.76997,
    "lon": -52.34101
  },
  {
    "id": 3472287,
    "name": "Anápolis",
    "lat": -16.32667,
    "lon": -48.95278
  },
  {
    "id": 3446682,
    "name": "Taubaté",
    "lat": -23.02639,
    "lon": -45.55528
  },
  {
    "id": 3470353,
    "name": "Barueri",
    "lat": -23.51056,
    "lon": -46.87611
  },
  {
    "id": 3445451,
    "name": "Várzea Grande",
    "lat": -15.64667,
    "lon": -56.1325
  },
  {
    "id": 3444924,
    "name": "Vitória",
    "lat": -20.31944,
    "lon": -40.33778
  },
  {
    "id": 3457671,
    "name": "Maringá",
    "lat": -23.42528,
    "lon": -51.93861
  },
  {
    "id": 3447212,
    "name": "Suzano",
    "lat": -23.5425,
    "lon": -46.31083
  },
  {
    "id": 3474574,
    "name": "Palmas",
    "lat": -10.16745,
    "lon": -48.32766
  },
  {
    "id": 3453186,
    "name": "Ponta Grossa",
    "lat": -25.095,
    "lon": -50.16194
  },
  {
    "id": 3458575,
    "name": "Limeira",
    "lat": -22.56472,
    "lon": -47.40167
  },
  {
    "id": 3466489,
    "name": "Ceilândia",
    "lat": -15.8091,
    "lon": -48.13096
  },
  {
    "id": 3447259,
    "name": "Sumaré",
    "lat": -22.82194,
    "lon": -47.26694
  },
  {
    "id": 3445156,
    "name": "Viamão",
    "lat": -30.08111,
    "lon": -51.02333
  },
  {
    "id": 3450083,
    "name": "Santa Maria",
    "lat": -29.68417,
    "lon": -53.80694
  },
  {
    "id": 3444876,
    "name": "Volta Redonda",
    "lat": -22.52306,
    "lon": -44.10417
  },
  {
    "id": 3447186,
    "name": "Taboão da Serra",
    "lat": -23.62611,
    "lon": -46.79167
  },
  {
    "id": 3454031,
    "name": "Petrópolis",
    "lat": -22.505,
    "lon": -43.17861
  },
  {
    "id": 3448744,
    "name": "São José",
    "lat": -27.61528,
    "lon": -48.6275
  },
  {
    "id": 6317872,
    "name": "Parauapebas",
    "lat": -6.0675,
    "lon": -49.90222
  },
  {
    "id": 3392998,
    "name": "Parnamirim",
    "lat": -5.91556,
    "lon": -35.26278
  },
  {
    "id": 3462089,
    "name": "Gravataí",
    "lat": -29.94218,
    "lon": -50.99278
  },
  {
    "id": 3394682,
    "name": "Mossoró",
    "lat": -5.1875,
    "lon": -37.34417
  },
  {
    "id": 3450909,
    "name": "Rondonópolis",
    "lat": -16.47083,
    "lon": -54.63556
  },
  {
    "id": 3463030,
    "name": "Foz do Iguaçu",
    "lat": -25.54778,
    "lon": -54.58806
  },
  {
    "id": 3466779,
    "name": "Cascavel",
    "lat": -24.95583,
    "lon": -53.45528
  },
  {
    "id": 3461311,
    "name": "Indaiatuba",
    "lat": -23.08842,
    "lon": -47.2119
  },
  {
    "id": 3456068,
    "name": "Novo Hamburgo",
    "lat": -29.67833,
    "lon": -51.13056
  },
  {
    "id": 3465284,
    "name": "Cotia",
    "lat": -23.60389,
    "lon": -46.91917
  },
  {
    "id": 3444914,
    "name": "Vitória da Conquista",
    "lat": -14.86611,
    "lon": -40.83944
  },
  {
    "id": 3462315,
    "name": "Governador Valadares",
    "lat": -18.85111,
    "lon": -41.94944
  },
  {
    "id": 3464305,
    "name": "Embu das Artes",
    "lat": -23.64889,
    "lon": -46.85222
  },
  {
    "id": 3472343,
    "name": "Americana",
    "lat": -22.73917,
    "lon": -47.33139
  },
  {
    "id": 3465927,
    "name": "Colombo",
    "lat": -25.29167,
    "lon": -49.22417
  },
  {
    "id": 3388441,
    "name": "São José de Ribamar",
    "lat": -2.55572,
    "lon": -44.05992
  },
  {
    "id": 3458142,
    "name": "Magé",
    "lat": -22.65278,
    "lon": -43.04056
  },
  {
    "id": 3407327,
    "name": "Arapiraca",
    "lat": -9.7525,
    "lon": -36.66111
  },
  {
    "id": 3460718,
    "name": "Itapevi",
    "lat": -23.54889,
    "lon": -46.93417
  },
  {
    "id": 3457692,
    "name": "Marília",
    "lat": -22.21389,
    "lon": -49.94583
  },
  {
    "id": 3460950,
    "name": "Itaboraí",
    "lat": -22.74444,
    "lon": -42.85944
  },
  {
    "id": 3468615,
    "name": "Cabo Frio",
    "lat": -22.88717,
    "lon": -42.02622
  },
  {
    "id": 3397154,
    "name": "Juazeiro",
    "lat": -9.41167,
    "lon": -40.49861
  },
  {
    "id": 3395473,
    "name": "Maracanaú",
    "lat": -3.87667,
    "lon": -38.62556
  },
  {
    "id": 3461655,
    "name": "Hortolândia",
    "lat": -22.85833,
    "lon": -47.22
  },
  {
    "id": 3464688,
    "name": "Divinópolis",
    "lat": -20.14355,
    "lon": -44.89065
  },
  {
    "id": 3461144,
    "name": "Ipatinga",
    "lat": -19.46833,
    "lon": -42.53667
  },
  {
    "id": 3447624,
    "name": "Sete Lagoas",
    "lat": -19.46583,
    "lon": -44.24667
  },
  {
    "id": 3451055,
    "name": "Rio Verde",
    "lat": -17.79806,
    "lon": -50.92806
  },
  {
    "id": 6316328,
    "name": "Águas Lindas de Goiás",
    "lat": -15.76194,
    "lon": -48.28167
  },
  {
    "id": 3452324,
    "name": "Presidente Prudente",
    "lat": -22.12556,
    "lon": -51.38889
  },
  {
    "id": 3397147,
    "name": "Juazeiro do Norte",
    "lat": -7.21306,
    "lon": -39.31528
  },
  {
    "id": 3450144,
    "name": "Santa Luzia",
    "lat": -19.76972,
    "lon": -43.85139
  },
  {
    "id": 12432979,
    "name": "Samambaia",
    "lat": -15.88231,
    "lon": -48.10428
  },
  {
    "id": 3398269,
    "name": "Imperatriz",
    "lat": -5.52639,
    "lon": -47.49167
  },
  {
    "id": 3404545,
    "name": "Cabo de Santo Agostinho",
    "lat": -8.28773,
    "lon": -35.02925
  },
  {
    "id": 6318696,
    "name": "Sinop",
    "lat": -11.86417,
    "lon": -55.5025
  },
  {
    "id": 3460370,
    "name": "Jacareí",
    "lat": -23.30528,
    "lon": -45.96583
  },
  {
    "id": 3457708,
    "name": "Maricá",
    "lat": -22.91944,
    "lon": -42.81861
  },
  {
    "id": 3448622,
    "name": "São Leopoldo",
    "lat": -29.76028,
    "lon": -51.14722
  },
  {
    "id": 3458329,
    "name": "Luziânia",
    "lat": -16.2525,
    "lon": -47.95028
  },
  {
    "id": 3460949,
    "name": "Itabuna",
    "lat": -14.78556,
    "lon": -39.28028
  },
  {
    "id": 3449319,
    "name": "São Carlos",
    "lat": -22.0175,
    "lon": -47.89083
  },
  {
    "id": 6317464,
    "name": "Lauro de Freitas",
    "lat": -12.89444,
    "lon": -38.32722
  },
  {
    "id": 3387296,
    "name": "Sobral",
    "lat": -3.68611,
    "lon": -40.34972
  },
  {
    "id": 3451234,
    "name": "Rio Claro",
    "lat": -22.41139,
    "lon": -47.56139
  },
  {
    "id": 3448742,
    "name": "São José",
    "lat": -28.21344,
    "lon": -49.16383
  },
  {
    "id": 6318856,
    "name": "Valparaíso de Goiás",
    "lat": -16.06583,
    "lon": -47.97861
  },
  {
    "id": 13512576,
    "name": "Plano Piloto",
    "lat": -15.79411,
    "lon": -47.8825
  },
  {
    "id": 3456223,
    "name": "Nossa Senhora do Socorro",
    "lat": -10.855,
    "lon": -37.12611
  },
  {
    "id": 3402591,
    "name": "Castanhal",
    "lat": -1.29389,
    "lon": -47.92639
  },
  {
    "id": 3456166,
    "name": "Nova Friburgo",
    "lat": -22.28194,
    "lon": -42.53111
  },
  {
    "id": 11184422,
    "name": "Planaltina",
    "lat": -15.61791,
    "lon": -47.64874
  },
  {
    "id": 3389353,
    "name": "Santarém",
    "lat": -2.44306,
    "lon": -54.70833
  },
  {
    "id": 3468031,
    "name": "Camaçari",
    "lat": -12.6975,
    "lon": -38.32417
  },
  {
    "id": 3450404,
    "name": "Santa Bárbara d'Oeste",
    "lat": -22.75361,
    "lon": -47.41361
  },
  {
    "id": 3451138,
    "name": "Rio Grande",
    "lat": -32.035,
    "lon": -52.09861
  },
  {
    "id": 3454865,
    "name": "Alvorada",
    "lat": -30.00018,
    "lon": -51.07632
  },
  {
    "id": 3468376,
    "name": "Cachoeiro de Itapemirim",
    "lat": -20.84889,
    "lon": -41.11278
  },
  {
    "id": 3460102,
    "name": "Jaraguá do Sul",
    "lat": -26.48611,
    "lon": -49.06667
  },
  {
    "id": 3461879,
    "name": "Guarapuava",
    "lat": -25.39048,
    "lon": -51.46541
  },
  {
    "id": 3454857,
    "name": "Passo Fundo",
    "lat": -28.26278,
    "lon": -52.40667
  },
  {
    "id": 3463422,
    "name": "Ferraz de Vasconcelos",
    "lat": -23.54083,
    "lon": -46.36861
  },
  {
    "id": 3472177,
    "name": "Angra dos Reis",
    "lat": -23.00667,
    "lon": -44.31806
  },
  {
    "id": 3469092,
    "name": "Bragança Paulista",
    "lat": -22.9527,
    "lon": -46.54418
  },
  {
    "id": 3446606,
    "name": "Teresópolis",
    "lat": -22.4167,
    "lon": -42.97822
  },
  {
    "id": 3455478,
    "name": "Palhoça",
    "lat": -27.64528,
    "lon": -48.66778
  },
  {
    "id": 3386361,
    "name": "Timon",
    "lat": -5.09417,
    "lon": -42.83667
  },
  {
    "id": 3461563,
    "name": "Ibirité",
    "lat": -20.02194,
    "lon": -44.05889
  },
  {
    "id": 3471859,
    "name": "Araçatuba",
    "lat": -21.20889,
    "lon": -50.43278
  },
  {
    "id": 3453303,
    "name": "Poços de Caldas",
    "lat": -21.78778,
    "lon": -46.56139
  },
  {
    "id": 3471766,
    "name": "Araraquara",
    "lat": -21.79444,
    "lon": -48.17556
  },
  {
    "id": 3452640,
    "name": "Porto Seguro",
    "lat": -16.44972,
    "lon": -39.06472
  },
  {
    "id": 3451205,
    "name": "Rio das Ostras",
    "lat": -22.52694,
    "lon": -41.945
  },
  {
    "id": 3458498,
    "name": "Linhares",
    "lat": -19.39111,
    "lon": -40.07222
  },
  {
    "id": 3449324,
    "name": "São Caetano do Sul",
    "lat": -23.62306,
    "lon": -46.55111
  },
  {
    "id": 3453837,
    "name": "Pindamonhangaba",
    "lat": -22.92389,
    "lon": -45.46167
  },
  {
    "id": 3462980,
    "name": "Francisco Morato",
    "lat": -23.28167,
    "lon": -46.74528
  },
  {
    "id": 3458930,
    "name": "Lages",
    "lat": -27.81611,
    "lon": -50.32611
  },
  {
    "id": 3470636,
    "name": "Barra Mansa",
    "lat": -22.54417,
    "lon": -44.17139
  },
  {
    "id": 3464460,
    "name": "Dourados",
    "lat": -22.22111,
    "lon": -54.80556
  },
  {
    "id": 3465196,
    "name": "Criciúma",
    "lat": -28.6775,
    "lon": -49.36972
  },
  {
    "id": 3466296,
    "name": "Chapecó",
    "lat": -27.09639,
    "lon": -52.61833
  },
  {
    "id": 3470583,
    "name": "Barreiras",
    "lat": -12.15278,
    "lon": -44.99
  },
  {
    "id": 3454783,
    "name": "Patos de Minas",
    "lat": -18.57889,
    "lon": -46.51806
  },
  {
    "id": 3460748,
    "name": "Itapecerica da Serra",
    "lat": -23.71694,
    "lon": -46.84917
  },
  {
    "id": 3408424,
    "name": "Abaetetuba",
    "lat": -1.71806,
    "lon": -48.8825
  },
  {
    "id": 3460728,
    "name": "Itapetininga",
    "lat": -23.59167,
    "lon": -48.05306
  },
  {
    "id": 3402383,
    "name": "Caxias",
    "lat": -4.85889,
    "lon": -43.35611
  },
  {
    "id": 3403741,
    "name": "Camaragibe",
    "lat": -8.02167,
    "lon": -34.98111
  },
  {
    "id": 3460845,
    "name": "Itajaí",
    "lat": -26.90778,
    "lon": -48.66194
  },
  {
    "id": 3461408,
    "name": "Ilhéus",
    "lat": -14.79909,
    "lon": -39.03228
  },
  {
    "id": 3449948,
    "name": "Santana de Parnaíba",
    "lat": -23.44417,
    "lon": -46.91778
  },
  {
    "id": 3457000,
    "name": "Mogi Guaçu",
    "lat": -22.3677,
    "lon": -46.94552
  },
  {
    "id": 3452525,
    "name": "Pouso Alegre",
    "lat": -22.23,
    "lon": -45.93639
  },
  {
    "id": 3471697,
    "name": "Araucária",
    "lat": -25.59306,
    "lon": -49.41028
  },
  {
    "id": 3399058,
    "name": "Garanhuns",
    "lat": -8.88202,
    "lon": -36.50216
  },
  {
    "id": 3389321,
    "name": "Santa Rita",
    "lat": -7.11389,
    "lon": -34.97806
  },
  {
    "id": 3452073,
    "name": "Queimados",
    "lat": -22.71611,
    "lon": -43.55528
  },
  {
    "id": 6317123,
    "name": "Fazenda Rio Grande",
    "lat": -25.6575,
    "lon": -49.30806
  },
  {
    "id": 3469136,
    "name": "Botucatu",
    "lat": -22.88583,
    "lon": -48.445
  },
  {
    "id": 3456290,
    "name": "Nilópolis",
    "lat": -22.8075,
    "lon": -43.41389
  },
  {
    "id": 3395503,
    "name": "Marabá",
    "lat": -5.38146,
    "lon": -49.13232
  },
  {
    "id": 6317837,
    "name": "Paço do Lumiar",
    "lat": -2.53222,
    "lon": -44.1075
  },
  {
    "id": 3462964,
    "name": "Franco da Rocha",
    "lat": -23.32167,
    "lon": -46.72694
  },
  {
    "id": 3471335,
    "name": "Atibaia",
    "lat": -23.11694,
    "lon": -46.55028
  },
  {
    "id": 3458266,
    "name": "Macaé",
    "lat": -22.38484,
    "lon": -41.78324
  },
  {
    "id": 3446038,
    "name": "Trindade",
    "lat": -16.64944,
    "lon": -49.48889
  },
  {
    "id": 3468879,
    "name": "Brusque",
    "lat": -27.09795,
    "lon": -48.91281
  },
  {
    "id": 3455070,
    "name": "Paranaguá",
    "lat": -25.51626,
    "lon": -48.52537
  },
  {
    "id": 3462672,
    "name": "Gama",
    "lat": -16.02511,
    "lon": -48.07121
  },
  {
    "id": 3471039,
    "name": "Balneário Camboriú",
    "lat": -26.99056,
    "lon": -48.63472
  },
  {
    "id": 3393001,
    "name": "Parnaíba",
    "lat": -2.90472,
    "lon": -41.77667
  },
  {
    "id": 3471715,
    "name": "Araruama",
    "lat": -22.87278,
    "lon": -42.34306
  },
  {
    "id": 3460535,
    "name": "Itu",
    "lat": -23.26417,
    "lon": -47.29917
  },
  {
    "id": 3445487,
    "name": "Varginha",
    "lat": -21.55139,
    "lon": -45.43028
  },
  {
    "id": 3467736,
    "name": "Campo Largo",
    "lat": -25.45955,
    "lon": -49.53014
  },
  {
    "id": 3468403,
    "name": "Cachoeirinha",
    "lat": -29.95111,
    "lon": -51.09389
  },
  {
    "id": 3471758,
    "name": "Araras",
    "lat": -22.35694,
    "lon": -47.38417
  },
  {
    "id": 3403697,
    "name": "Cametá",
    "lat": -2.24444,
    "lon": -49.49583
  },
  {
    "id": 3384987,
    "name": "Vitória de Santo Antão",
    "lat": -8.11806,
    "lon": -35.29139
  },
  {
    "id": 3460005,
    "name": "Jaú",
    "lat": -22.29639,
    "lon": -48.55778
  },
  {
    "id": 3450269,
    "name": "Santa Cruz do Sul",
    "lat": -29.7175,
    "lon": -52.42583
  },
  {
    "id": 3448031,
    "name": "Sapucaia do Sul",
    "lat": -29.81782,
    "lon": -51.14551
  },
  {
    "id": 3397909,
    "name": "Itapipoca",
    "lat": -3.49444,
    "lon": -39.57861
  },
  {
    "id": 3401545,
    "name": "Crato",
    "lat": -7.23417,
    "lon": -39.40944
  },
  {
    "id": 3471910,
    "name": "Apucarana",
    "lat": -23.55083,
    "lon": -51.46083
  },
  {
    "id": 3450817,
    "name": "Sabará",
    "lat": -19.88639,
    "lon": -43.80667
  },
  {
    "id": 3445162,
    "name": "Vespasiano",
    "lat": -19.69194,
    "lon": -43.92333
  },
  {
    "id": 12432982,
    "name": "Águas Claras",
    "lat": -15.83969,
    "lon": -48.02675
  },
  {
    "id": 3444866,
    "name": "Votorantim",
    "lat": -23.54667,
    "lon": -47.43778
  },
  {
    "id": 3459943,
    "name": "Jequié",
    "lat": -13.85875,
    "lon": -40.08512
  },
  {
    "id": 3447651,
    "name": "Sertãozinho",
    "lat": -21.13778,
    "lon": -47.99028
  },
  {
    "id": 3406429,
    "name": "Barcarena",
    "lat": -1.50583,
    "lon": -48.62583
  },
  {
    "id": 3445578,
    "name": "Valinhos",
    "lat": -22.97056,
    "lon": -46.99583
  },
  {
    "id": 3407882,
    "name": "Altamira",
    "lat": -3.20333,
    "lon": -52.20639
  },
  {
    "id": 3470858,
    "name": "Barbacena",
    "lat": -21.22583,
    "lon": -43.77361
  },
  {
    "id": 3461888,
    "name": "Guarapari",
    "lat": -20.67182,
    "lon": -40.50196
  },
  {
    "id": 3925033,
    "name": "Ji Paraná",
    "lat": -10.88528,
    "lon": -61.95167
  },
  {
    "id": 3460899,
    "name": "Itaguaí",
    "lat": -22.85222,
    "lon": -43.77528
  },
  {
    "id": 3448519,
    "name": "São Mateus",
    "lat": -18.72011,
    "lon": -39.85891
  },
  {
    "id": 3445679,
    "name": "Uruguaiana",
    "lat": -29.75472,
    "lon": -57.08833
  },
  {
    "id": 3467081,
    "name": "Caraguatatuba",
    "lat": -23.62028,
    "lon": -45.41306
  },
  {
    "id": 3397967,
    "name": "Itaituba",
    "lat": -4.27611,
    "lon": -55.98361
  },
  {
    "id": 3470073,
    "name": "Bento Gonçalves",
    "lat": -29.17139,
    "lon": -51.51917
  },
  {
    "id": 3405006,
    "name": "Bragança",
    "lat": -1.05361,
    "lon": -46.76556
  },
  {
    "id": 3446692,
    "name": "Tatuí",
    "lat": -23.35556,
    "lon": -47.85694
  },
  {
    "id": 3472766,
    "name": "Alagoinhas",
    "lat": -12.13556,
    "lon": -38.41917
  },
  {
    "id": 3460598,
    "name": "Itatiba",
    "lat": -23.00583,
    "lon": -46.83889
  },
  {
    "id": 3470451,
    "name": "Barretos",
    "lat": -20.55722,
    "lon": -48.56778
  },
  {
    "id": 3398352,
    "name": "Igarassu",
    "lat": -7.83417,
    "lon": -34.90639
  },
  {
    "id": 6318714,
    "name": "Sorriso",
    "lat": -12.54528,
    "lon": -55.71139
  },
  {
    "id": 3461936,
    "name": "Guará",
    "lat": -15.80976,
    "lon": -47.97202
  },
  {
    "id": 3472518,
    "name": "Almirante Tamandaré",
    "lat": -25.32472,
    "lon": -49.31
  },
  {
    "id": 3450594,
    "name": "Salto",
    "lat": -23.20083,
    "lon": -47.28694
  },
  {
    "id": 3446370,
    "name": "Toledo",
    "lat": -24.71361,
    "lon": -53.74306
  },
  {
    "id": 3471798,
    "name": "Arapongas",
    "lat": -23.41944,
    "lon": -51.42444
  },
  {
    "id": 3453535,
    "name": "Piraquara",
    "lat": -25.44227,
    "lon": -49.06795
  },
  {
    "id": 3447998,
    "name": "Sarandi",
    "lat": -23.44361,
    "lon": -51.87389
  },
  {
    "id": 3447854,
    "name": "Senador Canedo",
    "lat": -16.70806,
    "lon": -49.09306
  },
  {
    "id": 3460170,
    "name": "Jandira",
    "lat": -23.5275,
    "lon": -46.9025
  },
  {
    "id": 3461859,
    "name": "Guaratinguetá",
    "lat": -22.81639,
    "lon": -45.1925
  },
  {
    "id": 3471830,
    "name": "Araguari",
    "lat": -18.64722,
    "lon": -48.18722
  },
  {
    "id": 3445782,
    "name": "Umuarama",
    "lat": -23.76639,
    "lon": -53.325
  },
  {
    "id": 6317953,
    "name": "Pinhais",
    "lat": -25.44472,
    "lon": -49.1925
  },
  {
    "id": 12432973,
    "name": "Santa Maria",
    "lat": -16.03095,
    "lon": -48.02929
  },
  {
    "id": 3463140,
    "name": "Formosa",
    "lat": -15.53722,
    "lon": -47.33444
  },
  {
    "id": 3388713,
    "name": "São Gonçalo do Amarante",
    "lat": -5.79333,
    "lon": -35.32944
  },
  {
    "id": 3466692,
    "name": "Catanduva",
    "lat": -21.13778,
    "lon": -48.97278
  },
  {
    "id": 3445446,
    "name": "Várzea Paulista",
    "lat": -23.21139,
    "lon": -46.82833
  },
  {
    "id": 3451329,
    "name": "Ribeirão Pires",
    "lat": -23.71056,
    "lon": -46.41333
  },
  {
    "id": 13450916,
    "name": "Recanto das Emas",
    "lat": -15.90864,
    "lon": -48.06447
  },
  {
    "id": 6318694,
    "name": "Simões Filho",
    "lat": -12.78444,
    "lon": -38.40389
  },
  {
    "id": 3466696,
    "name": "Catalão",
    "lat": -18.16583,
    "lon": -47.94639
  },
  {
    "id": 3402000,
    "name": "Codó",
    "lat": -4.45528,
    "lon": -43.88556
  },
  {
    "id": 3463690,
    "name": "Eunápolis",
    "lat": -16.3775,
    "lon": -39.58028
  },
  {
    "id": 3460960,
    "name": "Itabira",
    "lat": -19.61917,
    "lon": -43.22694
  },
  {
    "id": 3392734,
    "name": "Paulo Afonso",
    "lat": -9.40611,
    "lon": -38.21472
  },
  {
    "id": 6318738,
    "name": "Tangará da Serra",
    "lat": -14.61944,
    "lon": -57.48583
  },
  {
    "id": 3397893,
    "name": "Itacoatiara",
    "lat": -3.14306,
    "lon": -58.44417
  },
  {
    "id": 3465059,
    "name": "Cubatão",
    "lat": -23.895,
    "lon": -46.42528
  },
  {
    "id": 3454690,
    "name": "Paulínia",
    "lat": -22.76111,
    "lon": -47.15417
  },
  {
    "id": 3454847,
    "name": "Passos",
    "lat": -20.71889,
    "lon": -46.60972
  },
  {
    "id": 6317548,
    "name": "Marituba",
    "lat": -1.35528,
    "lon": -48.34194
  },
  {
    "id": 3456147,
    "name": "Nova Lima",
    "lat": -19.98556,
    "lon": -43.84667
  },
  {
    "id": 3471691,
    "name": "Araxá",
    "lat": -19.59333,
    "lon": -46.94056
  },
  {
    "id": 3465644,
    "name": "Conselheiro Lafaiete",
    "lat": -20.66028,
    "lon": -43.78611
  },
  {
    "id": 3451668,
    "name": "Resende",
    "lat": -22.46889,
    "lon": -44.44667
  },
  {
    "id": 3388376,
    "name": "São Lourenço da Mata",
    "lat": -8.00222,
    "lon": -35.01833
  },
  {
    "id": 3663529,
    "name": "Manacapuru",
    "lat": -3.29972,
    "lon": -60.62056
  },
  {
    "id": 3448351,
    "name": "São Pedro da Aldeia",
    "lat": -22.83917,
    "lon": -42.10278
  },
  {
    "id": 3445993,
    "name": "Tubarão",
    "lat": -28.46667,
    "lon": -49.00694
  },
  {
    "id": 11427402,
    "name": "Luis Eduardo Magalhães",
    "lat": -12.09086,
    "lon": -45.78501
  },
  {
    "id": 3391360,
    "name": "Santana",
    "lat": -0.03816,
    "lon": -51.17476
  },
  {
    "id": 3460733,
    "name": "Itaperuna",
    "lat": -21.205,
    "lon": -41.88778
  },
  {
    "id": 3467978,
    "name": "Cambé",
    "lat": -23.27583,
    "lon": -51.27833
  },
  {
    "id": 3404817,
    "name": "Breves",
    "lat": -1.68222,
    "lon": -50.48028
  },
  {
    "id": 6316298,
    "name": "Açailândia",
    "lat": -4.94667,
    "lon": -47.50472
  },
  {
    "id": 3460064,
    "name": "Jataí",
    "lat": -17.87939,
    "lon": -51.72166
  },
  {
    "id": 3398115,
    "name": "Ipojuca",
    "lat": -8.39889,
    "lon": -35.06389
  },
  {
    "id": 3456117,
    "name": "Nova Serrana",
    "lat": -19.87611,
    "lon": -44.98361
  },
  {
    "id": 3393106,
    "name": "Paragominas",
    "lat": -2.99565,
    "lon": -47.35488
  },
  {
    "id": 12432977,
    "name": "Riacho Fundo II",
    "lat": -15.8981,
    "lon": -48.04671
  },
  {
    "id": 3395449,
    "name": "Maranguape",
    "lat": -3.89083,
    "lon": -38.68556
  },
  {
    "id": 3471374,
    "name": "Assis",
    "lat": -22.66167,
    "lon": -50.41222
  },
  {
    "id": 3453420,
    "name": "Planaltina",
    "lat": -15.45278,
    "lon": -47.61417
  },
  {
    "id": 3407357,
    "name": "Araguaína",
    "lat": -7.19111,
    "lon": -48.20722
  },
  {
    "id": 3458696,
    "name": "Lavras",
    "lat": -21.24528,
    "lon": -44.99972
  },
  {
    "id": 3465476,
    "name": "Coronel Fabriciano",
    "lat": -19.51861,
    "lon": -42.62889
  },
  {
    "id": 3456500,
    "name": "Muriaé",
    "lat": -21.13056,
    "lon": -42.36639
  },
  {
    "id": 3455729,
    "name": "Ourinhos",
    "lat": -22.97889,
    "lon": -49.87056
  },
  {
    "id": 3408404,
    "name": "Abreu e Lima",
    "lat": -7.91167,
    "lon": -34.90278
  },
  {
    "id": 6317781,
    "name": "Novo Gama",
    "lat": -16.05917,
    "lon": -48.03944
  },
  {
    "id": 3453406,
    "name": "Poá",
    "lat": -23.52806,
    "lon": -46.34472
  },
  {
    "id": 3406910,
    "name": "Bacabal",
    "lat": -4.23246,
    "lon": -44.78164
  },
  {
    "id": 3460974,
    "name": "Itabaiana",
    "lat": -10.685,
    "lon": -37.42528
  },
  {
    "id": 3445859,
    "name": "Ubá",
    "lat": -21.12,
    "lon": -42.94278
  },
  {
    "id": 3460791,
    "name": "Itanhaém",
    "lat": -24.18306,
    "lon": -46.78889
  },
  {
    "id": 3449521,
    "name": "Santo Antônio de Jesus",
    "lat": -12.96889,
    "lon": -39.26139
  },
  {
    "id": 3468215,
    "name": "Caieiras",
    "lat": -23.36417,
    "lon": -46.74056
  },
  {
    "id": 3469989,
    "name": "Birigui",
    "lat": -21.28861,
    "lon": -50.34
  },
  {
    "id": 3460523,
    "name": "Ituiutaba",
    "lat": -18.97428,
    "lon": -49.46212
  },
  {
    "id": 3460132,
    "name": "Japeri",
    "lat": -22.64306,
    "lon": -43.65333
  },
  {
    "id": 3393008,
    "name": "Parintins",
    "lat": -2.62833,
    "lon": -56.73583
  },
  {
    "id": 3458131,
    "name": "Mairiporã",
    "lat": -23.31861,
    "lon": -46.58667
  },
  {
    "id": 3406545,
    "name": "Balsas",
    "lat": -7.5325,
    "lon": -46.03556
  },
  {
    "id": 3459342,
    "name": "Lagarto",
    "lat": -10.91722,
    "lon": -37.65
  },
  {
    "id": 3465944,
    "name": "Colatina",
    "lat": -19.53944,
    "lon": -40.63056
  },
  {
    "id": 3446621,
    "name": "Teófilo Otoni",
    "lat": -17.8575,
    "lon": -41.50528
  },
  {
    "id": 3467717,
    "name": "Campo Mourão",
    "lat": -24.04309,
    "lon": -52.37929
  },
  {
    "id": 3471196,
    "name": "Bagé",
    "lat": -31.33139,
    "lon": -54.10694
  },
  {
    "id": 3468100,
    "name": "Caldas Novas",
    "lat": -17.74431,
    "lon": -48.62789
  },
  {
    "id": 13450915,
    "name": "São Sebastião",
    "lat": -15.90287,
    "lon": -47.77613
  },
  {
    "id": 3470691,
    "name": "Barra do Piraí",
    "lat": -22.47,
    "lon": -43.82556
  },
  {
    "id": 3389652,
    "name": "Santa Cruz do Capibaribe",
    "lat": -7.9575,
    "lon": -36.20472
  },
  {
    "id": 3458662,
    "name": "Leme",
    "lat": -22.18556,
    "lon": -47.39028
  },
  {
    "id": 3398331,
    "name": "Iguatu",
    "lat": -6.35944,
    "lon": -39.29861
  },
  {
    "id": 3460584,
    "name": "Itaúna",
    "lat": -20.07528,
    "lon": -44.57639
  },
  {
    "id": 3390288,
    "name": "Rio Largo",
    "lat": -9.47833,
    "lon": -35.85333
  },
  {
    "id": 3455161,
    "name": "Pará de Minas",
    "lat": -19.86028,
    "lon": -44.60833
  },
  {
    "id": 3665199,
    "name": "Ariquemes",
    "lat": -9.91333,
    "lon": -63.04083
  },
  {
    "id": 3462996,
    "name": "Francisco Beltrão",
    "lat": -26.08111,
    "lon": -53.055
  },
  {
    "id": 3465342,
    "name": "Corumbá",
    "lat": -19.00917,
    "lon": -57.65333
  },
  {
    "id": 3468562,
    "name": "Caçapava",
    "lat": -23.10083,
    "lon": -45.70694
  },
  {
    "id": 3471291,
    "name": "Avaré",
    "lat": -23.09861,
    "lon": -48.92583
  },
  {
    "id": 3464073,
    "name": "Erechim",
    "lat": -27.63461,
    "lon": -52.2754
  },
  {
    "id": 3924679,
    "name": "Vilhena",
    "lat": -12.74056,
    "lon": -60.14583
  },
  {
    "id": 3449310,
    "name": "São Cristóvão",
    "lat": -11.01472,
    "lon": -37.20639
  },
  {
    "id": 3448011,
    "name": "Saquarema",
    "lat": -22.89889,
    "lon": -42.46985
  },
  {
    "id": 3471848,
    "name": "Aracruz",
    "lat": -19.82028,
    "lon": -40.27333
  },
  {
    "id": 3455168,
    "name": "Paracatu",
    "lat": -17.22222,
    "lon": -46.87472
  },
  {
    "id": 3459035,
    "name": "Lajeado",
    "lat": -29.46694,
    "lon": -51.96139
  },
  {
    "id": 3460834,
    "name": "Itajubá",
    "lat": -22.42556,
    "lon": -45.45278
  },
  {
    "id": 3473964,
    "name": "Guaíba",
    "lat": -30.11389,
    "lon": -51.325
  },
  {
    "id": 3468158,
    "name": "Cajamar",
    "lat": -23.35611,
    "lon": -46.87694
  },
  {
    "id": 3392887,
    "name": "Patos",
    "lat": -7.02444,
    "lon": -37.28
  },
  {
    "id": 3448902,
    "name": "São João da Boa Vista",
    "lat": -21.96917,
    "lon": -46.79806
  },
  {
    "id": 3462986,
    "name": "Lucas do Rio Verde",
    "lat": -13.07127,
    "lon": -55.91479
  },
  {
    "id": 3453150,
    "name": "Ponta Porã",
    "lat": -22.53611,
    "lon": -55.72556
  },
  {
    "id": 3455051,
    "name": "Paranavaí",
    "lat": -23.07306,
    "lon": -52.46528
  },
  {
    "id": 3664464,
    "name": "Cruzeiro do Sul",
    "lat": -7.62759,
    "lon": -72.67756
  },
  {
    "id": 3398691,
    "name": "Gravatá",
    "lat": -8.20111,
    "lon": -35.56472
  },
  {
    "id": 3457952,
    "name": "Manhuaçu",
    "lat": -20.25806,
    "lon": -42.03361
  },
  {
    "id": 3454818,
    "name": "Pato Branco",
    "lat": -26.22861,
    "lon": -52.67056
  },
  {
    "id": 3445847,
    "name": "Ubatuba",
    "lat": -23.43389,
    "lon": -45.07111
  },
  {
    "id": 12991858,
    "name": "Cidade Ocidental",
    "lat": -16.10971,
    "lon": -47.93261
  },
  {
    "id": 3468551,
    "name": "Cáceres",
    "lat": -16.07056,
    "lon": -57.67889
  },
  {
    "id": 3385935,
    "name": "Tucuruí",
    "lat": -3.76585,
    "lon": -49.67923
  },
  {
    "id": 3471393,
    "name": "Arujá",
    "lat": -23.39611,
    "lon": -46.32083
  },
  {
    "id": 3407243,
    "name": "Araripina",
    "lat": -7.57611,
    "lon": -40.49833
  },
  {
    "id": 3454763,
    "name": "Patrocínio",
    "lat": -18.94389,
    "lon": -46.9925
  },
  {
    "id": 3460723,
    "name": "Itapeva",
    "lat": -23.98222,
    "lon": -48.87556
  },
  {
    "id": 3461724,
    "name": "Gurupi",
    "lat": -11.72917,
    "lon": -49.06861
  },
  {
    "id": 3461973,
    "name": "Guanambi",
    "lat": -14.22333,
    "lon": -42.78139
  },
  {
    "id": 3466988,
    "name": "Caratinga",
    "lat": -19.78972,
    "lon": -42.13917
  },
  {
    "id": 3387786,
    "name": "Serra Talhada",
    "lat": -7.99194,
    "lon": -38.29833
  },
  {
    "id": 3925212,
    "name": "Cacoal",
    "lat": -11.43861,
    "lon": -61.44722
  },
  {
    "id": 3406317,
    "name": "Barra do Corda",
    "lat": -5.50556,
    "lon": -45.24333
  },
  {
    "id": 3445764,
    "name": "Unaí",
    "lat": -16.3575,
    "lon": -46.90611
  },
  {
    "id": 3456370,
    "name": "Navegantes",
    "lat": -26.89889,
    "lon": -48.65417
  },
  {
    "id": 3445597,
    "name": "Valença",
    "lat": -13.37028,
    "lon": -39.07306
  },
  {
    "id": 3464008,
    "name": "Esmeraldas",
    "lat": -19.7625,
    "lon": -44.31389
  },
  {
    "id": 6318107,
    "name": "Redenção",
    "lat": -8.02861,
    "lon": -50.03139
  },
  {
    "id": 3398904,
    "name": "Goiana",
    "lat": -7.56056,
    "lon": -35.0025
  },
  {
    "id": 3467968,
    "name": "Camboriú",
    "lat": -27.02528,
    "lon": -48.65444
  },
  {
    "id": 3389609,
    "name": "Santa Inês",
    "lat": -3.66667,
    "lon": -45.38
  },
  {
    "id": 3458425,
    "name": "Lorena",
    "lat": -22.73083,
    "lon": -45.12472
  },
  {
    "id": 3461444,
    "name": "Ijuí",
    "lat": -28.38778,
    "lon": -53.91472
  },
  {
    "id": 3447785,
    "name": "Seropédica",
    "lat": -22.74389,
    "lon": -43.7075
  },
  {
    "id": 3392054,
    "name": "Pinheiro",
    "lat": -2.52139,
    "lon": -45.0825
  },
  {
    "id": 3449936,
    "name": "Sant'Ana do Livramento",
    "lat": -30.89083,
    "lon": -55.53278
  },
  {
    "id": 3390907,
    "name": "Quixadá",
    "lat": -4.97139,
    "lon": -39.01528
  },
  {
    "id": 3394661,
    "name": "Moju",
    "lat": -1.88389,
    "lon": -48.76889
  },
  {
    "id": 3466174,
    "name": "Cianorte",
    "lat": -23.66333,
    "lon": -52.605
  },
  {
    "id": 3405812,
    "name": "Belo Jardim",
    "lat": -8.33556,
    "lon": -36.42417
  },
  {
    "id": 3449350,
    "name": "São Bento do Sul",
    "lat": -26.25028,
    "lon": -49.37861
  },
  {
    "id": 3402721,
    "name": "Carpina",
    "lat": -7.85083,
    "lon": -35.25472
  },
  {
    "id": 3392167,
    "name": "Picos",
    "lat": -7.07694,
    "lon": -41.46694
  },
  {
    "id": 12432965,
    "name": "Sobradinho II",
    "lat": -15.63361,
    "lon": -47.83478
  },
  {
    "id": 3405940,
    "name": "Bayeux",
    "lat": -7.125,
    "lon": -34.93222
  },
  {
    "id": 3460344,
    "name": "Jacobina",
    "lat": -11.18143,
    "lon": -40.51372
  },
  {
    "id": 3446065,
    "name": "Três Rios",
    "lat": -22.11667,
    "lon": -43.20917
  },
  {
    "id": 3396048,
    "name": "Macaíba",
    "lat": -5.85833,
    "lon": -35.35389
  },
  {
    "id": 3390901,
    "name": "Quixeramobim",
    "lat": -5.19917,
    "lon": -39.29278
  },
  {
    "id": 3407216,
    "name": "Arcoverde",
    "lat": -8.41889,
    "lon": -37.05389
  },
  {
    "id": 3465721,
    "name": "Concórdia",
    "lat": -27.23417,
    "lon": -52.02778
  },
  {
    "id": 3448257,
    "name": "São Sebastião",
    "lat": -23.76,
    "lon": -45.40972
  },
  {
    "id": 3446445,
    "name": "Timóteo",
    "lat": -19.58106,
    "lon": -42.64953
  },
  {
    "id": 3393400,
    "name": "Pacatuba",
    "lat": -3.98417,
    "lon": -38.62028
  },
  {
    "id": 3386449,
    "name": "Tianguá",
    "lat": -3.73222,
    "lon": -40.99167
  },
  {
    "id": 3402229,
    "name": "Chapadinha",
    "lat": -3.74167,
    "lon": -43.36028
  },
  {
    "id": 3464891,
    "name": "Curvelo",
    "lat": -18.75639,
    "lon": -44.43083
  },
  {
    "id": 3472898,
    "name": "Água Rasa",
    "lat": -20.43333,
    "lon": -45.16667
  },
  {
    "id": 3447690,
    "name": "Serrinha",
    "lat": -11.66417,
    "lon": -39.0075
  },
  {
    "id": 3459796,
    "name": "João Monlevade",
    "lat": -19.81,
    "lon": -43.17361
  },
  {
    "id": 3445014,
    "name": "Vinhedo",
    "lat": -23.02972,
    "lon": -46.97528
  },
  {
    "id": 3468436,
    "name": "Cachoeira do Sul",
    "lat": -30.03917,
    "lon": -52.89389
  },
  {
    "id": 3460522,
    "name": "Itumbiara",
    "lat": -18.41917,
    "lon": -49.21528
  },
  {
    "id": 3448300,
    "name": "São Roque",
    "lat": -23.52917,
    "lon": -47.13528
  },
  {
    "id": 3661944,
    "name": "Tefé",
    "lat": -3.36841,
    "lon": -64.72054
  },
  {
    "id": 3402360,
    "name": "Ceará-Mirim",
    "lat": -5.63444,
    "lon": -35.42556
  },
  {
    "id": 3457509,
    "name": "Matão",
    "lat": -21.60333,
    "lon": -48.36583
  },
  {
    "id": 3472603,
    "name": "Alfenas",
    "lat": -21.42917,
    "lon": -45.94722
  },
  {
    "id": 3446098,
    "name": "Três Lagoas",
    "lat": -20.78765,
    "lon": -51.70338
  },
  {
    "id": 3448879,
    "name": "São João del Rei",
    "lat": -21.13556,
    "lon": -44.26167
  },
  {
    "id": 3458494,
    "name": "Lins",
    "lat": -21.67861,
    "lon": -49.7425
  },
  {
    "id": 3456998,
    "name": "Mogi Mirim",
    "lat": -22.43194,
    "lon": -46.95778
  },
  {
    "id": 12432956,
    "name": "Jardim Botânico",
    "lat": -15.86527,
    "lon": -47.81477
  },
  {
    "id": 3467723,
    "name": "Campo Limpo Paulista",
    "lat": -23.20554,
    "lon": -46.7838
  },
  {
    "id": 6316757,
    "name": "Canaã dos Carajás",
    "lat": -6.52392,
    "lon": -49.85167
  },
  {
    "id": 3449822,
    "name": "Santa Rosa",
    "lat": -27.87083,
    "lon": -54.48139
  },
  {
    "id": 3449696,
    "name": "Santo Ângelo",
    "lat": -28.29917,
    "lon": -54.26306
  },
  {
    "id": 3470003,
    "name": "Biguaçu",
    "lat": -27.49417,
    "lon": -48.65556
  },
  {
    "id": 3445133,
    "name": "Viçosa",
    "lat": -20.75389,
    "lon": -42.88194
  },
  {
    "id": 3401548,
    "name": "Crateús",
    "lat": -5.17775,
    "lon": -40.66949
  },
  {
    "id": 3470264,
    "name": "Bebedouro",
    "lat": -20.94944,
    "lon": -48.47917
  },
  {
    "id": 3463859,
    "name": "Esteio",
    "lat": -29.86139,
    "lon": -51.17917
  },
  {
    "id": 3460740,
    "name": "Itapema",
    "lat": -27.09028,
    "lon": -48.61139
  },
  {
    "id": 3448063,
    "name": "Sapiranga",
    "lat": -29.63806,
    "lon": -51.00694
  },
  {
    "id": 3461528,
    "name": "Ibiúna",
    "lat": -23.65639,
    "lon": -47.2225
  },
  {
    "id": 3446138,
    "name": "Três Corações",
    "lat": -21.69694,
    "lon": -45.25333
  },
  {
    "id": 3459138,
    "name": "Lagoa Santa",
    "lat": -19.63006,
    "lon": -43.9009
  },
  {
    "id": 3446652,
    "name": "Telêmaco Borba",
    "lat": -24.32389,
    "lon": -50.61556
  },
  {
    "id": 3406442,
    "name": "Barbalha",
    "lat": -7.31111,
    "lon": -39.30417
  },
  {
    "id": 3465090,
    "name": "Cruzeiro",
    "lat": -22.57316,
    "lon": -44.97108
  },
  {
    "id": 3455671,
    "name": "Ouro Preto",
    "lat": -20.39484,
    "lon": -43.50517
  },
  {
    "id": 3447839,
    "name": "Senhor do Bonfim",
    "lat": -10.46139,
    "lon": -40.18944
  },
  {
    "id": 3461013,
    "name": "Irecê",
    "lat": -11.30417,
    "lon": -41.85583
  },
  {
    "id": 3403353,
    "name": "Canindé",
    "lat": -4.35889,
    "lon": -39.31167
  },
  {
    "id": 3400558,
    "name": "Eusébio",
    "lat": -3.89,
    "lon": -38.45056
  },
  {
    "id": 3398856,
    "name": "Grajaú",
    "lat": -5.81944,
    "lon": -46.13861
  },
  {
    "id": 3664539,
    "name": "Coari",
    "lat": -4.085,
    "lon": -63.14139
  },
  {
    "id": 3468570,
    "name": "Caçador",
    "lat": -26.77528,
    "lon": -51.015
  },
  {
    "id": 3462378,
    "name": "Goianésia",
    "lat": -15.3175,
    "lon": -49.1175
  },
  {
    "id": 3453639,
    "name": "Pirassununga",
    "lat": -21.99611,
    "lon": -47.42583
  },
  {
    "id": 3445153,
    "name": "Viana",
    "lat": -20.39028,
    "lon": -40.49611
  },
  {
    "id": 3466704,
    "name": "Castro",
    "lat": -24.78927,
    "lon": -50.01225
  },
  {
    "id": 3389590,
    "name": "Santa Isabel do Pará",
    "lat": -1.29861,
    "lon": -48.16056
  },
  {
    "id": 3390160,
    "name": "Russas",
    "lat": -4.94028,
    "lon": -37.97583
  },
  {
    "id": 3402613,
    "name": "Cascavel",
    "lat": -4.13306,
    "lon": -38.24194
  },
  {
    "id": 3470709,
    "name": "Barra do Garças",
    "lat": -15.89,
    "lon": -52.25667
  },
  {
    "id": 3472311,
    "name": "Amparo",
    "lat": -22.70111,
    "lon": -46.76444
  },
  {
    "id": 3451152,
    "name": "Rio do Sul",
    "lat": -27.21417,
    "lon": -49.64306
  },
  {
    "id": 3462535,
    "name": "Gaspar",
    "lat": -26.93139,
    "lon": -48.95889
  },
  {
    "id": 6318732,
    "name": "Tailândia",
    "lat": -2.94722,
    "lon": -48.95306
  },
  {
    "id": 3472638,
    "name": "Alegrete",
    "lat": -29.78306,
    "lon": -55.79194
  },
  {
    "id": 3467555,
    "name": "Candeias",
    "lat": -12.66778,
    "lon": -38.55056
  },
  {
    "id": 3662075,
    "name": "Tabatinga",
    "lat": -4.23116,
    "lon": -69.93858
  },
  {
    "id": 3447472,
    "name": "Sobradinho",
    "lat": -15.64713,
    "lon": -47.79315
  },
  {
    "id": 6318357,
    "name": "Santo Antônio do Descoberto",
    "lat": -15.93972,
    "lon": -48.255
  },
  {
    "id": 3402621,
    "name": "Casa Nova",
    "lat": -9.17419,
    "lon": -40.97514
  },
  {
    "id": 3460699,
    "name": "Itapira",
    "lat": -22.43611,
    "lon": -46.82167
  },
  {
    "id": 3471772,
    "name": "Araranguá",
    "lat": -28.93575,
    "lon": -49.49538
  },
  {
    "id": 3462376,
    "name": "Goianira",
    "lat": -16.49611,
    "lon": -49.42639
  },
  {
    "id": 3460441,
    "name": "Jaboticabal",
    "lat": -21.25472,
    "lon": -48.32222
  },
  {
    "id": 3448221,
    "name": "São Sebastião do Paraíso",
    "lat": -20.91694,
    "lon": -46.99139
  },
  {
    "id": 3450964,
    "name": "Rolândia",
    "lat": -23.30972,
    "lon": -51.36917
  },
  {
    "id": 3461316,
    "name": "Indaial",
    "lat": -26.89778,
    "lon": -49.23167
  },
  {
    "id": 3464713,
    "name": "Dias d'Ávila",
    "lat": -12.6125,
    "lon": -38.29694
  },
  {
    "id": 3445596,
    "name": "Valença",
    "lat": -22.24556,
    "lon": -43.70028
  },
  {
    "id": 3467760,
    "name": "Campo Formoso",
    "lat": -10.5075,
    "lon": -40.32139
  },
  {
    "id": 3463432,
    "name": "Fernandópolis",
    "lat": -20.28389,
    "lon": -50.24639
  },
  {
    "id": 3398450,
    "name": "Horizonte",
    "lat": -4.09802,
    "lon": -38.486
  },
  {
    "id": 3393409,
    "name": "Pacajus",
    "lat": -4.1725,
    "lon": -38.46056
  },
  {
    "id": 3460174,
    "name": "Janaúba",
    "lat": -15.8025,
    "lon": -43.30889
  },
  {
    "id": 3468893,
    "name": "Brumado",
    "lat": -14.20361,
    "lon": -41.66528
  },
  {
    "id": 3403208,
    "name": "Capanema",
    "lat": -1.19583,
    "lon": -47.18083
  },
  {
    "id": 3463605,
    "name": "Farroupilha",
    "lat": -29.225,
    "lon": -51.34778
  },
  {
    "id": 3457147,
    "name": "Mineiros",
    "lat": -17.56944,
    "lon": -52.55111
  },
  {
    "id": 3444864,
    "name": "Votuporanga",
    "lat": -20.42278,
    "lon": -49.97278
  },
  {
    "id": 3407980,
    "name": "Alenquer",
    "lat": -1.94167,
    "lon": -54.73833
  },
  {
    "id": 3445350,
    "name": "Venâncio Aires",
    "lat": -29.60639,
    "lon": -52.19194
  },
  {
    "id": 3452711,
    "name": "Porto Nacional",
    "lat": -10.70806,
    "lon": -48.41722
  },
  {
    "id": 3454061,
    "name": "Peruíbe",
    "lat": -24.32,
    "lon": -46.99833
  },
  {
    "id": 3393471,
    "name": "Oriximiná",
    "lat": -1.76556,
    "lon": -55.86611
  },
  {
    "id": 3463174,
    "name": "Formiga",
    "lat": -20.46444,
    "lon": -45.42639
  },
  {
    "id": 3465748,
    "name": "Conceição do Coité",
    "lat": -11.56389,
    "lon": -39.28278
  },
  {
    "id": 3457025,
    "name": "Mococa",
    "lat": -21.46778,
    "lon": -47.00472
  },
  {
    "id": 3386279,
    "name": "Tomé-Açu",
    "lat": -2.41889,
    "lon": -48.15222
  },
  {
    "id": 3387202,
    "name": "Sousa",
    "lat": -6.75917,
    "lon": -38.22806
  },
  {
    "id": 3736808,
    "name": "Iranduba",
    "lat": -3.28472,
    "lon": -60.18611
  },
  {
    "id": 3464304,
    "name": "Embu-Guaçu",
    "lat": -23.83222,
    "lon": -46.81139
  },
  {
    "id": 3404558,
    "name": "Cabedelo",
    "lat": -6.98111,
    "lon": -34.83389
  },
  {
    "id": 3458645,
    "name": "Lençóis Paulista",
    "lat": -22.59861,
    "lon": -48.80028
  },
  {
    "id": 3466698,
    "name": "Cataguases",
    "lat": -21.38917,
    "lon": -42.69667
  },
  {
    "id": 3460730,
    "name": "Itapetinga",
    "lat": -15.24889,
    "lon": -40.24778
  },
  {
    "id": 3456826,
    "name": "Montenegro",
    "lat": -29.68861,
    "lon": -51.46111
  },
  {
    "id": 3395062,
    "name": "Maués",
    "lat": -3.38361,
    "lon": -57.71861
  },
  {
    "id": 3406196,
    "name": "Barreirinhas",
    "lat": -2.75556,
    "lon": -42.82591
  },
  {
    "id": 3469437,
    "name": "Bom Jesus da Lapa",
    "lat": -13.255,
    "lon": -43.41806
  },
  {
    "id": 3391908,
    "name": "Piripiri",
    "lat": -4.27333,
    "lon": -41.77694
  },
  {
    "id": 3388847,
    "name": "São Félix do Xingu",
    "lat": -6.64472,
    "lon": -51.995
  },
  {
    "id": 12432866,
    "name": "Itapoã",
    "lat": -15.74937,
    "lon": -47.7686
  },
  {
    "id": 3408368,
    "name": "Acaraú",
    "lat": -2.88556,
    "lon": -40.12
  },
  {
    "id": 3393452,
    "name": "Ouricuri",
    "lat": -7.8825,
    "lon": -40.08167
  },
  {
    "id": 3460148,
    "name": "Januária",
    "lat": -15.47949,
    "lon": -44.3652
  },
  {
    "id": 3407407,
    "name": "Aquiraz",
    "lat": -3.90139,
    "lon": -38.39111
  },
  {
    "id": 3463900,
    "name": "Estância",
    "lat": -11.26833,
    "lon": -37.43833
  },
  {
    "id": 3460966,
    "name": "Itaberaba",
    "lat": -12.5275,
    "lon": -40.30694
  },
  {
    "id": 3398343,
    "name": "Igarapé Miri",
    "lat": -1.975,
    "lon": -48.95972
  },
  {
    "id": 3405738,
    "name": "Bezerros",
    "lat": -8.23333,
    "lon": -35.79694
  },
  {
    "id": 3470052,
    "name": "Bertioga",
    "lat": -23.85444,
    "lon": -46.13861
  },
  {
    "id": 3456827,
    "name": "Monte Mor",
    "lat": -22.94667,
    "lon": -47.31583
  },
  {
    "id": 3397969,
    "name": "Itaitinga",
    "lat": -3.96944,
    "lon": -38.52806
  },
  {
    "id": 3445630,
    "name": "Vacaria",
    "lat": -28.51222,
    "lon": -50.93389
  },
  {
    "id": 3387115,
    "name": "Surubim",
    "lat": -7.83306,
    "lon": -35.75472
  },
  {
    "id": 3445942,
    "name": "Tupã",
    "lat": -21.93472,
    "lon": -50.51361
  },
  {
    "id": 3455047,
    "name": "Paranoá",
    "lat": -15.77553,
    "lon": -47.78117
  },
  {
    "id": 3467362,
    "name": "Capão da Canoa",
    "lat": -29.74556,
    "lon": -50.00972
  },
  {
    "id": 3405792,
    "name": "Benevides",
    "lat": -1.36139,
    "lon": -48.24472
  },
  {
    "id": 3457095,
    "name": "Mirassol",
    "lat": -20.81917,
    "lon": -49.52111
  },
  {
    "id": 3404020,
    "name": "Cajazeiras",
    "lat": -6.89028,
    "lon": -38.55528
  },
  {
    "id": 3467791,
    "name": "Campo Bom",
    "lat": -29.67889,
    "lon": -51.05333
  },
  {
    "id": 3392251,
    "name": "Pesqueira",
    "lat": -8.35778,
    "lon": -36.69639
  },
  {
    "id": 3398379,
    "name": "Icó",
    "lat": -6.40111,
    "lon": -38.86222
  },
  {
    "id": 3454358,
    "name": "Pedro Leopoldo",
    "lat": -19.61806,
    "lon": -44.04306
  },
  {
    "id": 3391412,
    "name": "Portel",
    "lat": -1.93556,
    "lon": -50.82111
  },
  {
    "id": 3389860,
    "name": "Salgueiro",
    "lat": -8.07417,
    "lon": -39.11917
  },
  {
    "id": 3395395,
    "name": "Marechal Deodoro",
    "lat": -9.71028,
    "lon": -35.895
  },
  {
    "id": 3403687,
    "name": "Camocim",
    "lat": -2.90222,
    "lon": -40.84111
  },
  {
    "id": 3664078,
    "name": "Humaitá",
    "lat": -7.51651,
    "lon": -63.03105
  },
  {
    "id": 3400804,
    "name": "Escada",
    "lat": -8.35917,
    "lon": -35.22361
  },
  {
    "id": 3468014,
    "name": "Camaquã",
    "lat": -30.85111,
    "lon": -51.81222
  },
  {
    "id": 3469540,
    "name": "Boituva",
    "lat": -23.28333,
    "lon": -47.67222
  },
  {
    "id": 3399506,
    "name": "Floriano",
    "lat": -6.76694,
    "lon": -43.0225
  },
  {
    "id": 3456138,
    "name": "Nova Odessa",
    "lat": -22.7775,
    "lon": -47.29583
  },
  {
    "id": 3466978,
    "name": "Carazinho",
    "lat": -28.28389,
    "lon": -52.78639
  },
  {
    "id": 3454235,
    "name": "Penápolis",
    "lat": -21.41972,
    "lon": -50.0775
  },
  {
    "id": 3400567,
    "name": "Extremoz",
    "lat": -5.70556,
    "lon": -35.30722
  },
  {
    "id": 3472248,
    "name": "Andradina",
    "lat": -20.89611,
    "lon": -51.37944
  },
  {
    "id": 3463698,
    "name": "Euclides da Cunha",
    "lat": -10.5075,
    "lon": -39.01583
  },
  {
    "id": 3394500,
    "name": "Morada Nova",
    "lat": -5.10667,
    "lon": -38.3725
  },
  {
    "id": 3457736,
    "name": "Mariana",
    "lat": -20.37778,
    "lon": -43.41611
  },
  {
    "id": 3401703,
    "name": "Coroatá",
    "lat": -4.13,
    "lon": -44.12417
  },
  {
    "id": 3386551,
    "name": "Tauá",
    "lat": -6.00306,
    "lon": -40.29278
  },
  {
    "id": 6317755,
    "name": "Nova Mutum",
    "lat": -13.82889,
    "lon": -56.08222
  },
  {
    "id": 3404117,
    "name": "Caicó",
    "lat": -6.45833,
    "lon": -37.09778
  },
  {
    "id": 3385742,
    "name": "União dos Palmares",
    "lat": -9.16278,
    "lon": -36.03194
  },
  {
    "id": 6317801,
    "name": "Novo Repartimento",
    "lat": -4.33056,
    "lon": -49.79639
  },
  {
    "id": 3397936,
    "name": "Itapecuru Mirim",
    "lat": -3.3925,
    "lon": -44.35861
  },
  {
    "id": 3465105,
    "name": "Cruz das Almas",
    "lat": -12.67,
    "lon": -39.10194
  },
  {
    "id": 3465164,
    "name": "Cristalina",
    "lat": -16.76769,
    "lon": -47.6153
  },
  {
    "id": 3454231,
    "name": "Penedo",
    "lat": -10.29028,
    "lon": -36.58639
  },
  {
    "id": 3461550,
    "name": "Ibitinga",
    "lat": -21.75778,
    "lon": -48.82889
  },
  {
    "id": 3449340,
    "name": "São Borja",
    "lat": -28.66056,
    "lon": -56.00444
  },
  {
    "id": 3394605,
    "name": "Monte Alegre",
    "lat": -2.00082,
    "lon": -54.08102
  },
  {
    "id": 3451704,
    "name": "Registro",
    "lat": -24.4875,
    "lon": -47.84361
  },
  {
    "id": 3397702,
    "name": "Jacundá",
    "lat": -4.44696,
    "lon": -49.11556
  },
  {
    "id": 3468425,
    "name": "Cachoeiras de Macacu",
    "lat": -22.4625,
    "lon": -42.65306
  },
  {
    "id": 3465320,
    "name": "Cosmópolis",
    "lat": -22.64583,
    "lon": -47.19611
  },
  {
    "id": 3385106,
    "name": "Viçosa do Ceará",
    "lat": -3.56222,
    "lon": -41.09222
  },
  {
    "id": 3460826,
    "name": "Itamaraju",
    "lat": -17.03917,
    "lon": -39.53111
  },
  {
    "id": 3396266,
    "name": "Limoeiro do Norte",
    "lat": -5.14556,
    "lon": -38.09806
  },
  {
    "id": 3461017,
    "name": "Irati",
    "lat": -25.46722,
    "lon": -50.65111
  },
  {
    "id": 3451261,
    "name": "Rio Bonito",
    "lat": -22.70861,
    "lon": -42.60972
  },
  {
    "id": 3461519,
    "name": "Içara",
    "lat": -28.71333,
    "lon": -49.3
  },
  {
    "id": 3408386,
    "name": "Acará",
    "lat": -1.96083,
    "lon": -48.19667
  },
  {
    "id": 3465108,
    "name": "Cruz Alta",
    "lat": -28.64397,
    "lon": -53.60633
  },
  {
    "id": 3460200,
    "name": "Jaguariúna",
    "lat": -22.70556,
    "lon": -46.98583
  },
  {
    "id": 3385022,
    "name": "Viseu",
    "lat": -1.19667,
    "lon": -46.14
  },
  {
    "id": 3462916,
    "name": "Frutal",
    "lat": -20.02472,
    "lon": -48.94056
  },
  {
    "id": 3449099,
    "name": "São Gabriel",
    "lat": -30.33639,
    "lon": -54.32
  },
  {
    "id": 6317029,
    "name": "Dom Eliseu",
    "lat": -4.285,
    "lon": -47.505
  },
  {
    "id": 3386177,
    "name": "Trairi",
    "lat": -3.27778,
    "lon": -39.26889
  },
  {
    "id": 3470324,
    "name": "Batatais",
    "lat": -20.89111,
    "lon": -47.585
  },
  {
    "id": 3453078,
    "name": "Ponte Nova",
    "lat": -20.41639,
    "lon": -42.90861
  },
  {
    "id": 3663503,
    "name": "Manicoré",
    "lat": -5.80917,
    "lon": -61.30028
  },
  {
    "id": 3456944,
    "name": "Mongaguá",
    "lat": -24.09306,
    "lon": -46.62083
  },
  {
    "id": 6318263,
    "name": "Santa Luzia",
    "lat": -3.96333,
    "lon": -45.65833
  },
  {
    "id": 3398570,
    "name": "Guarabira",
    "lat": -6.85472,
    "lon": -35.49
  },
  {
    "id": 3461124,
    "name": "Ipirá",
    "lat": -12.15833,
    "lon": -39.73722
  },
  {
    "id": 3392829,
    "name": "Paudalho",
    "lat": -7.89667,
    "lon": -35.17972
  },
  {
    "id": 3396277,
    "name": "Limoeiro",
    "lat": -7.87472,
    "lon": -35.45028
  },
  {
    "id": 3403127,
    "name": "Capitão Poço",
    "lat": -1.74639,
    "lon": -47.05944
  },
  {
    "id": 3408337,
    "name": "Açu",
    "lat": -5.57667,
    "lon": -36.90861
  },
  {
    "id": 6318182,
    "name": "Rolim de Moura",
    "lat": -11.80361,
    "lon": -61.80333
  },
  {
    "id": 3662342,
    "name": "São Gabriel da Cachoeira",
    "lat": -0.1181,
    "lon": -67.08527
  },
  {
    "id": 3449720,
    "name": "Santo Amaro",
    "lat": -12.54667,
    "lon": -38.71194
  },
  {
    "id": 3457772,
    "name": "Marechal Cândido Rondon",
    "lat": -24.55611,
    "lon": -54.05667
  },
  {
    "id": 3453546,
    "name": "Pirapora",
    "lat": -17.345,
    "lon": -44.94194
  },
  {
    "id": 3469049,
    "name": "Brazlândia",
    "lat": -15.67941,
    "lon": -48.19667
  },
  {
    "id": 12959044,
    "name": "Buriticupu",
    "lat": -4.32124,
    "lon": -46.45468
  },
  {
    "id": 3445126,
    "name": "Videira",
    "lat": -27.00833,
    "lon": -51.15167
  },
  {
    "id": 3394453,
    "name": "Moreno",
    "lat": -8.11861,
    "lon": -35.09222
  },
  {
    "id": 3458147,
    "name": "Mafra",
    "lat": -26.11139,
    "lon": -49.80528
  },
  {
    "id": 3446077,
    "name": "Três Pontas",
    "lat": -21.36667,
    "lon": -45.5125
  },
  {
    "id": 3479329,
    "name": "Paraíso do Tocantins",
    "lat": -10.17611,
    "lon": -48.86667
  },
  {
    "id": 3455923,
    "name": "Olímpia",
    "lat": -20.73722,
    "lon": -48.91472
  },
  {
    "id": 3445746,
    "name": "União da Vitória",
    "lat": -26.23,
    "lon": -51.08639
  },
  {
    "id": 3467452,
    "name": "Canoinhas",
    "lat": -26.17722,
    "lon": -50.39
  },
  {
    "id": 3453060,
    "name": "Pontes e Lacerda",
    "lat": -15.22611,
    "lon": -59.33528
  },
  {
    "id": 3393264,
    "name": "Palmares",
    "lat": -8.68333,
    "lon": -35.59167
  },
  {
    "id": 3404766,
    "name": "Buíque",
    "lat": -8.62306,
    "lon": -37.15583
  },
  {
    "id": 3446232,
    "name": "Tramandaí",
    "lat": -29.98472,
    "lon": -50.13361
  },
  {
    "id": 3457359,
    "name": "Medianeira",
    "lat": -25.29528,
    "lon": -54.09389
  },
  {
    "id": 3461949,
    "name": "Guapimirim",
    "lat": -22.53722,
    "lon": -42.98194
  },
  {
    "id": 3388714,
    "name": "São Gonçalo do Amarante",
    "lat": -3.60722,
    "lon": -38.96833
  },
  {
    "id": 3451383,
    "name": "Ribeira do Pombal",
    "lat": -10.83444,
    "lon": -38.53583
  },
  {
    "id": 3463668,
    "name": "Extrema",
    "lat": -22.85472,
    "lon": -46.31833
  },
  {
    "id": 3452779,
    "name": "Porto Feliz",
    "lat": -23.21472,
    "lon": -47.52389
  },
  {
    "id": 3388269,
    "name": "São Miguel dos Campos",
    "lat": -9.78111,
    "lon": -36.09361
  },
  {
    "id": 3460954,
    "name": "Itabirito",
    "lat": -20.25333,
    "lon": -43.80139
  },
  {
    "id": 3385899,
    "name": "Tutóia",
    "lat": -2.76194,
    "lon": -42.27444
  },
  {
    "id": 3398706,
    "name": "Granja",
    "lat": -3.12028,
    "lon": -40.82611
  },
  {
    "id": 3446847,
    "name": "Taquara",
    "lat": -29.65056,
    "lon": -50.78056
  },
  {
    "id": 3450188,
    "name": "Santa Isabel",
    "lat": -23.31556,
    "lon": -46.22139
  },
  {
    "id": 3471395,
    "name": "Artur Nogueira",
    "lat": -22.57306,
    "lon": -47.1725
  },
  {
    "id": 6318184,
    "name": "Rondon do Pará",
    "lat": -4.77611,
    "lon": -48.06722
  },
  {
    "id": 3405924,
    "name": "Beberibe",
    "lat": -4.17972,
    "lon": -38.13056
  },
  {
    "id": 3453926,
    "name": "Piedade",
    "lat": -23.71194,
    "lon": -47.42778
  },
  {
    "id": 3388270,
    "name": "São Miguel do Guamá",
    "lat": -1.62667,
    "lon": -47.48333
  },
  {
    "id": 6318968,
    "name": "Xinguara",
    "lat": -7.09829,
    "lon": -49.9435
  },
  {
    "id": 3465671,
    "name": "Congonhas",
    "lat": -20.50525,
    "lon": -43.8588
  },
  {
    "id": 3401109,
    "name": "Delmiro Gouveia",
    "lat": -9.38861,
    "lon": -37.99917
  },
  {
    "id": 3449176,
    "name": "São Francisco",
    "lat": -15.94861,
    "lon": -44.86444
  },
  {
    "id": 3449112,
    "name": "São Francisco do Sul",
    "lat": -26.24333,
    "lon": -48.63806
  },
  {
    "id": 3452775,
    "name": "Porto Ferreira",
    "lat": -21.85389,
    "lon": -47.47917
  },
  {
    "id": 3461370,
    "name": "Imbituba",
    "lat": -28.24,
    "lon": -48.67028
  },
  {
    "id": 3467684,
    "name": "Campos do Jordão",
    "lat": -22.73944,
    "lon": -45.59139
  },
  {
    "id": 3393768,
    "name": "Óbidos",
    "lat": -1.9175,
    "lon": -55.51806
  },
  {
    "id": 3467796,
    "name": "Campo Belo",
    "lat": -20.89722,
    "lon": -45.27722
  },
  {
    "id": 3449467,
    "name": "Santo Estêvão",
    "lat": -12.43028,
    "lon": -39.25139
  },
  {
    "id": 3446753,
    "name": "Taquaritinga",
    "lat": -21.40611,
    "lon": -48.50472
  },
  {
    "id": 3448640,
    "name": "São José do Rio Pardo",
    "lat": -21.59556,
    "lon": -46.88861
  },
  {
    "id": 3461194,
    "name": "Inhumas",
    "lat": -16.35778,
    "lon": -49.49611
  },
  {
    "id": 3454954,
    "name": "Parobé",
    "lat": -29.62861,
    "lon": -50.83472
  },
  {
    "id": 3468317,
    "name": "Caetité",
    "lat": -14.06944,
    "lon": -42.475
  },
  {
    "id": 3458406,
    "name": "Louveira",
    "lat": -23.08639,
    "lon": -46.95056
  },
  {
    "id": 3465329,
    "name": "Coruripe",
    "lat": -10.12556,
    "lon": -36.17556
  },
  {
    "id": 3469516,
    "name": "Bom Despacho",
    "lat": -19.73639,
    "lon": -45.25222
  },
  {
    "id": 3406844,
    "name": "Baião",
    "lat": -2.79056,
    "lon": -49.67167
  },
  {
    "id": 3444848,
    "name": "Xanxerê",
    "lat": -26.87694,
    "lon": -52.40417
  },
  {
    "id": 3461588,
    "name": "Ibiporã",
    "lat": -23.26917,
    "lon": -51.04806
  },
  {
    "id": 3446500,
    "name": "Tijucas",
    "lat": -27.24139,
    "lon": -48.63361
  },
  {
    "id": 3385122,
    "name": "Viana",
    "lat": -3.22028,
    "lon": -45.00361
  },
  {
    "id": 3459251,
    "name": "Lagoa da Prata",
    "lat": -20.0225,
    "lon": -45.54361
  },
  {
    "id": 3456735,
    "name": "Morrinhos",
    "lat": -17.73111,
    "lon": -49.09944
  },
  {
    "id": 3388046,
    "name": "Sapé",
    "lat": -7.09639,
    "lon": -35.23278
  },
  {
    "id": 3446194,
    "name": "Tremembé",
    "lat": -22.95833,
    "lon": -45.54944
  },
  {
    "id": 3458632,
    "name": "Leopoldina",
    "lat": -21.53194,
    "lon": -42.64306
  },
  {
    "id": 3404862,
    "name": "Brejo da Madre de Deus",
    "lat": -8.14583,
    "lon": -36.37111
  },
  {
    "id": 3470821,
    "name": "Barra",
    "lat": -11.08944,
    "lon": -43.14167
  },
  {
    "id": 3404833,
    "name": "Brejo Santo",
    "lat": -7.49333,
    "lon": -38.98722
  },
  {
    "id": 3461763,
    "name": "Guaxupé",
    "lat": -21.30528,
    "lon": -46.71278
  },
  {
    "id": 3446400,
    "name": "Tobias Barreto",
    "lat": -11.18389,
    "lon": -37.99833
  },
  {
    "id": 3396979,
    "name": "Juruti",
    "lat": -2.15222,
    "lon": -56.09222
  },
  {
    "id": 3385088,
    "name": "Vigia",
    "lat": -0.85833,
    "lon": -48.14167
  },
  {
    "id": 3925040,
    "name": "Jaru",
    "lat": -10.43889,
    "lon": -62.46639
  },
  {
    "id": 3456368,
    "name": "Naviraí",
    "lat": -23.065,
    "lon": -54.19056
  },
  {
    "id": 6318864,
    "name": "Vargem Grande Paulista",
    "lat": -23.60333,
    "lon": -47.02639
  },
  {
    "id": 3405616,
    "name": "Boa Viagem",
    "lat": -5.1275,
    "lon": -39.73222
  },
  {
    "id": 3467197,
    "name": "Capivari",
    "lat": -22.995,
    "lon": -47.50778
  },
  {
    "id": 6316745,
    "name": "Campo Novo do Parecis",
    "lat": -13.67528,
    "lon": -57.89194
  },
  {
    "id": 3458132,
    "name": "Mairinque",
    "lat": -23.54583,
    "lon": -47.18333
  },
  {
    "id": 3397851,
    "name": "Itupiranga",
    "lat": -5.13472,
    "lon": -49.32667
  },
  {
    "id": 3467512,
    "name": "Canguçu",
    "lat": -31.395,
    "lon": -52.67556
  },
  {
    "id": 3388955,
    "name": "São Bento do Una",
    "lat": -8.52278,
    "lon": -36.44444
  },
  {
    "id": 3452216,
    "name": "Prudentópolis",
    "lat": -25.21306,
    "lon": -50.97778
  },
  {
    "id": 3456110,
    "name": "Nova Venécia",
    "lat": -18.71056,
    "lon": -40.40056
  },
  {
    "id": 3467530,
    "name": "Canela",
    "lat": -29.35622,
    "lon": -50.81357
  },
  {
    "id": 3449741,
    "name": "Santiago",
    "lat": -29.19167,
    "lon": -54.86722
  },
  {
    "id": 3663684,
    "name": "Lábrea",
    "lat": -7.26435,
    "lon": -64.79638
  },
  {
    "id": 3460186,
    "name": "Jales",
    "lat": -20.26889,
    "lon": -50.54583
  },
  {
    "id": 3445983,
    "name": "Tucano",
    "lat": -10.95817,
    "lon": -38.79084
  },
  {
    "id": 6317707,
    "name": "Nova Andradina",
    "lat": -22.23333,
    "lon": -53.34306
  },
  {
    "id": 3466763,
    "name": "Casimiro de Abreu",
    "lat": -22.48056,
    "lon": -42.20417
  },
  {
    "id": 3471896,
    "name": "Aquidauana",
    "lat": -20.47111,
    "lon": -55.78722
  },
  {
    "id": 3448825,
    "name": "São Joaquim da Barra",
    "lat": -20.58139,
    "lon": -47.85472
  },
  {
    "id": 3451931,
    "name": "Quirinópolis",
    "lat": -18.44833,
    "lon": -50.45167
  },
  {
    "id": 3471854,
    "name": "Araci",
    "lat": -11.33333,
    "lon": -38.96667
  },
  {
    "id": 3453337,
    "name": "Poções",
    "lat": -14.52972,
    "lon": -40.36528
  },
  {
    "id": 3455459,
    "name": "Palmas",
    "lat": -26.48417,
    "lon": -51.99056
  },
  {
    "id": 3466641,
    "name": "Catu",
    "lat": -12.35306,
    "lon": -38.37889
  },
  {
    "id": 3389006,
    "name": "São Bento",
    "lat": -2.69583,
    "lon": -44.82139
  },
  {
    "id": 3469601,
    "name": "Bocaiúva",
    "lat": -17.10778,
    "lon": -43.815
  },
  {
    "id": 3406263,
    "name": "Barras",
    "lat": -4.24444,
    "lon": -42.29444
  },
  {
    "id": 3463865,
    "name": "Estância Velha",
    "lat": -29.64833,
    "lon": -51.17389
  },
  {
    "id": 6316748,
    "name": "Campo Verde",
    "lat": -15.54667,
    "lon": -55.16889
  },
  {
    "id": 3467877,
    "name": "Campina Grande do Sul",
    "lat": -25.30556,
    "lon": -49.05528
  },
  {
    "id": 6317400,
    "name": "Juína",
    "lat": -11.42047,
    "lon": -58.75488
  },
  {
    "id": 3456820,
    "name": "Monte Santo",
    "lat": -10.43778,
    "lon": -39.33278
  },
  {
    "id": 3464728,
    "name": "Diamantina",
    "lat": -18.24692,
    "lon": -43.60345
  },
  {
    "id": 3456848,
    "name": "Monte Carmelo",
    "lat": -18.72472,
    "lon": -47.49861
  },
  {
    "id": 3391040,
    "name": "Queimadas",
    "lat": -7.35833,
    "lon": -35.89833
  },
  {
    "id": 3389023,
    "name": "São Benedito",
    "lat": -4.04861,
    "lon": -40.865
  },
  {
    "id": 3456873,
    "name": "Monte Alto",
    "lat": -21.26111,
    "lon": -48.49639
  },
  {
    "id": 3407797,
    "name": "Altos",
    "lat": -5.03806,
    "lon": -42.46
  },
  {
    "id": 3389384,
    "name": "Santana do Ipanema",
    "lat": -9.37833,
    "lon": -37.24528
  },
  {
    "id": 3455769,
    "name": "Osório",
    "lat": -29.88667,
    "lon": -50.26972
  },
  {
    "id": 6318423,
    "name": "São Francisco de Itabapoana",
    "lat": -21.30194,
    "lon": -40.96139
  },
  {
    "id": 3388443,
    "name": "São José de Mipibu",
    "lat": -6.07472,
    "lon": -35.23778
  },
  {
    "id": 3447597,
    "name": "Sidrolândia",
    "lat": -20.93194,
    "lon": -54.96139
  },
  {
    "id": 3468592,
    "name": "Cabreúva",
    "lat": -23.3075,
    "lon": -47.13278
  },
  {
    "id": 3459785,
    "name": "João Pinheiro",
    "lat": -17.7425,
    "lon": -46.1725
  },
  {
    "id": 3461914,
    "name": "Guaramirim",
    "lat": -26.47306,
    "lon": -49.00278
  },
  {
    "id": 3450272,
    "name": "Santa Cruz do Rio Pardo",
    "lat": -22.89889,
    "lon": -49.6325
  },
  {
    "id": 3397941,
    "name": "Itapagé",
    "lat": -3.68667,
    "lon": -39.58611
  },
  {
    "id": 3467371,
    "name": "Capão Bonito",
    "lat": -24.00583,
    "lon": -48.34944
  },
  {
    "id": 3405380,
    "name": "Bom Conselho",
    "lat": -9.16972,
    "lon": -36.67972
  },
  {
    "id": 3447928,
    "name": "Seabra",
    "lat": -12.41713,
    "lon": -41.77049
  },
  {
    "id": 3386396,
    "name": "Timbaúba",
    "lat": -7.50528,
    "lon": -35.31833
  },
  {
    "id": 3385745,
    "name": "União",
    "lat": -4.58583,
    "lon": -42.86417
  },
  {
    "id": 3446465,
    "name": "Timbó",
    "lat": -26.82333,
    "lon": -49.27167
  },
  {
    "id": 3460242,
    "name": "Jaguaquara",
    "lat": -13.53056,
    "lon": -39.97083
  },
  {
    "id": 3455553,
    "name": "Paiçandu",
    "lat": -23.4575,
    "lon": -52.04861
  },
  {
    "id": 3461498,
    "name": "Igarapé",
    "lat": -20.07028,
    "lon": -44.30167
  },
  {
    "id": 3403566,
    "name": "Campo Maior",
    "lat": -4.82778,
    "lon": -42.16861
  },
  {
    "id": 6316653,
    "name": "Breu Branco",
    "lat": -4.00092,
    "lon": -49.5068
  },
  {
    "id": 3395058,
    "name": "Mauriti",
    "lat": -7.38917,
    "lon": -38.77444
  },
  {
    "id": 3464426,
    "name": "Dracena",
    "lat": -21.4825,
    "lon": -51.53278
  },
  {
    "id": 3470597,
    "name": "Barra Velha",
    "lat": -26.63222,
    "lon": -48.68472
  },
  {
    "id": 3394326,
    "name": "Muaná",
    "lat": -1.52833,
    "lon": -49.21667
  },
  {
    "id": 3406948,
    "name": "Autazes",
    "lat": -3.57972,
    "lon": -59.13056
  },
  {
    "id": 3471783,
    "name": "Araquari",
    "lat": -26.37,
    "lon": -48.72222
  },
  {
    "id": 3460071,
    "name": "Jardinópolis",
    "lat": -21.01778,
    "lon": -47.76389
  },
  {
    "id": 3460107,
    "name": "Jaraguá",
    "lat": -15.75694,
    "lon": -49.33444
  },
  {
    "id": 3465508,
    "name": "Cornélio Procópio",
    "lat": -23.18111,
    "lon": -50.64667
  },
  {
    "id": 3391220,
    "name": "Presidente Dutra",
    "lat": -5.29,
    "lon": -44.49
  },
  {
    "id": 3457817,
    "name": "Marau",
    "lat": -28.44917,
    "lon": -52.2
  },
  {
    "id": 3457859,
    "name": "Maracaju",
    "lat": -21.61444,
    "lon": -55.16833
  },
  {
    "id": 3458826,
    "name": "Lapa",
    "lat": -25.76972,
    "lon": -49.71583
  },
  {
    "id": 3408343,
    "name": "Acopiara",
    "lat": -6.09528,
    "lon": -39.4525
  },
  {
    "id": 3464579,
    "name": "Dois Vizinhos",
    "lat": -25.73361,
    "lon": -53.05722
  },
  {
    "id": 3454620,
    "name": "Pederneiras",
    "lat": -22.35167,
    "lon": -48.775
  },
  {
    "id": 3449933,
    "name": "Santana do Paraíso",
    "lat": -19.36361,
    "lon": -42.56861
  },
  {
    "id": 3448616,
    "name": "São Lourenço",
    "lat": -22.11639,
    "lon": -45.05444
  },
  {
    "id": 3389822,
    "name": "Salinópolis",
    "lat": -0.62099,
    "lon": -47.35422
  },
  {
    "id": 3444823,
    "name": "Xique-Xique",
    "lat": -10.82294,
    "lon": -42.72815
  },
  {
    "id": 3460963,
    "name": "Itaberaí",
    "lat": -16.02028,
    "lon": -49.81028
  },
  {
    "id": 3466429,
    "name": "Cerquilho",
    "lat": -23.165,
    "lon": -47.74361
  },
  {
    "id": 3401845,
    "name": "Conceição do Araguaia",
    "lat": -8.26441,
    "lon": -49.26982
  },
  {
    "id": 3395717,
    "name": "Mamanguape",
    "lat": -6.83861,
    "lon": -35.12611
  },
  {
    "id": 3406961,
    "name": "Augusto Corrêa",
    "lat": -1.02167,
    "lon": -46.635
  },
  {
    "id": 3455141,
    "name": "Paraíba do Sul",
    "lat": -22.15847,
    "lon": -43.29321
  },
  {
    "id": 3460620,
    "name": "Itararé",
    "lat": -24.1125,
    "lon": -49.33167
  },
  {
    "id": 3396601,
    "name": "Lago da Pedra",
    "lat": -4.56033,
    "lon": -45.13155
  },
  {
    "id": 3449529,
    "name": "Santo Antônio da Platina",
    "lat": -23.295,
    "lon": -50.07722
  },
  {
    "id": 3448454,
    "name": "São Miguel d'Oeste",
    "lat": -26.72528,
    "lon": -53.51806
  },
  {
    "id": 3453014,
    "name": "Porangatu",
    "lat": -13.44083,
    "lon": -49.14861
  },
  {
    "id": 3407378,
    "name": "Aracati",
    "lat": -4.56167,
    "lon": -37.76972
  },
  {
    "id": 3451134,
    "name": "Rio Grande da Serra",
    "lat": -23.74417,
    "lon": -46.39833
  },
  {
    "id": 3447720,
    "name": "Serrana",
    "lat": -21.21139,
    "lon": -47.59556
  },
  {
    "id": 10341207,
    "name": "Livramento de Nossa Senhora",
    "lat": -13.64136,
    "lon": -41.84319
  },
  {
    "id": 3450563,
    "name": "Salto de Pirapora",
    "lat": -23.64889,
    "lon": -47.57333
  },
  {
    "id": 3408166,
    "name": "Águas Belas",
    "lat": -9.11139,
    "lon": -37.12306
  },
  {
    "id": 3449519,
    "name": "Santo Antônio de Pádua",
    "lat": -21.53944,
    "lon": -42.18028
  },
  {
    "id": 3455170,
    "name": "Paracambi",
    "lat": -22.6083,
    "lon": -43.70948
  },
  {
    "id": 3457991,
    "name": "Mangaratiba",
    "lat": -22.95972,
    "lon": -44.04056
  },
  {
    "id": 6318838,
    "name": "Uruará",
    "lat": -3.7175,
    "lon": -53.73667
  },
  {
    "id": 3455281,
    "name": "Panambi",
    "lat": -28.2925,
    "lon": -53.50167
  },
  {
    "id": 3661980,
    "name": "Tarauacá",
    "lat": -8.16139,
    "lon": -70.76556
  },
  {
    "id": 3385538,
    "name": "Vargem Grande",
    "lat": -3.54306,
    "lon": -43.91583
  },
  {
    "id": 3454407,
    "name": "Pedreira",
    "lat": -22.74194,
    "lon": -46.90139
  },
  {
    "id": 3397883,
    "name": "Itarema",
    "lat": -2.92028,
    "lon": -39.915
  },
  {
    "id": 3449614,
    "name": "Santo Antônio da Patrulha",
    "lat": -29.8175,
    "lon": -50.51972
  },
  {
    "id": 3459094,
    "name": "Laguna",
    "lat": -28.4825,
    "lon": -48.78083
  },
  {
    "id": 3447562,
    "name": "Simão Dias",
    "lat": -10.73833,
    "lon": -37.81111
  },
  {
    "id": 3457528,
    "name": "Mata de São João",
    "lat": -12.53028,
    "lon": -38.29917
  },
  {
    "id": 3397230,
    "name": "José de Freitas",
    "lat": -4.75639,
    "lon": -42.57556
  },
  {
    "id": 3445713,
    "name": "Uruaçu",
    "lat": -14.52472,
    "lon": -49.14083
  },
  {
    "id": 3465813,
    "name": "Vera Cruz",
    "lat": -12.96028,
    "lon": -38.60861
  },
  {
    "id": 3470730,
    "name": "Barra de São Francisco",
    "lat": -18.755,
    "lon": -40.89083
  },
  {
    "id": 3471487,
    "name": "Armação dos Búzios",
    "lat": -22.74694,
    "lon": -41.88167
  },
  {
    "id": 3408274,
    "name": "Afogados da Ingazeira",
    "lat": -7.75083,
    "lon": -37.63917
  },
  {
    "id": 3449427,
    "name": "Santos Dumont",
    "lat": -21.45667,
    "lon": -43.5525
  },
  {
    "id": 3448502,
    "name": "São Mateus do Sul",
    "lat": -25.87417,
    "lon": -50.38278
  },
  {
    "id": 3407703,
    "name": "Amontada",
    "lat": -3.36167,
    "lon": -39.83167
  },
  {
    "id": 3462580,
    "name": "Garça",
    "lat": -22.21056,
    "lon": -49.65611
  },
  {
    "id": 3461857,
    "name": "Guaratuba",
    "lat": -25.88278,
    "lon": -48.57472
  },
  {
    "id": 3406160,
    "name": "Barreiros",
    "lat": -8.81833,
    "lon": -35.18639
  },
  {
    "id": 3398569,
    "name": "Guaraciaba do Norte",
    "lat": -4.16694,
    "lon": -40.7475
  },
  {
    "id": 3448596,
    "name": "São Lourenço do Sul",
    "lat": -31.36528,
    "lon": -51.97833
  },
  {
    "id": 3457819,
    "name": "Marataizes",
    "lat": -21.04333,
    "lon": -40.82444
  },
  {
    "id": 3458237,
    "name": "Macaúbas",
    "lat": -13.01944,
    "lon": -42.69861
  },
  {
    "id": 3457741,
    "name": "Marialva",
    "lat": -23.485,
    "lon": -51.79167
  },
  {
    "id": 12432908,
    "name": "Lago Norte",
    "lat": -15.73948,
    "lon": -47.85686
  },
  {
    "id": 3446295,
    "name": "Torres",
    "lat": -29.33528,
    "lon": -49.72694
  },
  {
    "id": 3401992,
    "name": "Coelho Neto",
    "lat": -4.25667,
    "lon": -43.01278
  },
  {
    "id": 6318278,
    "name": "Santa Maria de Jetibá",
    "lat": -20.02745,
    "lon": -40.74336
  },
  {
    "id": 3389622,
    "name": "Santa Helena",
    "lat": -2.23111,
    "lon": -45.3
  },
  {
    "id": 3470674,
    "name": "Barra dos Coqueiros",
    "lat": -10.90889,
    "lon": -37.03861
  },
  {
    "id": 3471683,
    "name": "Arcos",
    "lat": -20.28194,
    "lon": -45.53944
  },
  {
    "id": 3447437,
    "name": "Socorro",
    "lat": -22.59139,
    "lon": -46.52889
  },
  {
    "id": 3662155,
    "name": "Sena Madureira",
    "lat": -9.06341,
    "lon": -68.67245
  },
  {
    "id": 3401283,
    "name": "Currais Novos",
    "lat": -6.26083,
    "lon": -36.51778
  },
  {
    "id": 3401188,
    "name": "Curuçá",
    "lat": -0.72889,
    "lon": -47.84806
  },
  {
    "id": 3456240,
    "name": "Nossa Senhora da Glória",
    "lat": -10.21833,
    "lon": -37.42028
  },
  {
    "id": 3449195,
    "name": "São Fidélis",
    "lat": -21.64611,
    "lon": -41.74694
  },
  {
    "id": 3386264,
    "name": "Toritama",
    "lat": -8.00667,
    "lon": -36.05667
  },
  {
    "id": 3455152,
    "name": "Paraguaçu Paulista",
    "lat": -22.41278,
    "lon": -50.57583
  },
  {
    "id": 6317834,
    "name": "Pacajá",
    "lat": -3.83778,
    "lon": -50.6375
  },
  {
    "id": 3398112,
    "name": "Ipu",
    "lat": -4.32222,
    "lon": -40.71083
  },
  {
    "id": 3400740,
    "name": "Esperantina",
    "lat": -3.90167,
    "lon": -42.23361
  },
  {
    "id": 3448219,
    "name": "São Sebastião do Passé",
    "lat": -12.5125,
    "lon": -38.49528
  },
  {
    "id": 3455065,
    "name": "Paranaíba",
    "lat": -19.67722,
    "lon": -51.19083
  },
  {
    "id": 3449053,
    "name": "São Gotardo",
    "lat": -19.31111,
    "lon": -46.04889
  },
  {
    "id": 3387604,
    "name": "Sirinhaém",
    "lat": -8.59083,
    "lon": -35.11611
  },
  {
    "id": 6318970,
    "name": "Zé Doca",
    "lat": -3.27472,
    "lon": -45.65833
  },
  {
    "id": 3461129,
    "name": "Ipiaú",
    "lat": -14.13449,
    "lon": -39.73948
  },
  {
    "id": 3460971,
    "name": "Itabaianinha",
    "lat": -11.27389,
    "lon": -37.79
  },
  {
    "id": 3449847,
    "name": "Santa Rita do Sapucaí",
    "lat": -22.25222,
    "lon": -45.70333
  },
  {
    "id": 3391387,
    "name": "Porto de Moz",
    "lat": -1.74833,
    "lon": -52.23833
  },
  {
    "id": 3390682,
    "name": "Remanso",
    "lat": -9.62167,
    "lon": -42.08139
  },
  {
    "id": 3389462,
    "name": "Santa Maria da Boa Vista",
    "lat": -8.80778,
    "lon": -39.82556
  },
  {
    "id": 3472254,
    "name": "Andradas",
    "lat": -22.06806,
    "lon": -46.56917
  },
  {
    "id": 3665016,
    "name": "Benjamin Constant",
    "lat": -4.37555,
    "lon": -70.03179
  },
  {
    "id": 3460362,
    "name": "Jacarezinho",
    "lat": -23.16056,
    "lon": -49.96944
  },
  {
    "id": 3472520,
    "name": "Almenara",
    "lat": -16.18361,
    "lon": -40.69444
  },
  {
    "id": 3401963,
    "name": "Colinas",
    "lat": -6.02583,
    "lon": -44.24917
  },
  {
    "id": 3392629,
    "name": "Pedra Branca",
    "lat": -5.45417,
    "lon": -39.71722
  },
  {
    "id": 3389361,
    "name": "Santa Quitéria",
    "lat": -4.33194,
    "lon": -40.15667
  },
  {
    "id": 3450671,
    "name": "Salinas",
    "lat": -16.17028,
    "lon": -42.29028
  },
  {
    "id": 3445500,
    "name": "Vargem Grande do Sul",
    "lat": -21.83222,
    "lon": -46.89361
  },
  {
    "id": 3464974,
    "name": "Curitibanos",
    "lat": -27.28278,
    "lon": -50.58444
  },
  {
    "id": 3469932,
    "name": "Boa Esperança",
    "lat": -21.09,
    "lon": -45.56583
  },
  {
    "id": 3460738,
    "name": "Itapemirim",
    "lat": -21.01111,
    "lon": -40.83389
  },
  {
    "id": 3453807,
    "name": "Espírito Santo do Pinhal",
    "lat": -22.19591,
    "lon": -46.74884
  },
  {
    "id": 3467305,
    "name": "Capelinha",
    "lat": -17.69139,
    "lon": -42.51583
  },
  {
    "id": 3396496,
    "name": "Lajedo",
    "lat": -8.66361,
    "lon": -36.32
  },
  {
    "id": 6317055,
    "name": "Eldorado do Sul",
    "lat": -30.08389,
    "lon": -51.61611
  },
  {
    "id": 12432978,
    "name": "Riacho Fundo",
    "lat": -15.88378,
    "lon": -48.01634
  },
  {
    "id": 6318807,
    "name": "Tucumã",
    "lat": -6.7475,
    "lon": -51.16111
  },
  {
    "id": 3449055,
    "name": "São Gonçalo dos Campos",
    "lat": -12.43394,
    "lon": -38.95057
  },
  {
    "id": 3456102,
    "name": "Nova Viçosa",
    "lat": -17.89194,
    "lon": -39.37194
  },
  {
    "id": 3452331,
    "name": "Presidente Epitácio",
    "lat": -21.76333,
    "lon": -52.11556
  },
  {
    "id": 3460671,
    "name": "Itápolis",
    "lat": -21.59556,
    "lon": -48.81278
  },
  {
    "id": 7290718,
    "name": "Barra da Tijuca",
    "lat": -22.99835,
    "lon": -43.36545
  },
  {
    "id": 3401138,
    "name": "Custódia",
    "lat": -8.0875,
    "lon": -37.64306
  },
  {
    "id": 3925075,
    "name": "Guajará Mirim",
    "lat": -10.78356,
    "lon": -65.33552
  },
  {
    "id": 3472391,
    "name": "Amambai",
    "lat": -23.10417,
    "lon": -55.22583
  },
  {
    "id": 3461995,
    "name": "Guaíra",
    "lat": -20.31833,
    "lon": -48.31056
  },
  {
    "id": 3405339,
    "name": "Bom Jardim",
    "lat": -7.79583,
    "lon": -35.58722
  },
  {
    "id": 3455908,
    "name": "Oliveira",
    "lat": -20.69639,
    "lon": -44.82722
  },
  {
    "id": 3451124,
    "name": "Rio Negrinho",
    "lat": -26.25444,
    "lon": -49.51833
  },
  {
    "id": 3457455,
    "name": "Matinhos",
    "lat": -25.83219,
    "lon": -48.53966
  },
  {
    "id": 3405172,
    "name": "Bonito",
    "lat": -8.47028,
    "lon": -35.72861
  },
  {
    "id": 8437474,
    "name": "Teotônio Vilela",
    "lat": -9.90971,
    "lon": -36.35611
  },
  {
    "id": 3444969,
    "name": "Visconde do Rio Branco",
    "lat": -21.01028,
    "lon": -42.84056
  },
  {
    "id": 3407351,
    "name": "Araioses",
    "lat": -2.89,
    "lon": -41.90306
  },
  {
    "id": 3385469,
    "name": "Várzea Alegre",
    "lat": -6.78889,
    "lon": -39.29583
  },
  {
    "id": 3393115,
    "name": "Paracuru",
    "lat": -3.41,
    "lon": -39.03056
  },
  {
    "id": 3388145,
    "name": "São Raimundo Nonato",
    "lat": -9.01528,
    "lon": -42.69944
  },
  {
    "id": 3468894,
    "name": "Brumadinho",
    "lat": -20.14333,
    "lon": -44.19972
  },
  {
    "id": 3388318,
    "name": "São Mateus do Maranhão",
    "lat": -4.04167,
    "lon": -44.475
  },
  {
    "id": 3468327,
    "name": "Caeté",
    "lat": -19.88,
    "lon": -43.66972
  },
  {
    "id": 3449116,
    "name": "São Francisco do Conde",
    "lat": -12.6275,
    "lon": -38.68
  },
  {
    "id": 3455689,
    "name": "Ouro Branco",
    "lat": -20.52334,
    "lon": -43.69486
  },
  {
    "id": 3448903,
    "name": "São João da Barra",
    "lat": -21.64028,
    "lon": -41.05111
  },
  {
    "id": 3450063,
    "name": "Santa Maria da Vitória",
    "lat": -13.38814,
    "lon": -44.19868
  },
  {
    "id": 3406996,
    "name": "Atalaia",
    "lat": -9.50194,
    "lon": -36.02278
  },
  {
    "id": 3450206,
    "name": "Santa Helena de Goiás",
    "lat": -17.81361,
    "lon": -50.59694
  },
  {
    "id": 3390188,
    "name": "Rosário",
    "lat": -2.94047,
    "lon": -44.24898
  },
  {
    "id": 3456060,
    "name": "Novo Horizonte",
    "lat": -21.46806,
    "lon": -49.22083
  },
  {
    "id": 3455785,
    "name": "Orlândia",
    "lat": -20.72028,
    "lon": -47.88667
  },
  {
    "id": 3460513,
    "name": "Iturama",
    "lat": -19.72806,
    "lon": -50.19556
  },
  {
    "id": 3448403,
    "name": "São Pedro",
    "lat": -22.54861,
    "lon": -47.91389
  },
  {
    "id": 3664956,
    "name": "Boca do Acre",
    "lat": -8.75222,
    "lon": -67.39778
  },
  {
    "id": 3393764,
    "name": "Oeiras",
    "lat": -7.02528,
    "lon": -42.13111
  },
  {
    "id": 6318662,
    "name": "Sento Sé",
    "lat": -9.74583,
    "lon": -41.88528
  },
  {
    "id": 3464100,
    "name": "Entre Rios",
    "lat": -11.94194,
    "lon": -38.08444
  },
  {
    "id": 3456593,
    "name": "Mucuri",
    "lat": -18.08639,
    "lon": -39.55083
  },
  {
    "id": 6318826,
    "name": "Ulianópolis",
    "lat": -3.74194,
    "lon": -47.49472
  },
  {
    "id": 3924877,
    "name": "Rolim de Moura do Guaporé",
    "lat": -13.08271,
    "lon": -62.27726
  },
  {
    "id": 3392431,
    "name": "Pedro II",
    "lat": -4.42472,
    "lon": -41.45861
  },
  {
    "id": 3457484,
    "name": "Mateus Leme",
    "lat": -19.98639,
    "lon": -44.42778
  },
  {
    "id": 3450157,
    "name": "Santaluz",
    "lat": -11.25583,
    "lon": -39.37472
  },
  {
    "id": 3392345,
    "name": "Pentecoste",
    "lat": -3.79278,
    "lon": -39.27028
  },
  {
    "id": 3408269,
    "name": "Afuá",
    "lat": -0.15667,
    "lon": -50.38667
  },
  {
    "id": 3394649,
    "name": "Mombaça",
    "lat": -5.74306,
    "lon": -39.6275
  },
  {
    "id": 3473654,
    "name": "Leblon",
    "lat": -22.98444,
    "lon": -43.22315
  },
  {
    "id": 3395239,
    "name": "Massapê",
    "lat": -3.52278,
    "lon": -40.34278
  },
  {
    "id": 3458211,
    "name": "Machado",
    "lat": -21.67472,
    "lon": -45.91972
  },
  {
    "id": 3472825,
    "name": "Agudos",
    "lat": -22.46917,
    "lon": -48.9875
  },
  {
    "id": 3446539,
    "name": "Tietê",
    "lat": -23.10194,
    "lon": -47.71472
  },
  {
    "id": 6317358,
    "name": "Jaíba",
    "lat": -15.33833,
    "lon": -43.67444
  },
  {
    "id": 3459922,
    "name": "Jeremoabo",
    "lat": -10.076,
    "lon": -38.34725
  },
  {
    "id": 3457393,
    "name": "Matozinhos",
    "lat": -19.55778,
    "lon": -44.08139
  },
  {
    "id": 3453171,
    "name": "Pontal",
    "lat": -21.0225,
    "lon": -48.03722
  },
  {
    "id": 3451241,
    "name": "Rio Brilhante",
    "lat": -21.80194,
    "lon": -54.54639
  },
  {
    "id": 3460511,
    "name": "Ituverava",
    "lat": -20.33944,
    "lon": -47.78056
  },
  {
    "id": 3451242,
    "name": "Rio Branco do Sul",
    "lat": -25.19,
    "lon": -49.31417
  },
  {
    "id": 6316908,
    "name": "Confresa",
    "lat": -10.64389,
    "lon": -51.56889
  },
  {
    "id": 3460068,
    "name": "Jarinu",
    "lat": -23.10139,
    "lon": -46.72833
  },
  {
    "id": 3461824,
    "name": "Guariba",
    "lat": -21.36,
    "lon": -48.22833
  },
  {
    "id": 3385908,
    "name": "Turiaçu",
    "lat": -1.66333,
    "lon": -45.37167
  },
  {
    "id": 3467450,
    "name": "Cansanção",
    "lat": -10.66722,
    "lon": -39.49917
  },
  {
    "id": 3452956,
    "name": "Porteirinha",
    "lat": -15.74333,
    "lon": -43.02833
  },
  {
    "id": 3461147,
    "name": "Ipanema",
    "lat": -22.98436,
    "lon": -43.20285
  },
  {
    "id": 3407938,
    "name": "Aliança",
    "lat": -7.60333,
    "lon": -35.23083
  },
  {
    "id": 3397337,
    "name": "Girau do Ponciano",
    "lat": -9.88417,
    "lon": -36.82889
  },
  {
    "id": 3389673,
    "name": "Santa Cruz",
    "lat": -6.22944,
    "lon": -36.02278
  },
  {
    "id": 3448545,
    "name": "São Manuel",
    "lat": -22.73111,
    "lon": -48.57056
  },
  {
    "id": 3469425,
    "name": "Bom Jesus do Itabapoana",
    "lat": -21.13389,
    "lon": -41.67972
  },
  {
    "id": 3388925,
    "name": "São Caitano",
    "lat": -8.32583,
    "lon": -36.14278
  },
  {
    "id": 3407755,
    "name": "Amarante do Maranhão",
    "lat": -5.56667,
    "lon": -46.74222
  },
  {
    "id": 3392456,
    "name": "Pedreiras",
    "lat": -4.56889,
    "lon": -44.59194
  },
  {
    "id": 3389445,
    "name": "Santa Rita",
    "lat": -3.13901,
    "lon": -44.32519
  },
  {
    "id": 3464547,
    "name": "Dom Pedrito",
    "lat": -30.98278,
    "lon": -54.67306
  },
  {
    "id": 3467677,
    "name": "Campos Novos",
    "lat": -27.40167,
    "lon": -51.225
  },
  {
    "id": 3466723,
    "name": "Castelo",
    "lat": -20.60361,
    "lon": -41.18472
  },
  {
    "id": 3447969,
    "name": "Sarzedo",
    "lat": -20.03528,
    "lon": -44.14472
  },
  {
    "id": 3394755,
    "name": "Missão Velha",
    "lat": -7.24972,
    "lon": -39.14306
  },
  {
    "id": 6316450,
    "name": "Assis Chateaubriand",
    "lat": -24.42,
    "lon": -53.52139
  },
  {
    "id": 3398077,
    "name": "Ipueiras",
    "lat": -4.54167,
    "lon": -40.71889
  },
  {
    "id": 3458049,
    "name": "Mandaguari",
    "lat": -23.52098,
    "lon": -51.68179
  },
  {
    "id": 3459667,
    "name": "José Bonifácio",
    "lat": -21.05278,
    "lon": -49.68833
  },
  {
    "id": 3450873,
    "name": "Rosário do Sul",
    "lat": -30.25833,
    "lon": -54.91417
  },
  {
    "id": 3386889,
    "name": "Itambé",
    "lat": -7.41028,
    "lon": -35.11278
  },
  {
    "id": 3470747,
    "name": "Barra do Choça",
    "lat": -14.88111,
    "lon": -40.57944
  },
  {
    "id": 3472370,
    "name": "Amargosa",
    "lat": -13.03028,
    "lon": -39.60472
  },
  {
    "id": 3392126,
    "name": "Pilar",
    "lat": -9.59722,
    "lon": -35.95667
  },
  {
    "id": 3461134,
    "name": "Iperó",
    "lat": -23.35028,
    "lon": -47.68861
  },
  {
    "id": 3385922,
    "name": "Tuntum",
    "lat": -5.25806,
    "lon": -44.64889
  },
  {
    "id": 3405429,
    "name": "Bodocó",
    "lat": -7.77833,
    "lon": -39.94111
  },
  {
    "id": 3407440,
    "name": "Apodi",
    "lat": -5.66417,
    "lon": -37.79889
  },
  {
    "id": 3453439,
    "name": "Piumhi",
    "lat": -20.46528,
    "lon": -45.95806
  },
  {
    "id": 12432990,
    "name": "Setor Complementar de Indústria e Abastecimento",
    "lat": -15.78218,
    "lon": -47.98819
  },
  {
    "id": 3411913,
    "name": "Colinas do Tocantins",
    "lat": -8.05917,
    "lon": -48.475
  },
  {
    "id": 3445433,
    "name": "Vassouras",
    "lat": -22.40389,
    "lon": -43.6625
  },
  {
    "id": 6317397,
    "name": "Juara",
    "lat": -11.255,
    "lon": -57.51972
  },
  {
    "id": 7874216,
    "name": "Santa Teresa",
    "lat": -22.91769,
    "lon": -43.18812
  },
  {
    "id": 3457850,
    "name": "Maragogipe",
    "lat": -12.77778,
    "lon": -38.91944
  },
  {
    "id": 3398350,
    "name": "Igarapé-Açu",
    "lat": -1.12889,
    "lon": -47.62
  },
  {
    "id": 6318194,
    "name": "Rurópolis",
    "lat": -4.09556,
    "lon": -54.91028
  },
  {
    "id": 3460629,
    "name": "Itaqui",
    "lat": -29.12528,
    "lon": -56.55306
  },
  {
    "id": 3461090,
    "name": "Iporá",
    "lat": -16.44194,
    "lon": -51.11778
  },
  {
    "id": 3462371,
    "name": "Goiatuba",
    "lat": -18.0125,
    "lon": -49.35472
  },
  {
    "id": 3473157,
    "name": "Adamantina",
    "lat": -21.68528,
    "lon": -51.0725
  },
  {
    "id": 3461425,
    "name": "Ilhabela",
    "lat": -23.77806,
    "lon": -45.35806
  },
  {
    "id": 3391287,
    "name": "Prainha",
    "lat": -1.8,
    "lon": -53.48
  },
  {
    "id": 3664321,
    "name": "Eirunepé",
    "lat": -6.66028,
    "lon": -69.87361
  },
  {
    "id": 3664243,
    "name": "Feijó",
    "lat": -8.1654,
    "lon": -70.35486
  },
  {
    "id": 3464556,
    "name": "Domingos Martins",
    "lat": -20.36333,
    "lon": -40.65917
  },
  {
    "id": 3451071,
    "name": "Rio Real",
    "lat": -11.48472,
    "lon": -37.93278
  },
  {
    "id": 3461511,
    "name": "Pilão Arcado",
    "lat": -10.00053,
    "lon": -42.47975
  },
  {
    "id": 3465758,
    "name": "Conceição do Jacuípe",
    "lat": -12.31667,
    "lon": -38.76667
  },
  {
    "id": 3405954,
    "name": "Baturité",
    "lat": -4.32861,
    "lon": -38.88472
  },
  {
    "id": 3452320,
    "name": "Presidente Venceslau",
    "lat": -21.87611,
    "lon": -51.84389
  },
  {
    "id": 3662252,
    "name": "São Paulo de Olivença",
    "lat": -3.37833,
    "lon": -68.8725
  },
  {
    "id": 3460214,
    "name": "Jaguariaíva",
    "lat": -24.24423,
    "lon": -49.70932
  },
  {
    "id": 3452237,
    "name": "Promissão",
    "lat": -21.53667,
    "lon": -49.85806
  },
  {
    "id": 6317461,
    "name": "Laranjal do Jari",
    "lat": -0.826,
    "lon": -52.506
  },
  {
    "id": 3924908,
    "name": "Pimenta Bueno",
    "lat": -11.6725,
    "lon": -61.19361
  },
  {
    "id": 3924948,
    "name": "Ouro Preto do Oeste",
    "lat": -10.74806,
    "lon": -62.21583
  },
  {
    "id": 3456398,
    "name": "Nanuque",
    "lat": -17.83917,
    "lon": -40.35389
  },
  {
    "id": 3466261,
    "name": "Charqueadas",
    "lat": -29.95472,
    "lon": -51.62528
  },
  {
    "id": 3455298,
    "name": "Palotina",
    "lat": -24.28389,
    "lon": -53.84
  },
  {
    "id": 3452483,
    "name": "Prado",
    "lat": -17.34111,
    "lon": -39.22083
  },
  {
    "id": 3455580,
    "name": "Padre Bernardo",
    "lat": -15.16538,
    "lon": -48.28416
  },
  {
    "id": 3456285,
    "name": "Niquelândia",
    "lat": -14.47389,
    "lon": -48.45972
  },
  {
    "id": 3452599,
    "name": "Posse",
    "lat": -14.09306,
    "lon": -46.36944
  },
  {
    "id": 3405051,
    "name": "Borba",
    "lat": -4.39143,
    "lon": -59.58864
  },
  {
    "id": 3388440,
    "name": "São José do Belmonte",
    "lat": -7.86139,
    "lon": -38.75972
  },
  {
    "id": 3450232,
    "name": "Santa Fé do Sul",
    "lat": -20.21111,
    "lon": -50.92583
  },
  {
    "id": 3448552,
    "name": "São Luiz Gonzaga",
    "lat": -28.40833,
    "lon": -54.96083
  },
  {
    "id": 3451102,
    "name": "Rio Pardo",
    "lat": -29.98972,
    "lon": -52.37806
  },
  {
    "id": 3470164,
    "name": "Bela Vista de Goiás",
    "lat": -16.97278,
    "lon": -48.95333
  },
  {
    "id": 3460665,
    "name": "Itaporanga d'Ajuda",
    "lat": -10.99806,
    "lon": -37.31056
  },
  {
    "id": 6317503,
    "name": "Mãe do Rio",
    "lat": -2.04639,
    "lon": -47.55056
  },
  {
    "id": 3448824,
    "name": "São Joaquim de Bicas",
    "lat": -20.04917,
    "lon": -44.27389
  },
  {
    "id": 3470776,
    "name": "Barra Bonita",
    "lat": -22.49472,
    "lon": -48.55806
  },
  {
    "id": 3462557,
    "name": "Garibaldi",
    "lat": -29.25611,
    "lon": -51.53361
  },
  {
    "id": 3471846,
    "name": "Araçuaí",
    "lat": -16.84972,
    "lon": -42.07028
  },
  {
    "id": 3453245,
    "name": "Pomerode",
    "lat": -26.74056,
    "lon": -49.17694
  },
  {
    "id": 3407903,
    "name": "Almeirim",
    "lat": -1.52333,
    "lon": -52.58167
  },
  {
    "id": 3393876,
    "name": "Nova Cruz",
    "lat": -6.47806,
    "lon": -35.43389
  },
  {
    "id": 13454596,
    "name": "Serra do Ramalho",
    "lat": -13.54232,
    "lon": -43.57968
  },
  {
    "id": 3401331,
    "name": "Curaçá",
    "lat": -8.99028,
    "lon": -39.90944
  },
  {
    "id": 6317937,
    "name": "Petrolândia",
    "lat": -8.97917,
    "lon": -38.21944
  },
  {
    "id": 3404889,
    "name": "Brejo",
    "lat": -3.68444,
    "lon": -42.75028
  },
  {
    "id": 3452982,
    "name": "Portão",
    "lat": -29.70167,
    "lon": -51.24194
  },
  {
    "id": 3388868,
    "name": "São Domingos do Maranhão",
    "lat": -5.57583,
    "lon": -44.38528
  },
  {
    "id": 3401263,
    "name": "Curralinho",
    "lat": -1.81361,
    "lon": -49.79528
  },
  {
    "id": 3460548,
    "name": "Itiúba",
    "lat": -10.69167,
    "lon": -39.85361
  },
  {
    "id": 3455425,
    "name": "Palmeira",
    "lat": -25.42944,
    "lon": -50.00639
  },
  {
    "id": 3448558,
    "name": "São Luís de Montes Belos",
    "lat": -16.525,
    "lon": -50.37222
  },
  {
    "id": 3393762,
    "name": "Oeiras do Pará",
    "lat": -2.00306,
    "lon": -49.85444
  },
  {
    "id": 3461224,
    "name": "Inhambupe",
    "lat": -11.78444,
    "lon": -38.35306
  },
  {
    "id": 3469115,
    "name": "Braço do Norte",
    "lat": -28.275,
    "lon": -49.16556
  },
  {
    "id": 3472338,
    "name": "Américo Brasiliense",
    "lat": -21.72444,
    "lon": -48.10167
  },
  {
    "id": 3445459,
    "name": "Várzea da Palma",
    "lat": -17.5976,
    "lon": -44.73367
  },
  {
    "id": 3397675,
    "name": "Jaguaribe",
    "lat": -5.89056,
    "lon": -38.62194
  },
  {
    "id": 3397983,
    "name": "Itaíba",
    "lat": -8.9475,
    "lon": -37.42278
  },
  {
    "id": 3453467,
    "name": "Pitangueiras",
    "lat": -21.00944,
    "lon": -48.22167
  },
  {
    "id": 3454213,
    "name": "Penha",
    "lat": -26.76944,
    "lon": -48.64583
  },
  {
    "id": 3471849,
    "name": "Araçoiaba da Serra",
    "lat": -23.50528,
    "lon": -47.61417
  },
  {
    "id": 6317800,
    "name": "Novo Progresso",
    "lat": -7.14778,
    "lon": -55.38111
  },
  {
    "id": 6317924,
    "name": "Peixoto de Azevedo",
    "lat": -10.22306,
    "lon": -54.97972
  },
  {
    "id": 3456696,
    "name": "Morro do Chapéu",
    "lat": -11.54852,
    "lon": -41.15804
  },
  {
    "id": 3468535,
    "name": "Cachoeira",
    "lat": -12.60139,
    "lon": -38.96576
  },
  {
    "id": 3453478,
    "name": "Pitanga",
    "lat": -24.75722,
    "lon": -51.76139
  },
  {
    "id": 3390326,
    "name": "Ribeirão",
    "lat": -8.51444,
    "lon": -35.37778
  },
  {
    "id": 6317166,
    "name": "Fraiburgo",
    "lat": -27.02611,
    "lon": -50.92139
  },
  {
    "id": 3391609,
    "name": "Poço Redondo",
    "lat": -9.805,
    "lon": -37.68444
  },
  {
    "id": 3406202,
    "name": "Barreirinha",
    "lat": -2.79333,
    "lon": -57.07
  },
  {
    "id": 3400541,
    "name": "Exu",
    "lat": -7.51194,
    "lon": -39.72417
  },
  {
    "id": 3451474,
    "name": "Riachão do Jacuípe",
    "lat": -11.80694,
    "lon": -39.38556
  },
  {
    "id": 3393051,
    "name": "Estreito",
    "lat": -6.55573,
    "lon": -47.44149
  },
  {
    "id": 3397315,
    "name": "João Câmara",
    "lat": -5.5375,
    "lon": -35.81972
  },
  {
    "id": 3465209,
    "name": "Cravinhos",
    "lat": -21.34028,
    "lon": -47.72944
  },
  {
    "id": 3402528,
    "name": "Catende",
    "lat": -8.66667,
    "lon": -35.71667
  },
  {
    "id": 3467272,
    "name": "Capim Grosso",
    "lat": -11.38111,
    "lon": -40.01278
  },
  {
    "id": 3395458,
    "name": "Maragogi",
    "lat": -9.01222,
    "lon": -35.2225
  },
  {
    "id": 3471949,
    "name": "Aparecida",
    "lat": -22.84694,
    "lon": -45.22972
  },
  {
    "id": 3455416,
    "name": "Palmeira das Missões",
    "lat": -27.89944,
    "lon": -53.31361
  },
  {
    "id": 3407353,
    "name": "Araguatins",
    "lat": -5.65084,
    "lon": -48.11119
  },
  {
    "id": 12958682,
    "name": "Bom Jardim",
    "lat": -3.54281,
    "lon": -45.60852
  },
  {
    "id": 3447059,
    "name": "Taiobeiras",
    "lat": -15.80778,
    "lon": -42.23306
  },
  {
    "id": 3386213,
    "name": "Touros",
    "lat": -5.19889,
    "lon": -35.46083
  },
  {
    "id": 3736812,
    "name": "Presidente Figueiredo",
    "lat": -2.03444,
    "lon": -60.025
  },
  {
    "id": 3452623,
    "name": "Porto União",
    "lat": -26.23806,
    "lon": -51.07833
  },
  {
    "id": 3460825,
    "name": "Itamarandiba",
    "lat": -17.85722,
    "lon": -42.85889
  },
  {
    "id": 3472969,
    "name": "Aguaí",
    "lat": -22.05944,
    "lon": -46.97861
  },
  {
    "id": 3446974,
    "name": "Tanguá",
    "lat": -22.73028,
    "lon": -42.71417
  },