[
  {
    "id": 625144,
    "name": "Minsk",
    "lat": 53.90019,
    "lng": 27.56653
  },
  {
    "id": 627907,
    "name": "Homyel'",
    "lat": 52.4345,
    "lng": 30.9754
  },
  {
    "id": 627904,
    "name": "Hrodna",
    "lat": 53.6758,
    "lng": 23.82887
  },
  {
    "id": 620127,
    "name": "Vitebsk",
    "lat": 55.1904,
    "lng": 30.2049
  },
  {
    "id": 625665,
    "name": "Mahilyow",
    "lat": 53.90876,
    "lng": 30.34044
  },
  {
    "id": 629634,
    "name": "Brest",
    "lat": 52.10894,
    "lng": 23.71749
  },
  {
    "id": 630468,
    "name": "Bobruysk",
    "lat": 53.14636,
    "lng": 29.20552
  },
  {
    "id": 630429,
    "name": "Baranovichi",
    "lat": 53.13253,
    "lng": 26.00774
  },
  {
    "id": 630376,
    "name": "Barysaw",
    "lat": 54.2279,
    "lng": 28.505
  },
  {
    "id": 623549,
    "name": "Pinsk",
    "lat": 52.12153,
    "lng": 26.06726
  },
  {
    "id": 625324,
    "name": "Mazyr",
    "lat": 52.04162,
    "lng": 29.21631
  },
  {
    "id": 626081,
    "name": "Lida",
    "lat": 53.88333,
    "lng": 25.29972
  },
  {
    "id": 624079,
    "name": "Orsha",
    "lat": 54.51362,
    "lng": 30.40365
  },
  {
    "id": 622428,
    "name": "Soligorsk",
    "lat": 52.78981,
    "lng": 27.53583
  },
  {
    "id": 624784,
    "name": "Novopolotsk",
    "lat": 55.52618,
    "lng": 28.59308
  },
  {
    "id": 625625,
    "name": "Maladziečna",
    "lat": 54.3167,
    "lng": 26.854
  },
  {
    "id": 623317,
    "name": "Polotsk",
    "lat": 55.4879,
    "lng": 28.7856
  },
  {
    "id": 618806,
    "name": "Zhlobin",
    "lat": 52.8926,
    "lng": 30.024
  },
  {
    "id": 622794,
    "name": "Rechytsa",
    "lat": 52.3617,
    "lng": 30.3916
  },
  {
    "id": 618800,
    "name": "Horad Zhodzina",
    "lat": 54.0985,
    "lng": 28.3331
  },
  {
    "id": 621074,
    "name": "Svetlogorsk",
    "lat": 52.6329,
    "lng": 29.7389
  },
  {
    "id": 621741,
    "name": "Slutsk",
    "lat": 53.01522,
    "lng": 27.54159
  },
  {
    "id": 627145,
    "name": "Kobryn",
    "lat": 52.21173,
    "lng": 24.3563
  },
  {
    "id": 621754,
    "name": "Slonim",
    "lat": 53.08751,
    "lng": 25.31707
  },
  {
    "id": 620391,
    "name": "Volkovysk",
    "lat": 53.1561,
    "lng": 24.4513
  },
  {
    "id": 627751,
    "name": "Kalinkovichi",
    "lat": 52.1323,
    "lng": 29.3257
  },
  {
    "id": 621713,
    "name": "Smarhoń",
    "lat": 54.4798,
    "lng": 26.3957
  },
  {
    "id": 622739,
    "name": "Rahachow",
    "lat": 53.09255,
    "lng": 30.04862
  },
  {
    "id": 628634,
    "name": "Dzyarzhynsk",
    "lat": 53.68477,
    "lng": 27.13171
  },
  {
    "id": 624034,
    "name": "Osipovichi",
    "lat": 53.30588,
    "lng": 28.62872
  },
  {
    "id": 627905,
    "name": "Horki",
    "lat": 54.28606,
    "lng": 30.98604
  },
  {
    "id": 629454,
    "name": "Byaroza",
    "lat": 52.53129,
    "lng": 24.9782
  },
  {
    "id": 624785,
    "name": "Novogrudok",
    "lat": 53.5942,
    "lng": 25.8191
  },
  {
    "id": 620181,
    "name": "Vileyka",
    "lat": 54.4914,
    "lng": 26.9111
  },
  {
    "id": 625818,
    "name": "Luninyets",
    "lat": 52.24864,
    "lng": 26.80061
  },
  {
    "id": 626450,
    "name": "Krychaw",
    "lat": 53.71924,
    "lng": 31.71356
  },
  {
    "id": 621729,
    "name": "Smaliavičy",
    "lat": 54.0249,
    "lng": 28.0894
  },
  {
    "id": 627800,
    "name": "Ivatsevichi",
    "lat": 52.70793,
    "lng": 25.33509
  },
  {
    "id": 625409,
    "name": "Mar’ina Gorka",
    "lat": 53.509,
    "lng": 28.147
  },
  {
    "id": 622997,
    "name": "Pruzhany",
    "lat": 52.55464,
    "lng": 24.45483
  },
  {
    "id": 623760,
    "name": "Pastavy",
    "lat": 55.11676,
    "lng": 26.83263
  },
  {
    "id": 6846555,
    "name": "Fanipol",
    "lat": 53.74998,
    "lng": 27.33338
  },
  {
    "id": 629018,
    "name": "Dobrush",
    "lat": 52.41471,
    "lng": 31.31429
  },
  {
    "id": 627908,
    "name": "Hlybokaye",
    "lat": 55.13933,
    "lng": 27.69143
  },
  {
    "id": 621266,
    "name": "Stowbtsy",
    "lat": 53.47994,
    "lng": 26.7351
  },
  {
    "id": 619066,
    "name": "Zaslawye",
    "lat": 54.0114,
    "lng": 27.2695
  },
  {
    "id": 625743,
    "name": "Lyepyel’",
    "lat": 54.8814,
    "lng": 28.699
  },
  {
    "id": 627083,
    "name": "Kalodzishchy",
    "lat": 53.944,
    "lng": 27.7823
  },
  {
    "id": 630515,
    "name": "Oshmyany",
    "lat": 54.41815,
    "lng": 25.93734
  },
  {
    "id": 629447,
    "name": "Bykhov",
    "lat": 53.52131,
    "lng": 30.23078
  },
  {
    "id": 627811,
    "name": "Ivanovo",
    "lat": 52.14724,
    "lng": 25.53198
  },
  {
    "id": 624700,
    "name": "Nesvizh",
    "lat": 53.22186,
    "lng": 26.67679
  },
  {
    "id": 618815,
    "name": "Žytkavičy",
    "lat": 52.2168,
    "lng": 27.8561
  },
  {
    "id": 625972,
    "name": "Logoysk",
    "lat": 54.2064,
    "lng": 27.8512
  },
  {
    "id": 622113,
    "name": "Shchuchyn",
    "lat": 53.6014,
    "lng": 24.7465
  },
  {
    "id": 623941,
    "name": "Astraviec",
    "lat": 54.61378,
    "lng": 25.95537
  },
  {
    "id": 627202,
    "name": "Klimovichi",
    "lat": 53.60492,
    "lng": 31.95632
  },
  {
    "id": 8247407,
    "name": "Lyasny",
    "lat": 54.0072,
    "lng": 27.6963
  },
  {
    "id": 626808,
    "name": "Kostyukovichi",
    "lat": 53.35488,
    "lng": 32.05128
  },
  {
    "id": 622034,
    "name": "Shklov",
    "lat": 54.21298,
    "lng": 30.28724
  },
  {
    "id": 628884,
    "name": "Drogichin",
    "lat": 52.1874,
    "lng": 25.1597
  },
  {
    "id": 625367,
    "name": "Mosty",
    "lat": 53.4122,
    "lng": 24.5387
  },
  {
    "id": 618913,
    "name": "Zhabinka",
    "lat": 52.19857,
    "lng": 24.01064
  },
  {
    "id": 621277,
    "name": "Stolin",
    "lat": 51.89115,
    "lng": 26.84597
  },
  {
    "id": 627909,
    "name": "Hantsavichy",
    "lat": 52.75786,
    "lng": 26.4309
  },
  {
    "id": 627362,
    "name": "Khoyniki",
    "lat": 51.90773,
    "lng": 29.98258
  },
  {
    "id": 625539,
    "name": "Malorita",
    "lat": 51.79467,
    "lng": 24.07461
  },
  {
    "id": 625228,
    "name": "Mikashevichy",
    "lat": 52.2173,
    "lng": 27.476
  },
  {
    "id": 624494,
    "name": "Novolukoml’",
    "lat": 54.66192,
    "lng": 29.15016
  },
  {
    "id": 630166,
    "name": "Byarozawka",
    "lat": 53.72406,
    "lng": 25.49709
  },
  {
    "id": 628155,
    "name": "Gorodok",
    "lat": 55.4624,
    "lng": 29.98451
  },
  {
    "id": 630197,
    "name": "Bierazino",
    "lat": 53.8391,
    "lng": 28.9879
  },
  {
    "id": 625721,
    "name": "Lyuban’",
    "lat": 52.7985,
    "lng": 28.0048
  },
  {
    "id": 627214,
    "name": "Kletsk",
    "lat": 53.0635,
    "lng": 26.6321
  },
  {
    "id": 630279,
    "name": "Byelaazyorsk",
    "lat": 52.4731,
    "lng": 25.1784
  },
  {
    "id": 621396,
    "name": "Staryye Dorogi",
    "lat": 53.0402,
    "lng": 28.267
  },
  {
    "id": 620483,
    "name": "Uzda",
    "lat": 53.4627,
    "lng": 27.2137
  },
  {
    "id": 625772,
    "name": "Lyakhovichi",
    "lat": 53.03931,
    "lng": 26.26314
  },
  {
    "id": 625671,
    "name": "Machulishchy",
    "lat": 53.7788,
    "lng": 27.5948
  },
  {
    "id": 626806,
    "name": "Kastsyukowka",
    "lat": 52.5387,
    "lng": 30.9173
  },
  {
    "id": 629273,
    "name": "Červień",
    "lat": 53.7059,
    "lng": 28.4313
  },
  {
    "id": 623581,
    "name": "Petrikov",
    "lat": 52.1299,
    "lng": 28.49625
  },
  {
    "id": 630431,
    "name": "Baran’",
    "lat": 54.47737,
    "lng": 30.30936
  },
  {
    "id": 624889,
    "name": "Mscislau",
    "lat": 54.0185,
    "lng": 31.7217
  },
  {
    "id": 620445,
    "name": "Volozhin",
    "lat": 54.08911,
    "lng": 26.52731
  },
  {
    "id": 626956,
    "name": "Kopyl’",
    "lat": 53.1516,
    "lng": 27.0913
  },
  {
    "id": 629395,
    "name": "Chausy",
    "lat": 53.80737,
    "lng": 30.96584
  },
  {
    "id": 611866,
    "name": "Skidel’",
    "lat": 53.5904,
    "lng": 24.2478
  },
  {
    "id": 630245,
    "name": "Belynichi",
    "lat": 53.9952,
    "lng": 29.7091
  },
  {
    "id": 620833,
    "name": "Tolochin",
    "lat": 54.40988,
    "lng": 29.69348
  },
  {
    "id": 629640,
    "name": "Braslav",
    "lat": 55.64387,
    "lng": 27.05715
  },
  {
    "id": 8020004,
    "name": "Druzhny",
    "lat": 53.6238,
    "lng": 27.8977
  },
  {
    "id": 629390,
    "name": "Chachersk",
    "lat": 52.9164,
    "lng": 30.9179
  },
  {
    "id": 619598,
    "name": "Yel’sk",
    "lat": 51.81358,
    "lng": 29.15444
  },
  {
    "id": 620214,
    "name": "Vyetka",
    "lat": 52.55428,
    "lng": 31.18067
  },
  {
    "id": 629564,
    "name": "Buda-Kashalyova",
    "lat": 52.71725,
    "lng": 30.5679
  },
  {
    "id": 626471,
    "name": "Krupki",
    "lat": 54.3178,
    "lng": 29.1374
  },
  {
    "id": 624799,
    "name": "Narovlya",
    "lat": 51.79724,
    "lng": 29.49784
  },
  {
    "id": 627711,
    "name": "Kamenets",
    "lat": 52.40013,
    "lng": 23.81
  },
  {
    "id": 628511,
    "name": "Hatava",
    "lat": 53.7829,
    "lng": 27.6407
  },
  {
    "id": 627272,
    "name": "Kirovsk",
    "lat": 53.27003,
    "lng": 29.47064
  },
  {
    "id": 625130,
    "name": "Miory",
    "lat": 55.6222,
    "lng": 27.6281
  },
  {
    "id": 629347,
    "name": "Cherikov",
    "lat": 53.56855,
    "lng": 31.38467
  },
  {
    "id": 628387,
    "name": "Glusk",
    "lat": 52.90197,
    "lng": 28.68308
  },
  {
    "id": 623512,
    "name": "Plyeshchanitsy",
    "lat": 54.4235,
    "lng": 27.8301
  },
  {
    "id": 621838,
    "name": "Slawharad",
    "lat": 53.44312,
    "lng": 31.00025
  },
  {
    "id": 628658,
    "name": "Dyatlovo",
    "lat": 53.46215,
    "lng": 25.40757
  },
  {
    "id": 629400,
    "name": "Chashniki",
    "lat": 54.85096,
    "lng": 29.16645
  },
  {
    "id": 620255,
    "name": "Verkhnedvinsk",
    "lat": 55.77655,
    "lng": 27.93657
  },
  {
    "id": 627205,
    "name": "Kličaŭ",
    "lat": 53.4923,
    "lng": 29.3356
  },
  {
    "id": 626621,
    "name": "Krasnosel’skiy",
    "lat": 53.26494,
    "lng": 24.42398
  },
  {
    "id": 626491,
    "name": "Krugloye",
    "lat": 54.2531,
    "lng": 29.79567
  },
  {
    "id": 621986,
    "name": "Shumilino",
    "lat": 55.29841,
    "lng": 29.61279
  },
  {
    "id": 624199,
    "name": "Aktsyabrski",
    "lat": 52.64844,
    "lng": 28.87993
  },
  {
    "id": 622258,
    "name": "Senno",
    "lat": 54.81175,
    "lng": 29.70061
  },
  {
    "id": 627793,
    "name": "Iwye",
    "lat": 53.93173,
    "lng": 25.7763
  },
  {
    "id": 620146,
    "name": "Vishnyeva",
    "lat": 54.7102,
    "lng": 26.5228
  },
  {
    "id": 618932,
    "name": "Zel’va",
    "lat": 53.14931,
    "lng": 24.81201
  },
  {
    "id": 624861,
    "name": "Myadzyel",
    "lat": 54.87894,
    "lng": 26.93619
  },
  {
    "id": 628758,
    "name": "Dubrowna",
    "lat": 54.57187,
    "lng": 30.69117
  },
  {
    "id": 630136,
    "name": "Beshenkovichi",
    "lat": 55.04335,
    "lng": 29.45738
  },
  {
    "id": 629002,
    "name": "Dokshytsy",
    "lat": 54.89097,
    "lng": 27.76654
  },
  {
    "id": 626064,
    "name": "Liozno",
    "lat": 55.0199,
    "lng": 30.7969
  },
  {
    "id": 625931,
    "name": "Loshnitsa",
    "lat": 54.2796,
    "lng": 28.7649
  },
  {
    "id": 622849,
    "name": "Rakaw",
    "lat": 53.9674,
    "lng": 27.0562
  },
  {
    "id": 622877,
    "name": "Radaškovičy",
    "lat": 54.1554,
    "lng": 27.2412
  },
  {
    "id": 622700,
    "name": "Ross’",
    "lat": 53.28411,
    "lng": 24.40721
  },
  {
    "id": 626625,
    "name": "Krasnapollye",
    "lat": 53.33578,
    "lng": 31.40065
  },
  {
    "id": 625907,
    "name": "Loyev",
    "lat": 51.94115,
    "lng": 30.79343
  },
  {
    "id": 621048,
    "name": "Svislach",
    "lat": 53.03431,
    "lng": 24.09717
  },
  {
    "id": 622179,
    "name": "Sharkovshchina",
    "lat": 55.36807,
    "lng": 27.46971
  },
  {
    "id": 621462,
    "name": "Starobin",
    "lat": 52.7267,
    "lng": 27.4606
  },
  {
    "id": 620540,
    "name": "Ushachi",
    "lat": 55.17611,
    "lng": 28.61949
  },
  {
    "id": 629986,
    "name": "Vyalikaya Byerastavitsa",
    "lat": 53.19563,
    "lng": 24.01992
  },
  {
    "id": 626939,
    "name": "Korelichi",
    "lat": 53.5648,
    "lng": 26.1406
  },
  {
    "id": 629159,
    "name": "Davyd-Haradok",
    "lat": 52.0566,
    "lng": 27.2161
  },
  {
    "id": 619979,
    "name": "Voronovo",
    "lat": 54.15387,
    "lng": 25.31226
  },
  {
    "id": 622690,
    "name": "Rossony",
    "lat": 55.90603,
    "lng": 28.81332
  },
  {
    "id": 8247399,
    "name": "Chyst’",
    "lat": 54.2698,
    "lng": 27.1067
  },
  {
    "id": 621732,
    "name": "Smilavičy",
    "lat": 53.7496,
    "lng": 28.0115
  },
  {
    "id": 8247183,
    "name": "Borovlyany",
    "lat": 54.0022,
    "lng": 27.6754
  },
  {
    "id": 628317,
    "name": "Hal’shany",
    "lat": 54.2585,
    "lng": 26.0144
  },
  {
    "id": 622274,
    "name": "Syenitsa",
    "lat": 53.8313,
    "lng": 27.5343
  },
  {
    "id": 618883,
    "name": "Zhdanovichy",
    "lat": 53.9432,
    "lng": 27.425
  },
  {
    "id": 8285492,
    "name": "Michanovichi",
    "lat": 53.73937,
    "lng": 27.69276
  },
  {
    "id": 626660,
    "name": "Chyrvonaya Slabada",
    "lat": 52.8522,
    "lng": 27.1698
  },
  {
    "id": 629646,
    "name": "Bragin",
    "lat": 51.79067,
    "lng": 30.26709
  },
  {
    "id": 619818,
    "name": "Vysokaye",
    "lat": 52.37091,
    "lng": 23.37083
  },
  {
    "id": 627123,
    "name": "Kokhanovo",
    "lat": 54.46061,
    "lng": 29.99935
  },
  {
    "id": 627798,
    "name": "Ivyanyets",
    "lat": 53.8864,
    "lng": 26.7432
  },
  {
    "id": 8020001,
    "name": "Svislach",
    "lat": 53.6404,
    "lng": 27.9199
  },
  {
    "id": 624908,
    "name": "Motal’",
    "lat": 52.3138,
    "lng": 25.6072
  },
  {
    "id": 629471,
    "name": "Buynichy",
    "lat": 53.8536,
    "lng": 30.2671
  },
  {
    "id": 626992,
    "name": "Konstantinovo",
    "lat": 54.66036,
    "lng": 29.2676
  },
  {
    "id": 620945,
    "name": "Tsyelyakhany",
    "lat": 52.5175,
    "lng": 25.8429
  },
  {
    "id": 628182,
    "name": "Haradzyeya",
    "lat": 53.3121,
    "lng": 26.538
  },
  {
    "id": 793279,
    "name": "Bolbasovo",
    "lat": 54.4168,
    "lng": 30.28839
  },
  {
    "id": 8247409,
    "name": "Bal’shavik",
    "lat": 54.0036,
    "lng": 27.5669
  },
  {
    "id": 624805,
    "name": "Narach",
    "lat": 54.5652,
    "lng": 26.7314
  },
  {
    "id": 624804,
    "name": "Narach",
    "lat": 54.9102,
    "lng": 26.708
  },
  {
    "id": 620558,
    "name": "Urechcha",
    "lat": 52.9479,
    "lng": 27.893
  },
  {
    "id": 620425,
    "name": "Vasilyevichy",
    "lat": 52.2512,
    "lng": 29.8288
  },
  {
    "id": 626548,
    "name": "Kreva",
    "lat": 54.3118,
    "lng": 26.2916
  },
  {
    "id": 620676,
    "name": "Turaŭ",
    "lat": 52.0683,
    "lng": 27.735
  },
  {
    "id": 8019803,
    "name": "Yubilyeyny",
    "lat": 53.8191,
    "lng": 27.5215
  },
  {
    "id": 628865,
    "name": "Drybin",
    "lat": 54.12063,
    "lng": 31.09037
  },
  {
    "id": 626610,
    "name": "Krasnaye",
    "lat": 54.2438,
    "lng": 27.0758
  },
  {
    "id": 623129,
    "name": "Prawdzinski",
    "lat": 53.5248,
    "lng": 27.8303
  },
  {
    "id": 622614,
    "name": "Rudzyensk",
    "lat": 53.5983,
    "lng": 27.8621
  },
  {
    "id": 626266,
    "name": "Lahishyn",
    "lat": 52.339,
    "lng": 25.9867
  },
  {
    "id": 622971,
    "name": "Puchavičy",
    "lat": 53.5297,
    "lng": 28.2467
  },
  {
    "id": 622500,
    "name": "Ruzhany",
    "lat": 52.86322,
    "lng": 24.89357
  },
  {
    "id": 628175,
    "name": "Haradzishcha",
    "lat": 53.3247,
    "lng": 26.0107
  },
  {
    "id": 621700,
    "name": "Snow",
    "lat": 53.2201,
    "lng": 26.401
  },
  {
    "id": 619616,
    "name": "Yalizava",
    "lat": 53.3994,
    "lng": 29.0048
  },
  {
    "id": 629697,
    "name": "Baruny",
    "lat": 54.3171,
    "lng": 26.1376
  },
  {
    "id": 622420,
    "name": "Samakhvalavichy",
    "lat": 53.7396,
    "lng": 27.5037
  },
  {
    "id": 621605,
    "name": "Sasnovy Bor",
    "lat": 52.5194,
    "lng": 29.5988
  },
  {
    "id": 619217,
    "name": "Zamostochye",
    "lat": 53.8198,
    "lng": 27.8685
  },
  {
    "id": 630343,
    "name": "Byahoml’",
    "lat": 54.7316,
    "lng": 28.0577
  },
  {
    "id": 8019924,
    "name": "Enyerhyetykaw",
    "lat": 53.5871,
    "lng": 27.0535
  },
  {
    "id": 623956,
    "name": "Astrashytski Haradok",
    "lat": 54.0651,
    "lng": 27.695
  },
  {
    "id": 629338,
    "name": "Charnawchytsy",
    "lat": 52.21948,
    "lng": 23.74043
  },
  {
    "id": 626598,
    "name": "Krasnyy Bereg",
    "lat": 53.3291,
    "lng": 30.1929
  },
  {
    "id": 8256270,
    "name": "Октябрьский",
    "lat": 54.04059,
    "lng": 28.19813
  },
  {
    "id": 623788,
    "name": "Parychy",
    "lat": 52.8042,
    "lng": 29.4176
  },
  {
    "id": 625128,
    "name": "Mir",
    "lat": 53.4544,
    "lng": 26.467
  },
  {
    "id": 624297,
    "name": "Novy Svyerzhan’",
    "lat": 53.4542,
    "lng": 26.7301
  },
  {
    "id": 624584,
    "name": "Novaya Huta",
    "lat": 52.1032,
    "lng": 30.9837
  },
  {
    "id": 629829,
    "name": "Vyaliki Trastsyanets",
    "lat": 53.851,
    "lng": 27.7139
  },
  {
    "id": 8331420,
    "name": "Posëlok Voskhod",
    "lat": 53.7766,
    "lng": 30.3497
  },
  {
    "id": 8019860,
    "name": "Pryvol’ny",
    "lat": 53.7969,
    "lng": 27.7967
  },
  {
    "id": 624842,
    "name": "Myshkavichy",
    "lat": 53.2172,
    "lng": 29.512
  },
  {
    "id": 627451,
    "name": "Khodosy",
    "lat": 53.92681,
    "lng": 31.47882
  },
  {
    "id": 623577,
    "name": "Pyatryshki",
    "lat": 54.0686,
    "lng": 27.2179
  },
  {
    "id": 626829,
    "name": "Kosava",
    "lat": 52.7583,
    "lng": 25.1554
  },
  {
    "id": 621543,
    "name": "Stan’kava",
    "lat": 53.6292,
    "lng": 27.229
  },
  {
    "id": 628923,
    "name": "Dowsk",
    "lat": 53.1571,
    "lng": 30.4601
  },
  {
    "id": 621641,
    "name": "Soly",
    "lat": 54.51301,
    "lng": 26.19381
  },
  {
    "id": 8019799,
    "name": "Schomyslitsa",
    "lat": 53.8211,
    "lng": 27.4522
  },
  {
    "id": 621817,
    "name": "Slabada",
    "lat": 54.0087,
    "lng": 27.8866
  },
  {
    "id": 625245,
    "name": "Myazhysyatki",
    "lat": 53.7776,
    "lng": 30.1765
  },
  {
    "id": 627878,
    "name": "Iĺja",
    "lat": 54.4167,
    "lng": 27.2958
  },
  {
    "id": 618818,
    "name": "Zhirovichi",
    "lat": 53.0131,
    "lng": 25.3443
  },
  {
    "id": 630089,
    "name": "Blon’",
    "lat": 53.5269,
    "lng": 28.1732
  },
  {
    "id": 624318,
    "name": "Kadino",
    "lat": 53.88389,
    "lng": 30.52028
  },
  {
    "id": 620205,
    "name": "Veyno",
    "lat": 53.83333,
    "lng": 30.38333
  },
  {
    "id": 626738,
    "name": "Kazhan-Haradok",
    "lat": 52.2073,
    "lng": 27.0094
  },
  {
    "id": 629663,
    "name": "Turets-Bayary",
    "lat": 54.3785,
    "lng": 26.6581
  },
  {
    "id": 625737,
    "name": "Lyntupy",
    "lat": 55.0516,
    "lng": 26.3103
  },
  {
    "id": 816218,
    "name": "Palykavichy Pyershyya",
    "lat": 53.9854,
    "lng": 30.36
  },
  {
    "id": 620191,
    "name": "Vidzy",
    "lat": 55.3945,
    "lng": 26.6305
  },
  {
    "id": 623904,
    "name": "Ostryna",
    "lat": 53.7322,
    "lng": 24.5305
  },
  {
    "id": 629163,
    "name": "Dashkawka",
    "lat": 53.7352,
    "lng": 30.2625
  },
  {
    "id": 622279,
    "name": "Syomkava",
    "lat": 54.0101,
    "lng": 27.441
  },
  {
    "id": 8256205,
    "name": "Usiazh",
    "lat": 54.07598,
    "lng": 28.00698
  },
  {
    "id": 629055,
    "name": "Dzisna",
    "lat": 55.5676,
    "lng": 28.2076
  },
  {
    "id": 628871,
    "name": "Druja",
    "lat": 55.7906,
    "lng": 27.4505
  },
  {
    "id": 628478,
    "name": "Hyeranyony",
    "lat": 54.1159,
    "lng": 25.5773
  },
  {
    "id": 627664,
    "name": "Kamyennyya Lavy",
    "lat": 54.0898,
    "lng": 30.2962
  },
  {
    "id": 624965,
    "name": "Mosar",
    "lat": 55.22652,
    "lng": 27.46476
  },
  {
    "id": 556386,
    "name": "Indura",
    "lat": 53.4605,
    "lng": 23.8823
  },
  {
    "id": 630543,
    "name": "Antopal’",
    "lat": 52.2038,
    "lng": 24.7863
  },
  {
    "id": 8178450,
    "name": "Peramoga",
    "lat": 52.3973,
    "lng": 31.071
  },
  {
    "id": 8247406,
    "name": "Lyeskawka",
    "lat": 54.0024,
    "lng": 27.7108
  },
  {
    "id": 628397,
    "name": "Hlusha",
    "lat": 53.0868,
    "lng": 28.8567
  },
  {
    "id": 627424,
    "name": "Kholopenichi",
    "lat": 54.51746,
    "lng": 28.95645
  },
  {
    "id": 622406,
    "name": "Sarachy",
    "lat": 52.7867,
    "lng": 28.0186
  },
  {
    "id": 815847,
    "name": "Ramanavichy",
    "lat": 53.8653,
    "lng": 30.5597
  },
  {
    "id": 618723,
    "name": "Znamenka",
    "lat": 51.88168,
    "lng": 23.65545
  },
  {
    "id": 625853,
    "name": "Luhavaya Slabada",
    "lat": 53.7823,
    "lng": 27.8434
  },
  {
    "id": 628727,
    "name": "Dukora",
    "lat": 53.6786,
    "lng": 27.94
  },
  {
    "id": 623902,
    "name": "Asvieja",
    "lat": 56.0147,
    "lng": 28.11049
  },
  {
    "id": 621058,
    "name": "Svir",
    "lat": 54.8517,
    "lng": 26.395
  },
  {
    "id": 620869,
    "name": "Tsimkavichy",
    "lat": 53.0672,
    "lng": 26.9902
  },
  {
    "id": 626523,
    "name": "Kryvichy",
    "lat": 54.7132,
    "lng": 27.2886
  },
  {
    "id": 624418,
    "name": "Novosel’ye",
    "lat": 53.9162,
    "lng": 27.2009
  },
  {
    "id": 624612,
    "name": "Nasilava",
    "lat": 54.30441,
    "lng": 26.78209
  },
  {
    "id": 8019846,
    "name": "Atolina",
    "lat": 53.7817,
    "lng": 27.4346
  },
  {
    "id": 627524,
    "name": "Khal’ch",
    "lat": 52.5643,
    "lng": 31.1364
  },
  {
    "id": 623855,
    "name": "Azyartso",
    "lat": 53.8397,
    "lng": 27.3917
  },
  {
    "id": 620141,
    "name": "Vishow",
    "lat": 53.9805,
    "lng": 29.9925
  },
  {
    "id": 627659,
    "name": "Kamyanyuki",
    "lat": 52.55757,
    "lng": 23.80525
  },
  {
    "id": 624753,
    "name": "Nyakhachava",
    "lat": 52.644,
    "lng": 25.2027
  },
  {
    "id": 624012,
    "name": "Asnyezhytsy",
    "lat": 52.1891,
    "lng": 26.1299
  },
  {
    "id": 8019679,
    "name": "Khatsyezhyna",
    "lat": 53.9094,
    "lng": 27.3069
  },
  {
    "id": 628968,
    "name": "Damachava",
    "lat": 51.75,
    "lng": 23.6
  },
  {
    "id": 626933,
    "name": "Karanyowka",
    "lat": 52.3506,
    "lng": 31.1121
  },
  {
    "id": 630070,
    "name": "Bobr",
    "lat": 54.33992,
    "lng": 29.27288
  },
  {
    "id": 628112,
    "name": "Hotsk",
    "lat": 52.5215,
    "lng": 27.1385
  },
  {
    "id": 626895,
    "name": "Korolëv Stan",
    "lat": 53.9865,
    "lng": 27.7982
  },
  {
    "id": 618863,
    "name": "Zhaludok",
    "lat": 53.5974,
    "lng": 24.9828
  },
  {
    "id": 625917,
    "name": "Lotva",
    "lat": 54.1013,
    "lng": 30.2639
  },
  {
    "id": 624758,
    "name": "Nyehorelaye",
    "lat": 53.6104,
    "lng": 27.0733
  },
  {
    "id": 623850,
    "name": "Azyory",
    "lat": 53.7216,
    "lng": 24.1836
  },
  {
    "id": 622621,
    "name": "Rudawka",
    "lat": 53.2351,
    "lng": 26.6494
  },
  {
    "id": 621882,
    "name": "Skoki",
    "lat": 52.15519,
    "lng": 23.6329
  },
  {
    "id": 620966,
    "name": "Tarasovo",
    "lat": 53.9253,
    "lng": 27.3815
  },
  {
    "id": 619276,
    "name": "Zalyessye",
    "lat": 54.4192,
    "lng": 26.548
  },
  {
    "id": 618945,
    "name": "Zyalyony Bor",
    "lat": 54.0119,
    "lng": 28.4843
  },
  {
    "id": 625712,
    "name": "Lyubcha",
    "lat": 53.7522,
    "lng": 26.0603
  },
  {
    "id": 621634,
    "name": "Sapotskin",
    "lat": 53.8329,
    "lng": 23.6598
  },
  {
    "id": 629851,
    "name": "Bol’shoye Stiklevo",
    "lat": 53.8693,
    "lng": 27.7005
  },
  {
    "id": 621128,
    "name": "Surazh",
    "lat": 55.4092,
    "lng": 30.7246
  },
  {
    "id": 8019665,
    "name": "Yukhnovka",
    "lat": 53.9753,
    "lng": 27.8586
  },
  {
    "id": 8019633,
    "name": "Gorodishche",
    "lat": 53.9833,
    "lng": 27.8384
  },
  {
    "id": 626949,
    "name": "Kopys’",
    "lat": 54.32087,
    "lng": 30.28847
  },
  {
    "id": 625251,
    "name": "Myezhava",
    "lat": 54.62595,
    "lng": 30.3087
  },
  {
    "id": 12129719,
    "name": "Korobchicy",
    "lat": 53.61198,
    "lng": 23.74841
  },
  {
    "id": 620807,
    "name": "Traby",
    "lat": 54.1587,
    "lng": 25.9075
  },
  {
    "id": 628253,
    "name": "Harbavichy",
    "lat": 53.8183,
    "lng": 30.7001
  },
  {
    "id": 620453,
    "name": "Valer’yanovo",
    "lat": 53.9698,
    "lng": 27.6685
  },
  {
    "id": 620959,
    "name": "Tatarka",
    "lat": 53.2533,
    "lng": 28.8193
  },
  {
    "id": 627154,
    "name": "Knyazhytsy",
    "lat": 53.9747,
    "lng": 30.1513
  },
  {
    "id": 814990,
    "name": "Ryasno, Рясно, Расна",
    "lat": 53.7115,
    "lng": 30.6176
  },
  {
    "id": 623911,
    "name": "Ostrovy",
    "lat": 53.7335,
    "lng": 28.3857
  },
  {
    "id": 623333,
    "name": "Pahost",
    "lat": 53.8482,
    "lng": 29.1491
  },
  {
    "id": 621404,
    "name": "Budsław",
    "lat": 54.7985,
    "lng": 27.4132
  },
  {
    "id": 618927,
    "name": "Zyembin",
    "lat": 54.3579,
    "lng": 28.2207
  },
  {
    "id": 619645,
    "name": "Yazna",
    "lat": 55.4255,
    "lng": 28.157
  },
  {
    "id": 630284,
    "name": "Byelagruda",
    "lat": 53.80128,
    "lng": 25.16711
  },
  {
    "id": 624122,
    "name": "Opsa",
    "lat": 55.53826,
    "lng": 26.82652
  },
  {
    "id": 628171,
    "name": "Gorodishche",
    "lat": 54.18966,
    "lng": 30.6187
  },
  {
    "id": 7931605,
    "name": "Natal’yewsk",
    "lat": 53.7275,
    "lng": 28.4325
  },
  {
    "id": 622158,
    "name": "Šack",
    "lat": 53.4307,
    "lng": 27.6953
  },
  {
    "id": 624489,
    "name": "Novoye Pashkovo",
    "lat": 53.9567,
    "lng": 30.2496
  },
  {
    "id": 13494161,
    "name": "Sonechny",
    "lat": 53.97041,
    "lng": 27.62137
  },
  {
    "id": 624923,
    "name": "Mastok",
    "lat": 53.9794,
    "lng": 30.4592
  },
  {
    "id": 623225,
    "name": "Paplavy",
    "lat": 53.8066,
    "lng": 28.8698
  },
  {
    "id": 621715,
    "name": "Smolyany",
    "lat": 54.5985,
    "lng": 30.06439
  },
  {
    "id": 8072166,
    "name": "Vishnyavyets",
    "lat": 53.3474,
    "lng": 26.6895
  },
  {
    "id": 619462,
    "name": "Zabalotstsye",
    "lat": 54.0052,
    "lng": 28.0272
  },
  {
    "id": 621274,
    "name": "Stalovichy",
    "lat": 53.2142,
    "lng": 26.0377
  },
  {
    "id": 620692,
    "name": "Turets",
    "lat": 53.5263,
    "lng": 26.3125
  },
  {
    "id": 619918,
    "name": "Vselyub",
    "lat": 53.72136,
    "lng": 25.79894
  },
  {
    "id": 622117,
    "name": "Shchorsy",
    "lat": 53.6344,
    "lng": 26.1855
  },
  {
    "id": 8256207,
    "name": "Николаевка-2",
    "lat": 53.95295,
    "lng": 30.38278
  },
  {
    "id": 629972,
    "name": "Vyalikaya Mashchanitsa",
    "lat": 53.9541,
    "lng": 29.6255
  },
  {
    "id": 620096,
    "name": "Valyevachy",
    "lat": 53.7534,
    "lng": 28.1555
  },
  {
    "id": 627023,
    "name": "Komsyenichy",
    "lat": 54.1503,
    "lng": 29.8794
  },
  {
    "id": 8019840,
    "name": "Charkasy",
    "lat": 53.7662,
    "lng": 27.3347
  },
  {
    "id": 815333,
    "name": "Novosëlki",
    "lat": 53.813,
    "lng": 30.3769
  },
  {
    "id": 628332,
    "name": "Halowchyn",
    "lat": 54.0601,
    "lng": 29.9184
  },
  {
    "id": 8537698,
    "name": "Pryluki",
    "lat": 53.7928,
    "lng": 27.4524
  },
  {
    "id": 8047161,
    "name": "Chyrvona Zorka",
    "lat": 53.0104,
    "lng": 26.6801
  },
  {
    "id": 7930763,
    "name": "Murovanka",
    "lat": 53.69834,
    "lng": 25.00562
  },
  {
    "id": 628467,
    "name": "Hierviaty",
    "lat": 54.69159,
    "lng": 26.14094
  },
  {
    "id": 628372,
    "name": "Gnezno",
    "lat": 53.1243,
    "lng": 24.3421
  },
  {
    "id": 626041,
    "name": "Lipniški",
    "lat": 54.0074,
    "lng": 25.6082
  },
  {
    "id": 625524,
    "name": "Maloye Mozheykovo",
    "lat": 53.71965,
    "lng": 24.98556
  },
  {
    "id": 624892,
    "name": "Mstibovo",
    "lat": 53.1121,
    "lng": 24.2577
  }
]