[
  {
    "id": 2293538,
    "name": "Abidjan",
    "lat": 5.35444,
    "lng": -4.00167
  },
  {
    "id": 2293521,
    "name": "Abobo",
    "lat": 5.41613,
    "lng": -4.0159
  },
  {
    "id": 2290956,
    "name": "Bouaké",
    "lat": 7.69385,
    "lng": -5.03031
  },
  {
    "id": 2286304,
    "name": "Korhogo",
    "lat": 9.45803,
    "lng": -5.62961
  },
  {
    "id": 2290486,
    "name": "Daloa",
    "lat": 6.87735,
    "lng": -6.45022
  },
  {
    "id": 2285853,
    "name": "Koumassi",
    "lat": 5.29716,
    "lng": -3.96753
  },
  {
    "id": 2282006,
    "name": "San-Pédro",
    "lat": 4.74851,
    "lng": -6.6363
  },
  {
    "id": 2288829,
    "name": "Gagnoa",
    "lat": 6.13193,
    "lng": -5.9506
  },
  {
    "id": 2279755,
    "name": "Yamoussoukro",
    "lat": 6.82055,
    "lng": -5.27674
  },
  {
    "id": 2281606,
    "name": "Sinfra",
    "lat": 6.62103,
    "lng": -5.91144
  },
  {
    "id": 2284647,
    "name": "Man",
    "lat": 7.41251,
    "lng": -7.55383
  },
  {
    "id": 2595323,
    "name": "Marcory",
    "lat": 5.31198,
    "lng": -3.99363
  },
  {
    "id": 2291136,
    "name": "Bondoukou",
    "lat": 8.0402,
    "lng": -2.80003
  },
  {
    "id": 2290582,
    "name": "Dabou",
    "lat": 5.32556,
    "lng": -4.37685
  },
  {
    "id": 2289887,
    "name": "Divo",
    "lat": 5.83739,
    "lng": -5.35723
  },
  {
    "id": 2292852,
    "name": "Anyama",
    "lat": 5.49462,
    "lng": -4.05183
  },
  {
    "id": 2596935,
    "name": "Soubré",
    "lat": 5.78377,
    "lng": -6.59388
  },
  {
    "id": 2293549,
    "name": "Abengourou",
    "lat": 6.72972,
    "lng": -3.49639
  },
  {
    "id": 7849539,
    "name": "Bonon",
    "lat": 6.9268,
    "lng": -6.0489
  },
  {
    "id": 2289549,
    "name": "Duekoué",
    "lat": 6.74202,
    "lng": -7.34918
  },
  {
    "id": 2290964,
    "name": "Bouaflé",
    "lat": 6.99041,
    "lng": -5.7442
  },
  {
    "id": 2596934,
    "name": "Séguéla",
    "lat": 7.96111,
    "lng": -6.67306
  },
  {
    "id": 2290412,
    "name": "Daoukro",
    "lat": 7.0591,
    "lng": -3.9631
  },
  {
    "id": 2288115,
    "name": "Grand-Bassam",
    "lat": 5.2118,
    "lng": -3.73884
  },
  {
    "id": 2280045,
    "name": "Vavoua",
    "lat": 7.38194,
    "lng": -6.47778
  },
  {
    "id": 2291580,
    "name": "Bingerville",
    "lat": 5.35581,
    "lng": -3.88537
  },
  {
    "id": 2293268,
    "name": "Agboville",
    "lat": 5.92801,
    "lng": -4.21319
  },
  {
    "id": 2290462,
    "name": "Danané",
    "lat": 7.25957,
    "lng": -8.15498
  },
  {
    "id": 2293342,
    "name": "Adzopé",
    "lat": 6.10694,
    "lng": -3.86194
  },
  {
    "id": 10629379,
    "name": "Méagui",
    "lat": 5.4119,
    "lng": -6.5603
  },
  {
    "id": 2289049,
    "name": "Ferkessédougou",
    "lat": 9.5928,
    "lng": -5.19449
  },
  {
    "id": 2289983,
    "name": "Dimbokro",
    "lat": 6.64678,
    "lng": -4.70519
  },
  {
    "id": 2287790,
    "name": "Issia",
    "lat": 6.49224,
    "lng": -6.58558
  },
  {
    "id": 2287958,
    "name": "Guiglo",
    "lat": 6.54368,
    "lng": -7.4935
  },
  {
    "id": 2279526,
    "name": "Zagné",
    "lat": 6.21016,
    "lng": -7.48284
  },
  {
    "id": 2293260,
    "name": "Agnibilékrou",
    "lat": 7.13113,
    "lng": -3.20415
  },
  {
    "id": 2287298,
    "name": "Katiola",
    "lat": 8.13728,
    "lng": -5.10095
  },
  {
    "id": 2293507,
    "name": "Aboisso",
    "lat": 5.46779,
    "lng": -3.20711
  },
  {
    "id": 2282827,
    "name": "Oumé",
    "lat": 6.38309,
    "lng": -5.41759
  },
  {
    "id": 2280316,
    "name": "Toumodi",
    "lat": 6.55799,
    "lng": -5.01769
  },
  {
    "id": 2283016,
    "name": "Odienné",
    "lat": 9.50511,
    "lng": -7.56433
  },
  {
    "id": 2280589,
    "name": "Tengréla",
    "lat": 10.48115,
    "lng": -6.40694
  },
  {
    "id": 2290836,
    "name": "Boundiali",
    "lat": 9.52167,
    "lng": -6.48694
  },
  {
    "id": 2291087,
    "name": "Bonoua",
    "lat": 5.27247,
    "lng": -3.59625
  },
  {
    "id": 2282907,
    "name": "Ouangolodougou",
    "lat": 9.96837,
    "lng": -5.14882
  },
  {
    "id": 2289724,
    "name": "Doropo",
    "lat": 9.80955,
    "lng": -3.34577
  },
  {
    "id": 2288118,
    "name": "Affery",
    "lat": 6.32035,
    "lng": -3.95235
  },
  {
    "id": 2279172,
    "name": "Zuénoula",
    "lat": 7.43027,
    "lng": -6.05054
  },
  {
    "id": 2290099,
    "name": "Diégonéfla",
    "lat": 6.28919,
    "lng": -5.57413
  },
  {
    "id": 2291451,
    "name": "Bloléquin",
    "lat": 6.56913,
    "lng": -8.00253
  },
  {
    "id": 2287884,
    "name": "Hiré",
    "lat": 6.18878,
    "lng": -5.29463
  },
  {
    "id": 12687197,
    "name": "Djapadji",
    "lat": 5.29114,
    "lng": -6.82023
  },
  {
    "id": 2292755,
    "name": "Arrah",
    "lat": 6.67342,
    "lng": -3.96938
  },
  {
    "id": 2289071,
    "name": "Fengolo",
    "lat": 6.78634,
    "lng": -7.39338
  },
  {
    "id": 2288105,
    "name": "Grand-Lahou",
    "lat": 5.13825,
    "lng": -5.02123
  },
  {
    "id": 2291113,
    "name": "Bongouanou",
    "lat": 6.65175,
    "lng": -4.20406
  },
  {
    "id": 2293107,
    "name": "Akoupé",
    "lat": 6.38423,
    "lng": -3.88759
  },
  {
    "id": 2280995,
    "name": "Tanda",
    "lat": 7.80335,
    "lng": -3.16832
  },
  {
    "id": 2288139,
    "name": "Goya",
    "lat": 6.56487,
    "lng": -7.42735
  },
  {
    "id": 2283823,
    "name": "Ndouci",
    "lat": 5.86383,
    "lng": -4.7609
  },
  {
    "id": 2280761,
    "name": "Tiassalé",
    "lat": 5.89839,
    "lng": -4.82293
  },
  {
    "id": 2281979,
    "name": "Saïoua",
    "lat": 6.48535,
    "lng": -6.278
  },
  {
    "id": 2281951,
    "name": "Sassandra",
    "lat": 4.95384,
    "lng": -6.08531
  },
  {
    "id": 2596898,
    "name": "Ahouanou",
    "lat": 5.50565,
    "lng": -4.8588
  },
  {
    "id": 2289515,
    "name": "Dianra",
    "lat": 8.94333,
    "lng": -6.2549
  },
  {
    "id": 2291779,
    "name": "Béoumi",
    "lat": 7.67395,
    "lng": -5.58085
  },
  {
    "id": 2287653,
    "name": "Kahin",
    "lat": 6.91413,
    "lng": -7.63121
  },
  {
    "id": 2290648,
    "name": "Buyo",
    "lat": 6.27534,
    "lng": -6.99704
  },
  {
    "id": 12687201,
    "name": "Gligbeuadji",
    "lat": 5.2,
    "lng": -6.7
  },
  {
    "id": 2285449,
    "name": "Lakota",
    "lat": 5.84752,
    "lng": -5.682
  },
  {
    "id": 7849902,
    "name": "Grand-Zattry",
    "lat": 6.1162,
    "lng": -6.53603
  },
  {
    "id": 12687195,
    "name": "Ancien-Prozi",
    "lat": 7.66885,
    "lng": -6.96881
  },
  {
    "id": 2291086,
    "name": "Bonoufla",
    "lat": 7.12906,
    "lng": -6.47424
  },
  {
    "id": 2286469,
    "name": "Konéfla",
    "lat": 6.65166,
    "lng": -5.60501
  },
  {
    "id": 2279235,
    "name": "Zouan-Hounien",
    "lat": 6.91937,
    "lng": -8.2065
  },
  {
    "id": 2281120,
    "name": "Tabou",
    "lat": 4.42295,
    "lng": -7.3528
  },
  {
    "id": 2280376,
    "name": "Touba",
    "lat": 8.28333,
    "lng": -7.68333
  },
  {
    "id": 2284460,
    "name": "M’Bengué",
    "lat": 10.00244,
    "lng": -5.90037
  },
  {
    "id": 2292085,
    "name": "Gbapleu",
    "lat": 6.47983,
    "lng": -7.16528
  },
  {
    "id": 2291391,
    "name": "Boboniessoko",
    "lat": 6.96589,
    "lng": -6.65652
  },
  {
    "id": 2279495,
    "name": "Zaliohouan",
    "lat": 6.79519,
    "lng": -6.2355
  },
  {
    "id": 2290173,
    "name": "Diawala",
    "lat": 10.10701,
    "lng": -5.47295
  },
  {
    "id": 2286023,
    "name": "Kaouara",
    "lat": 10.09085,
    "lng": -5.19482
  },
  {
    "id": 2288010,
    "name": "Guépaouo",
    "lat": 6.47268,
    "lng": -5.70615
  },
  {
    "id": 2279841,
    "name": "Yabayo",
    "lat": 5.93876,
    "lng": -6.59826
  },
  {
    "id": 2284787,
    "name": "Luénoufla",
    "lat": 7.07236,
    "lng": -6.24125
  },
  {
    "id": 2279240,
    "name": "Zou",
    "lat": 6.97647,
    "lng": -7.79834
  },
  {
    "id": 2288357,
    "name": "Gonaté",
    "lat": 6.90418,
    "lng": -6.24347
  },
  {
    "id": 2283456,
    "name": "Niellé",
    "lat": 10.19814,
    "lng": -5.62337
  },
  {
    "id": 2293428,
    "name": "Adiaké",
    "lat": 5.28634,
    "lng": -3.30403
  },
  {
    "id": 2280743,
    "name": "Tiébissou",
    "lat": 7.15772,
    "lng": -5.2248
  },
  {
    "id": 2290849,
    "name": "Bouna",
    "lat": 9.26927,
    "lng": -2.9951
  },
  {
    "id": 2282800,
    "name": "Oupoyo",
    "lat": 5.56054,
    "lng": -6.58997
  },
  {
    "id": 2284477,
    "name": "M’Batto",
    "lat": 6.47197,
    "lng": -4.35781
  },
  {
    "id": 12688221,
    "name": "Belleville",
    "lat": 6.87341,
    "lng": -6.84829
  },
  {
    "id": 7849877,
    "name": "Belleville",
    "lat": 6.18021,
    "lng": -6.90529
  },
  {
    "id": 2292180,
    "name": "Bangolo Tahouake",
    "lat": 7.04119,
    "lng": -7.168
  },
  {
    "id": 2287970,
    "name": "Guibéroua",
    "lat": 6.23869,
    "lng": -6.17147
  },
  {
    "id": 2291666,
    "name": "Biankouma",
    "lat": 7.73909,
    "lng": -7.61377
  },
  {
    "id": 2284777,
    "name": "Mabéhiri",
    "lat": 5.66667,
    "lng": -6.41667
  },
  {
    "id": 2282650,
    "name": "Para",
    "lat": 5.51956,
    "lng": -7.32755
  },
  {
    "id": 12687199,
    "name": "Gabiadji",
    "lat": 5.0234,
    "lng": -6.56157
  },
  {
    "id": 2291924,
    "name": "Bédiala",
    "lat": 7.16008,
    "lng": -6.30642
  },
  {
    "id": 2281103,
    "name": "Tafiré",
    "lat": 9.06883,
    "lng": -5.16404
  },
  {
    "id": 2290555,
    "name": "Dagbao I",
    "lat": 5.56025,
    "lng": -6.02111
  },
  {
    "id": 12687207,
    "name": "Gnatroa",
    "lat": 5.92273,
    "lng": -6.15013
  },
  {
    "id": 2292179,
    "name": "Bangolo",
    "lat": 7.01232,
    "lng": -7.48639
  },
  {
    "id": 2288404,
    "name": "Gohouo",
    "lat": 7.05402,
    "lng": -7.44035
  },
  {
    "id": 2283616,
    "name": "Niakaramandougou",
    "lat": 8.65759,
    "lng": -5.29109
  },
  {
    "id": 12687198,
    "name": "Fronan",
    "lat": 8.21494,
    "lng": -5.12549
  },
  {
    "id": 2291636,
    "name": "Biéby",
    "lat": 6.07873,
    "lng": -3.63548
  },
  {
    "id": 12687206,
    "name": "Dagadji",
    "lat": 5.12569,
    "lng": -6.81483
  },
  {
    "id": 12687200,
    "name": "Galébré",
    "lat": 6.0059,
    "lng": -6.29403
  },
  {
    "id": 2284159,
    "name": "Moussadougou",
    "lat": 6.154,
    "lng": -5.69334
  },
  {
    "id": 2282189,
    "name": "Sahoua",
    "lat": 5.06191,
    "lng": -6.25997
  },
  {
    "id": 12687208,
    "name": "Watté",
    "lat": 4.9353,
    "lng": -6.77828
  },
  {
    "id": 2280405,
    "name": "Tortiya",
    "lat": 8.76821,
    "lng": -5.6865
  },
  {
    "id": 12687204,
    "name": "Touih",
    "lat": 5.25604,
    "lng": -6.53249
  },
  {
    "id": 2284679,
    "name": "Aboisso Comoé",
    "lat": 5.7351,
    "lng": -3.40338
  },
  {
    "id": 2283646,
    "name": "Niablé",
    "lat": 6.66129,
    "lng": -3.26984
  },
  {
    "id": 2291929,
    "name": "Bécédi-Brignan",
    "lat": 5.90909,
    "lng": -4.01281
  },
  {
    "id": 2287981,
    "name": "Guézon",
    "lat": 6.56696,
    "lng": -7.70203
  },
  {
    "id": 2287980,
    "name": "Guézon",
    "lat": 6.74177,
    "lng": -7.11742
  },
  {
    "id": 12687196,
    "name": "Bléniméouin",
    "lat": 7.13333,
    "lng": -7.18333
  },
  {
    "id": 2284589,
    "name": "Mankono",
    "lat": 8.05861,
    "lng": -6.18972
  },
  {
    "id": 12687508,
    "name": "Gnago",
    "lat": 5.24032,
    "lng": -5.79516
  },
  {
    "id": 2286819,
    "name": "Ahigbé Koffikro",
    "lat": 5.40755,
    "lng": -3.38023
  },
  {
    "id": 2284719,
    "name": "Mahapleu",
    "lat": 7.22474,
    "lng": -7.93118
  },
  {
    "id": 2284489,
    "name": "M’Bahiakro",
    "lat": 7.45728,
    "lng": -4.33993
  },
  {
    "id": 2289633,
    "name": "Doukouya",
    "lat": 6.42623,
    "lng": -5.55925
  },
  {
    "id": 12687203,
    "name": "Ogoudou",
    "lat": 5.89674,
    "lng": -5.15792
  },
  {
    "id": 2285161,
    "name": "Lobakuya",
    "lat": 5.09053,
    "lng": -6.34438
  },
  {
    "id": 2289433,
    "name": "Ebilassokro",
    "lat": 6.37917,
    "lng": -3.34722
  },
  {
    "id": 2596874,
    "name": "Erémankono",
    "lat": 5.92829,
    "lng": -5.02252
  },
  {
    "id": 2283504,
    "name": "Niapidou",
    "lat": 5.34849,
    "lng": -6.05601
  },
  {
    "id": 2290609,
    "name": "Dabakala",
    "lat": 8.36321,
    "lng": -4.42863
  },
  {
    "id": 2282566,
    "name": "Pélézi",
    "lat": 7.28174,
    "lng": -6.81449
  },
  {
    "id": 2284314,
    "name": "Mignouré",
    "lat": 7.4875,
    "lng": -6.78821
  },
  {
    "id": 2282240,
    "name": "Rubino",
    "lat": 6.07,
    "lng": -4.31056
  },
  {
    "id": 2290000,
    "name": "Dikodougou",
    "lat": 9.06757,
    "lng": -5.77222
  },
  {
    "id": 2292531,
    "name": "Azaguié",
    "lat": 5.62984,
    "lng": -4.08204
  },
  {
    "id": 2288002,
    "name": "Guéssabo",
    "lat": 6.73668,
    "lng": -6.95487
  },
  {
    "id": 12688212,
    "name": "Vrouo",
    "lat": 7.69644,
    "lng": -6.55352
  },
  {
    "id": 2292090,
    "name": "Baoutifla",
    "lat": 7.23425,
    "lng": -6.47485
  },
  {
    "id": 2288718,
    "name": "Gbabam",
    "lat": 5.46651,
    "lng": -5.58678
  },
  {
    "id": 2291663,
    "name": "Bianouan",
    "lat": 6.01203,
    "lng": -3.19024
  },
  {
    "id": 2279513,
    "name": "Zaïbo",
    "lat": 6.9893,
    "lng": -6.66673
  },
  {
    "id": 2292391,
    "name": "Bahé-Blaon",
    "lat": 6.67073,
    "lng": -7.34265
  },
  {
    "id": 2282178,
    "name": "Sakassou",
    "lat": 7.45462,
    "lng": -5.29263
  },
  {
    "id": 2284744,
    "name": "Maféré",
    "lat": 5.4151,
    "lng": -3.03006
  },
  {
    "id": 2282985,
    "name": "Okromodou",
    "lat": 5.35123,
    "lng": -5.67593
  },
  {
    "id": 12687494,
    "name": "Touagui",
    "lat": 5.43102,
    "lng": -6.55946
  },
  {
    "id": 2284030,
    "name": "Nambingué",
    "lat": 10.05,
    "lng": -5.33778
  },
  {
    "id": 2289902,
    "name": "Diourouzon",
    "lat": 6.88922,
    "lng": -7.51952
  },
  {
    "id": 2288439,
    "name": "Gadouan",
    "lat": 6.65623,
    "lng": -6.16609
  },
  {
    "id": 7848493,
    "name": "Kranzadougou",
    "lat": 6.48496,
    "lng": -7.20101
  },
  {
    "id": 2282521,
    "name": "Petitgoa I",
    "lat": 6.12024,
    "lng": -6.71253
  },
  {
    "id": 2292932,
    "name": "Andé",
    "lat": 6.78176,
    "lng": -4.08517
  },
  {
    "id": 7850551,
    "name": "Nzianouan",
    "lat": 6.01161,
    "lng": -4.82133
  },
  {
    "id": 12687966,
    "name": "Gbolouville",
    "lat": 5.79408,
    "lng": -4.66127
  },
  {
    "id": 2291962,
    "name": "Bayota",
    "lat": 6.46477,
    "lng": -5.95427
  },
  {
    "id": 2285092,
    "name": "Logoualé",
    "lat": 7.10769,
    "lng": -7.55207
  },
  {
    "id": 2282506,
    "name": "Petit Grabo",
    "lat": 5.26902,
    "lng": -7.31421
  },
  {
    "id": 2292380,
    "name": "Baibli",
    "lat": 7.17618,
    "lng": -7.29729
  },
  {
    "id": 7849905,
    "name": "Loboville",
    "lat": 6.13656,
    "lng": -6.84096
  },
  {
    "id": 12687528,
    "name": "Gagny",
    "lat": 5.0491,
    "lng": -6.74477
  },
  {
    "id": 7849068,
    "name": "Zéaglo",
    "lat": 6.56297,
    "lng": -7.8172
  },
  {
    "id": 2282983,
    "name": "Okrouyo",
    "lat": 5.76443,
    "lng": -6.40785
  },
  {
    "id": 12687527,
    "name": "Gnépasso",
    "lat": 4.98218,
    "lng": -7.06024
  },
  {
    "id": 12689422,
    "name": "Flakièdougou",
    "lat": 8.48273,
    "lng": -3.1273
  },
  {
    "id": 2288759,
    "name": "Gaoulou",
    "lat": 5.03347,
    "lng": -6.15137
  },
  {
    "id": 2286632,
    "name": "Kolia",
    "lat": 9.7651,
    "lng": -6.46372
  },
  {
    "id": 7849082,
    "name": "Aboka",
    "lat": 6.53867,
    "lng": -6.81589
  },
  {
    "id": 2289950,
    "name": "Dignago",
    "lat": 6.29164,
    "lng": -6.27945
  },
  {
    "id": 2279214,
    "name": "Zoukougbeu",
    "lat": 6.76229,
    "lng": -6.8638
  },
  {
    "id": 2285905,
    "name": "Kouibly",
    "lat": 7.25597,
    "lng": -7.23508
  },
  {
    "id": 2597400,
    "name": "Borotou-Koro",
    "lat": 8.49111,
    "lng": -7.17861
  },
  {
    "id": 7848497,
    "name": "Nizahon II",
    "lat": 6.37222,
    "lng": -7.39891
  },
  {
    "id": 12688220,
    "name": "Bognonzra",
    "lat": 6.94321,
    "lng": -5.96734
  },
  {
    "id": 2286458,
    "name": "Kong",
    "lat": 9.14943,
    "lng": -4.60982
  },
  {
    "id": 7848483,
    "name": "Diéhiba",
    "lat": 6.90152,
    "lng": -7.41376
  },
  {
    "id": 2287987,
    "name": "Guéyo",
    "lat": 5.6882,
    "lng": -6.0712
  },
  {
    "id": 8536562,
    "name": "Songon",
    "lat": 5.3196,
    "lng": -4.25415
  },
  {
    "id": 2279795,
    "name": "Yakassé-Attobrou",
    "lat": 6.18174,
    "lng": -3.65111
  },
  {
    "id": 2287927,
    "name": "Guitry",
    "lat": 5.51952,
    "lng": -5.24038
  },
  {
    "id": 2293468,
    "name": "Aboudé",
    "lat": 5.89609,
    "lng": -4.56253
  },
  {
    "id": 12689421,
    "name": "Marahui",
    "lat": 8.61522,
    "lng": -2.75076
  },
  {
    "id": 2290511,
    "name": "Dakpadou",
    "lat": 5.25664,
    "lng": -6.06774
  },
  {
    "id": 2284784,
    "name": "Luéhouan",
    "lat": 6.29916,
    "lng": -6.77104
  },
  {
    "id": 2291949,
    "name": "Bazré",
    "lat": 6.72443,
    "lng": -5.48283
  },
  {
    "id": 12687965,
    "name": "Dokpodon",
    "lat": 5.18955,
    "lng": -5.45087
  },
  {
    "id": 12688219,
    "name": "Bogbam",
    "lat": 6.38085,
    "lng": -6.19258
  },
  {
    "id": 2282854,
    "name": "Ouragahio",
    "lat": 6.31058,
    "lng": -5.93473
  },
  {
    "id": 2287778,
    "name": "Jacqueville",
    "lat": 5.20515,
    "lng": -4.4146
  },
  {
    "id": 2285707,
    "name": "Kouto",
    "lat": 9.89029,
    "lng": -6.40921
  },
  {
    "id": 2280333,
    "name": "Toulépleu Gueré",
    "lat": 6.57395,
    "lng": -8.42592
  },
  {
    "id": 2290177,
    "name": "Dianra-Village",
    "lat": 8.76437,
    "lng": -6.24411
  },
  {
    "id": 2290403,
    "name": "Dapéoua",
    "lat": 6.13774,
    "lng": -6.87847
  },
  {
    "id": 12687526,
    "name": "Walébo",
    "lat": 5.58377,
    "lng": -6.83339
  },
  {
    "id": 2291383,
    "name": "Bocanda",
    "lat": 7.06264,
    "lng": -4.49948
  },
  {
    "id": 2279403,
    "name": "Zegban",
    "lat": 5.16369,
    "lng": -5.58882
  },
  {
    "id": 2281794,
    "name": "Sémien",
    "lat": 7.61419,
    "lng": -7.12955
  },
  {
    "id": 12687743,
    "name": "Scierie",
    "lat": 6.32778,
    "lng": -5.52229
  },
  {
    "id": 2290642,
    "name": "Bouandougou",
    "lat": 8.21598,
    "lng": -5.66962
  },
  {
    "id": 12687525,
    "name": "Adjaméné",
    "lat": 4.76645,
    "lng": -6.84326
  },
  {
    "id": 12687524,
    "name": "Lobogba",
    "lat": 5.98014,
    "lng": -6.73576
  },
  {
    "id": 2279709,
    "name": "Yaoudé",
    "lat": 6.5588,
    "lng": -7.44612
  },
  {
    "id": 2293486,
    "name": "Abongoua",
    "lat": 6.6527,
    "lng": -4.10178
  },
  {
    "id": 12687523,
    "name": "Gbliglo",
    "lat": 6.13533,
    "lng": -7.02576
  },
  {
    "id": 2292403,
    "name": "Bagohouo",
    "lat": 6.89011,
    "lng": -7.19282
  },
  {
    "id": 2290985,
    "name": "Botro",
    "lat": 7.85249,
    "lng": -5.31063
  },
  {
    "id": 7849903,
    "name": "Konédougou",
    "lat": 6.03991,
    "lng": -6.66579
  },
  {
    "id": 2290650,
    "name": "Butubré I",
    "lat": 5.51071,
    "lng": -6.44838
  },
  {
    "id": 2281904,
    "name": "Séchi",
    "lat": 6.25143,
    "lng": -4.42194
  },
  {
    "id": 2284576,
    "name": "Manzanoua",
    "lat": 6.84346,
    "lng": -3.28625
  },
  {
    "id": 12687742,
    "name": "Bamo",
    "lat": 5.80501,
    "lng": -5.96597
  },
  {
    "id": 2290194,
    "name": "Diangobo",
    "lat": 6.14632,
    "lng": -3.64219
  },
  {
    "id": 2281609,
    "name": "Sinématiali",
    "lat": 9.5841,
    "lng": -5.38476
  },
  {
    "id": 2290561,
    "name": "Dafrahinou Darinsala",
    "lat": 6.43243,
    "lng": -7.08849
  },
  {
    "id": 2288363,
    "name": "Goménébéri",
    "lat": 5.37889,
    "lng": -5.51833
  },
  {
    "id": 2287540,
    "name": "Kanakono",
    "lat": 10.35497,
    "lng": -6.23634
  },
  {
    "id": 2284243,
    "name": "Monoko Zohi Deux",
    "lat": 7.06992,
    "lng": -6.84476
  },
  {
    "id": 2292347,
    "name": "Bacon",
    "lat": 6.35602,
    "lng": -3.91017
  },
  {
    "id": 2292937,
    "name": "Ananguié",
    "lat": 6.22299,
    "lng": -3.77333
  },
  {
    "id": 2281374,
    "name": "Songan",
    "lat": 6.10929,
    "lng": -3.20843
  },
  {
    "id": 7848492,
    "name": "Ouattaradougou",
    "lat": 6.59172,
    "lng": -7.19591
  },
  {
    "id": 2279236,
    "name": "Zouan",
    "lat": 6.54502,
    "lng": -7.59902
  },
  {
    "id": 2288485,
    "name": "Gnato",
    "lat": 4.43338,
    "lng": -7.54031
  },
  {
    "id": 2288362,
    "name": "Gomon",
    "lat": 5.72358,
    "lng": -4.44129
  },
  {
    "id": 2279791,
    "name": "Yakassémé",
    "lat": 5.81052,
    "lng": -3.9511
  },
  {
    "id": 2279525,
    "name": "Zagoréta",
    "lat": 6.6756,
    "lng": -6.15347
  },
  {
    "id": 12688218,
    "name": "Zaguiéta",
    "lat": 6.78815,
    "lng": -6.06288
  },
  {
    "id": 2292626,
    "name": "Assuéfri",
    "lat": 7.69973,
    "lng": -2.97847
  },
  {
    "id": 2282012,
    "name": "Sankadiokro",
    "lat": 6.86165,
    "lng": -3.48564
  },
  {
    "id": 2288476,
    "name": "Gnouboyo",
    "lat": 5.878,
    "lng": -6.40086
  },
  {
    "id": 2291915,
    "name": "Bèfla",
    "lat": 7.21185,
    "lng": -6.13989
  },
  {
    "id": 2290474,
    "name": "Damé",
    "lat": 7.07085,
    "lng": -3.14883
  },
  {
    "id": 2288411,
    "name": "Gohitafla",
    "lat": 7.49076,
    "lng": -5.87952
  },
  {
    "id": 2291920,
    "name": "Bédigoazon",
    "lat": 6.56363,
    "lng": -7.77749
  },
  {
    "id": 2288604,
    "name": "Gbon",
    "lat": 9.83238,
    "lng": -6.44716
  },
  {
    "id": 2279370,
    "name": "Zérégbo",
    "lat": 7.07081,
    "lng": -7.91012
  },
  {
    "id": 2280053,
    "name": "Vaou",
    "lat": 7.44358,
    "lng": -6.99199
  },
  {
    "id": 2288251,
    "name": "Goudi",
    "lat": 6.12401,
    "lng": -5.10372
  },
  {
    "id": 2283307,
    "name": "Noé",
    "lat": 5.29388,
    "lng": -2.78478
  },
  {
    "id": 12687522,
    "name": "Goh",
    "lat": 5.2323,
    "lng": -6.63627
  },
  {
    "id": 12688217,
    "name": "Manfla",
    "lat": 7.41135,
    "lng": -5.91127
  },
  {
    "id": 2292767,
    "name": "Appouessou",
    "lat": 6.54846,
    "lng": -3.42755
  },
  {
    "id": 2570410,
    "name": "Pinhou",
    "lat": 6.92125,
    "lng": -7.75791
  },
  {
    "id": 2279427,
    "name": "Zaranou",
    "lat": 6.4265,
    "lng": -3.36171
  },
  {
    "id": 2292052,
    "name": "Grand Berebi",
    "lat": 4.65098,
    "lng": -6.9237
  },
  {
    "id": 2293262,
    "name": "Aniassué",
    "lat": 6.65368,
    "lng": -3.68103
  },
  {
    "id": 2280863,
    "name": "Téiri",
    "lat": 6.3981,
    "lng": -5.9846
  },
  {
    "id": 2289700,
    "name": "Douagué",
    "lat": 7.47944,
    "lng": -7.13336
  },
  {
    "id": 12687521,
    "name": "Lessiri",
    "lat": 5.90971,
    "lng": -6.48897
  },
  {
    "id": 12688536,
    "name": "Ayaou-Sokpa",
    "lat": 7.42057,
    "lng": -5.61407
  },
  {
    "id": 2292366,
    "name": "Bacanda",
    "lat": 5.63331,
    "lng": -4.87758
  },
  {
    "id": 2288627,
    "name": "Gbétogo",
    "lat": 8.12639,
    "lng": -6.94361
  },
  {
    "id": 12687741,
    "name": "Adahidoukou",
    "lat": 5.31083,
    "lng": -5.2246
  },
  {
    "id": 2293045,
    "name": "Alépé",
    "lat": 5.5004,
    "lng": -3.66308
  },
  {
    "id": 12687520,
    "name": "Tchétaly",
    "lat": 6.17923,
    "lng": -7.07116
  },
  {
    "id": 2288125,
    "name": "Grabo",
    "lat": 4.92035,
    "lng": -7.49562
  },
  {
    "id": 2287480,
    "name": "Kani",
    "lat": 8.47807,
    "lng": -6.60509
  },
  {
    "id": 2281562,
    "name": "Sirasso",
    "lat": 9.27425,
    "lng": -6.09897
  },
  {
    "id": 2290292,
    "name": "Danguira",
    "lat": 5.67033,
    "lng": -3.76763
  },
  {
    "id": 12688105,
    "name": "Guézon-Tahouaké",
    "lat": 7.0761,
    "lng": -7.18719
  },
  {
    "id": 12687519,
    "name": "Sarakagui",
    "lat": 5.81904,
    "lng": -6.80444
  },
  {
    "id": 2283611,
    "name": "Niakoblonyoa",
    "lat": 5.71802,
    "lng": -5.96702
  },
  {
    "id": 12688627,
    "name": "Bobosso-Tiénigbé",
    "lat": 8.45183,
    "lng": -5.78737
  },
  {
    "id": 12687518,
    "name": "Johin",
    "lat": 5.80465,
    "lng": -6.78437
  },
  {
    "id": 2280733,
    "name": "Tiégba",
    "lat": 6.2328,
    "lng": -5.65306
  },
  {
    "id": 2286069,
    "name": "Kouaméfra",
    "lat": 6.59205,
    "lng": -5.42399
  },
  {
    "id": 2292971,
    "name": "Amélékia",
    "lat": 6.83036,
    "lng": -3.57522
  },
  {
    "id": 2283184,
    "name": "Toumoukro",
    "lat": 10.3855,
    "lng": -5.75062
  },
  {
    "id": 2292542,
    "name": "Ayamé",
    "lat": 5.6052,
    "lng": -3.15709
  },
  {
    "id": 12687517,
    "name": "Gblétia",
    "lat": 5.6337,
    "lng": -6.62994
  },
  {
    "id": 2291153,
    "name": "Bonaouin",
    "lat": 6.56474,
    "lng": -3.76066
  },
  {
    "id": 2287663,
    "name": "Kagbé",
    "lat": 6.16599,
    "lng": -5.34964
  },
  {
    "id": 2292571,
    "name": "Atrobou",
    "lat": 6.09021,
    "lng": -4.0589
  },
  {
    "id": 2290256,
    "name": "Diabo",
    "lat": 7.78959,
    "lng": -5.17102
  },
  {
    "id": 2291708,
    "name": "Béttié",
    "lat": 6.07568,
    "lng": -3.40846
  },
  {
    "id": 2290680,
    "name": "Brou akpaousso",
    "lat": 6.90916,
    "lng": -4.05582
  },
  {
    "id": 2290529,
    "name": "Dahiri",
    "lat": 5.26206,
    "lng": -5.52897
  },
  {
    "id": 2279424,
    "name": "Zata",
    "lat": 6.87914,
    "lng": -5.40398
  },
  {
    "id": 2285919,
    "name": "Kouétinfla",
    "lat": 6.61223,
    "lng": -6.06037
  },
  {
    "id": 2292678,
    "name": "Assié koumassi",
    "lat": 6.76966,
    "lng": -4.28954
  },
  {
    "id": 2280708,
    "name": "Tiémélékro",
    "lat": 6.49214,
    "lng": -4.61985
  },
  {
    "id": 2293550,
    "name": "Abongoua",
    "lat": 6.24709,
    "lng": -3.54335
  },
  {
    "id": 2288093,
    "name": "Grébouo",
    "lat": 5.66667,
    "lng": -6.33333
  },
  {
    "id": 2289505,
    "name": "Diarabana",
    "lat": 8.18668,
    "lng": -6.60866
  },
  {
    "id": 2284758,
    "name": "Madogé",
    "lat": 7.02886,
    "lng": -6.47253
  },
  {
    "id": 2283006,
    "name": "Offumpo",
    "lat": 5.95186,
    "lng": -4.45667
  },
  {
    "id": 2286279,
    "name": "Korokaha",
    "lat": 9.90059,
    "lng": -5.62764
  },
  {
    "id": 2287587,
    "name": "Kamala",
    "lat": 8.43434,
    "lng": -2.72108
  },
  {
    "id": 2287158,
    "name": "Kétésso",
    "lat": 5.87796,
    "lng": -3.17407
  },
  {
    "id": 2279904,
    "name": "Ouamélhoro",
    "lat": 10.33226,
    "lng": -5.62113
  },
  {
    "id": 12687516,
    "name": "Ottawa",
    "lat": 5.71842,
    "lng": -6.27466
  },
  {
    "id": 7848491,
    "name": "Tobly Bangolo",
    "lat": 6.74276,
    "lng": -7.18864
  },
  {
    "id": 2290101,
    "name": "Diédrou",
    "lat": 6.99139,
    "lng": -7.77825
  },
  {
    "id": 2286675,
    "name": "Kokoumbo",
    "lat": 6.54246,
    "lng": -5.25925
  },
  {
    "id": 8032190,
    "name": "Kacoukro",
    "lat": 5.29605,
    "lng": -3.37752
  },
  {
    "id": 12687406,
    "name": "Saph",
    "lat": 5.13289,
    "lng": -6.72693
  },
  {
    "id": 2283657,
    "name": "Nguinou",
    "lat": 6.75052,
    "lng": -4.16133
  },
  {
    "id": 2279242,
    "name": "Zoroyo",
    "lat": 5.89548,
    "lng": -6.65079
  },
  {
    "id": 12688216,
    "name": "Gbabo",
    "lat": 7.12097,
    "lng": -6.76377
  },
  {
    "id": 2284260,
    "name": "Momiraso",
    "lat": 9.70654,
    "lng": -5.16887
  },
  {
    "id": 2280258,
    "name": "Trahé",
    "lat": 4.71577,
    "lng": -7.17566
  },
  {
    "id": 12688215,
    "name": "Séitifla",
    "lat": 7.43926,
    "lng": -6.71813
  },
  {
    "id": 12687740,
    "name": "Broudoukou-Kpenda",
    "lat": 5.52314,
    "lng": -5.51411
  },
  {
    "id": 2281653,
    "name": "Siétinfla",
    "lat": 6.82764,
    "lng": -5.73008
  },
  {
    "id": 2279407,
    "name": "Zéga",
    "lat": 6.50061,
    "lng": -6.42126
  },
  {
    "id": 2293278,
    "name": "Agbaou",
    "lat": 6.34136,
    "lng": -3.85433
  },
  {
    "id": 2288310,
    "name": "Brobo",
    "lat": 7.64026,
    "lng": -4.82541
  },
  {
    "id": 12688214,
    "name": "Complexe",
    "lat": 7.60288,
    "lng": -6.14386
  },
  {
    "id": 12687394,
    "name": "Hannié",
    "lat": 5.19401,
    "lng": -7.35304
  },
  {
    "id": 2282033,
    "name": "Sangouiné",
    "lat": 7.27472,
    "lng": -7.77944
  },
  {
    "id": 2279491,
    "name": "Zambakro",
    "lat": 6.73322,
    "lng": -5.41117
  },
  {
    "id": 2287150,
    "name": "Kétro",
    "lat": 7.18256,
    "lng": -6.643
  },
  {
    "id": 7848488,
    "name": "Dibobli",
    "lat": 6.73952,
    "lng": -7.02156
  },
  {
    "id": 2285711,
    "name": "Kouta",
    "lat": 5.48849,
    "lng": -5.23249
  },
  {
    "id": 2290117,
    "name": "Didiévi",
    "lat": 7.12866,
    "lng": -4.89804
  },
  {
    "id": 2287346,
    "name": "Kasséré",
    "lat": 9.82723,
    "lng": -6.2167
  },
  {
    "id": 2280311,
    "name": "Tomono",
    "lat": 8.32598,
    "lng": -6.10395
  },
  {
    "id": 2291874,
    "name": "Bécouéfin",
    "lat": 6.48086,
    "lng": -3.84625
  },
  {
    "id": 12688104,
    "name": "Tacourably",
    "lat": 7.2551,
    "lng": -7.17898
  },
  {
    "id": 2284061,
    "name": "Nékédé",
    "lat": 6.46392,
    "lng": -5.99848
  },
  {
    "id": 12687465,
    "name": "Gnititoigui",
    "lat": 5.34392,
    "lng": -6.48204
  },
  {
    "id": 2286734,
    "name": "Kouassi-Kouassikro",
    "lat": 7.34141,
    "lng": -4.67709
  },
  {
    "id": 12687739,
    "name": "Datta",
    "lat": 5.9363,
    "lng": -5.32465
  },
  {
    "id": 12687515,
    "name": "Ipouagui",
    "lat": 5.51902,
    "lng": -6.83564
  },
  {
    "id": 2282414,
    "name": "Pogo",
    "lat": 10.43669,
    "lng": -5.63062
  },
  {
    "id": 2280665,
    "name": "Tieupleu",
    "lat": 7.04069,
    "lng": -8.15318
  },
  {
    "id": 12688103,
    "name": "Gourané",
    "lat": 7.61198,
    "lng": -7.2986
  },
  {
    "id": 12687514,
    "name": "Blahou",
    "lat": 4.93107,
    "lng": -6.55781
  },
  {
    "id": 2279710,
    "name": "Yaou",
    "lat": 5.79773,
    "lng": -3.13823
  },
  {
    "id": 2288982,
    "name": "Floleu",
    "lat": 6.84397,
    "lng": -8.12554
  },
  {
    "id": 2280951,
    "name": "Taobly",
    "lat": 7.41388,
    "lng": -7.18576
  },
  {
    "id": 2287564,
    "name": "Kami",
    "lat": 6.88289,
    "lng": -5.27871
  },
  {
    "id": 2279794,
    "name": "Yakassé-Feyassé",
    "lat": 6.9557,
    "lng": -3.4126
  },
  {
    "id": 12688409,
    "name": "Sodesucre Village",
    "lat": 9.50652,
    "lng": -5.27788
  },
  {
    "id": 2289526,
    "name": "Diafla",
    "lat": 7.42124,
    "lng": -6.86751
  },
  {
    "id": 2291571,
    "name": "Bin-Houyé",
    "lat": 6.78241,
    "lng": -8.31311
  },
  {
    "id": 2282276,
    "name": "Prikro",
    "lat": 7.64705,
    "lng": -3.99626
  },
  {
    "id": 2285043,
    "name": "Lokbonoun",
    "lat": 8.06667,
    "lng": -5.26667
  },
  {
    "id": 2282203,
    "name": "Sago",
    "lat": 5.267,
    "lng": -5.91611
  },
  {
    "id": 12687738,
    "name": "Wagana",
    "lat": 5.58147,
    "lng": -5.36776
  },
  {
    "id": 7849319,
    "name": "Dahira",
    "lat": 6.54137,
    "lng": -6.32131
  },
  {
    "id": 2280688,
    "name": "Tiéningboué",
    "lat": 8.17838,
    "lng": -5.72147
  },
  {
    "id": 2280794,
    "name": "Tiébiéssou",
    "lat": 5.3525,
    "lng": -4.89056
  },
  {
    "id": 2279215,
    "name": "Zoukouboué",
    "lat": 7.1112,
    "lng": -6.78102
  },
  {
    "id": 2292603,
    "name": "Attinguié",
    "lat": 6.06445,
    "lng": -4.5485
  },
  {
    "id": 2284910,
    "name": "Lopou",
    "lat": 5.42176,
    "lng": -4.46967
  },
  {
    "id": 2287510,
    "name": "Kanébly",
    "lat": 7.48122,
    "lng": -7.03262
  },
  {
    "id": 2291930,
    "name": "Bécédi",
    "lat": 5.64167,
    "lng": -4.58216
  },
  {
    "id": 2279459,
    "name": "Zangué",
    "lat": 6.43055,
    "lng": -5.35551
  },
  {
    "id": 2290681,
    "name": "Brouafla-nattis",
    "lat": 7.59623,
    "lng": -6.51838
  },
  {
    "id": 2570409,
    "name": "Blaguiéhi",
    "lat": 6.95799,
    "lng": -7.66503
  },
  {
    "id": 2284013,
    "name": "Nanandy",
    "lat": 6.7425,
    "lng": -7.1698
  },
  {
    "id": 2291453,
    "name": "Blodi",
    "lat": 6.79396,
    "lng": -7.2972
  },
  {
    "id": 7849856,
    "name": "Diassa",
    "lat": 6.41587,
    "lng": -6.69652
  },
  {
    "id": 2281641,
    "name": "Sikensi",
    "lat": 5.66829,
    "lng": -4.57371
  },
  {
    "id": 2280435,
    "name": "Tonla",
    "lat": 6.35395,
    "lng": -5.644
  },
  {
    "id": 2292562,
    "name": "Attinguié",
    "lat": 5.46739,
    "lng": -4.18549
  },
  {
    "id": 12687513,
    "name": "Djigbagui",
    "lat": 5.61444,
    "lng": -6.87374
  },
  {
    "id": 2292363,
    "name": "Bakayo",
    "lat": 5.53272,
    "lng": -6.04418
  },
  {
    "id": 2291198,
    "name": "Boli",
    "lat": 7.22648,
    "lng": -4.80666
  },
  {
    "id": 2292108,
    "name": "Baonfla",
    "lat": 6.83328,
    "lng": -5.49849
  },
  {
    "id": 2287925,
    "name": "Guitrozon",
    "lat": 6.75012,
    "lng": -7.3714
  },
  {
    "id": 12687512,
    "name": "Takoréagui",
    "lat": 5.75692,
    "lng": -6.79092
  },
  {
    "id": 2596907,
    "name": "Bakanou A",
    "lat": 5.59411,
    "lng": -4.63455
  },
  {
    "id": 12687511,
    "name": "Gnagboya",
    "lat": 6.07877,
    "lng": -6.93104
  },
  {
    "id": 2292479,
    "name": "Bably",
    "lat": 7.02553,
    "lng": -7.87339
  },
  {
    "id": 2292953,
    "name": "Amoriakro",
    "lat": 7.09941,
    "lng": -3.52821
  },
  {
    "id": 2287281,
    "name": "Katiali",
    "lat": 9.82268,
    "lng": -5.93381
  },
  {
    "id": 2285992,
    "name": "Assaie-kouassikro",
    "lat": 6.96509,
    "lng": -3.90343
  },
  {
    "id": 12687510,
    "name": "Sagboya",
    "lat": 5.96571,
    "lng": -6.91331
  },
  {
    "id": 2290114,
    "name": "Didoko",
    "lat": 6.02111,
    "lng": -5.31207
  },
  {
    "id": 2279822,
    "name": "Yacoéoua",
    "lat": 5.97747,
    "lng": -6.48762
  },
  {
    "id": 2279546,
    "name": "Zaadi",
    "lat": 6.33317,
    "lng": -5.73659
  },
  {
    "id": 12687509,
    "name": "Kpotè",
    "lat": 4.87116,
    "lng": -6.53403
  },
  {
    "id": 8032096,
    "name": "Kohourou",
    "lat": 5.47964,
    "lng": -3.32856
  },
  {
    "id": 2282310,
    "name": "Poumbly",
    "lat": 7.359,
    "lng": -7.20527
  },
  {
    "id": 2280449,
    "name": "Tongouolan",
    "lat": 7.16499,
    "lng": -3.30552
  },
  {
    "id": 2290710,
    "name": "Brizéboua",
    "lat": 7.00954,
    "lng": -6.46905
  },
  {
    "id": 2284063,
    "name": "Nakara",
    "lat": 8.25783,
    "lng": -5.63704
  },
  {
    "id": 2280322,
    "name": "Tombokro",
    "lat": 6.92669,
    "lng": -5.49965
  },
  {
    "id": 2280217,
    "name": "Troya",
    "lat": 6.25218,
    "lng": -7.49524
  },
  {
    "id": 2289033,
    "name": "Fiassé",
    "lat": 6.16357,
    "lng": -3.63625
  },
  {
    "id": 12687737,
    "name": "Brihi",
    "lat": 6.45027,
    "lng": -5.91893
  },
  {
    "id": 2282518,
    "name": "Petit Badien",
    "lat": 5.2567,
    "lng": -4.63988
  },
  {
    "id": 2289503,
    "name": "Dialakoro",
    "lat": 8.1921,
    "lng": -5.8429
  },
  {
    "id": 2281734,
    "name": "Sérihio",
    "lat": 5.90051,
    "lng": -6.11755
  },
  {
    "id": 2282745,
    "name": "Ouyabli",
    "lat": 7.32723,
    "lng": -7.20838
  },
  {
    "id": 12687595,
    "name": "Amian",
    "lat": 6.46745,
    "lng": -3.64043
  },
  {
    "id": 2290665,
    "name": "Broukro",
    "lat": 6.6464,
    "lng": -4.22305
  },
  {
    "id": 2284803,
    "name": "Loviguié I",
    "lat": 5.80761,
    "lng": -4.33836
  },
  {
    "id": 2279959,
    "name": "Ouaninou",
    "lat": 8.2379,
    "lng": -7.86638
  },
  {
    "id": 12688213,
    "name": "Garango",
    "lat": 6.96301,
    "lng": -5.80875
  },
  {
    "id": 2290821,
    "name": "Bounta",
    "lat": 7.64675,
    "lng": -7.95915
  },
  {
    "id": 2287766,
    "name": "Kaadé",
    "lat": 6.56928,
    "lng": -7.71427
  },
  {
    "id": 2285671,
    "name": "Koziayo II",
    "lat": 5.92426,
    "lng": -6.34379
  },
  {
    "id": 2284590,
    "name": "Minignan",
    "lat": 9.99744,
    "lng": -7.83593
  },
  {
    "id": 12687736,
    "name": "Nagadoukou",
    "lat": 6.42583,
    "lng": -5.78126
  },
  {
    "id": 2280335,
    "name": "Toulépleu",
    "lat": 6.57974,
    "lng": -8.41091
  },
  {
    "id": 2286221,
    "name": "Kotobi",
    "lat": 6.69569,
    "lng": -4.12892
  },
  {
    "id": 12687735,
    "name": "Ziplignan",
    "lat": 6.44853,
    "lng": -5.84019
  },
  {
    "id": 2287451,
    "name": "Kanoroba",
    "lat": 9.11088,
    "lng": -6.12238
  },
  {
    "id": 2284761,
    "name": "Madinani",
    "lat": 9.61083,
    "lng": -6.94215
  },
  {
    "id": 2284843,
    "name": "Loua",
    "lat": 6.43822,
    "lng": -5.60554
  },
  {
    "id": 2287634,
    "name": "Kako",
    "lat": 4.77572,
    "lng": -7.01707
  },
  {
    "id": 2280069,
    "name": "Vaafla",
    "lat": 7.41806,
    "lng": -6.64861
  },
  {
    "id": 2285889,
    "name": "Koulaéoué",
    "lat": 7.04434,
    "lng": -7.88591
  },
  {
    "id": 12688102,
    "name": "Doumbiadougou",
    "lat": 6.60253,
    "lng": -7.31889
  },
  {
    "id": 2293328,
    "name": "Aféré",
    "lat": 6.90283,
    "lng": -4.08374
  },
  {
    "id": 2284288,
    "name": "Moapé",
    "lat": 6.18888,
    "lng": -3.80369
  },
  {
    "id": 12687594,
    "name": "Affalikro",
    "lat": 6.64548,
    "lng": -3.38381
  },
  {
    "id": 2292211,
    "name": "Bandiay",
    "lat": 7.2,
    "lng": -6.18333
  },
  {
    "id": 12687507,
    "name": "Kpada",
    "lat": 5.77996,
    "lng": -6.48509
  },
  {
    "id": 2281349,
    "name": "Sononzo",
    "lat": 8.62639,
    "lng": -6.13
  },
  {
    "id": 12687734,
    "name": "Zohoa",
    "lat": 6.32387,
    "lng": -6.15829
  },
  {
    "id": 2279695,
    "name": "Yapleu",
    "lat": 7.09056,
    "lng": -7.71028
  },
  {
    "id": 2290144,
    "name": "Diby",
    "lat": 5.65774,
    "lng": -2.97845
  },
  {
    "id": 2293321,
    "name": "Affiénou",
    "lat": 5.41118,
    "lng": -2.92478
  },
  {
    "id": 12687506,
    "name": "Moussayo",
    "lat": 5.98952,
    "lng": -6.43714
  },
  {
    "id": 12687505,
    "name": "Kodaya",
    "lat": 5.99517,
    "lng": -6.97259
  },
  {
    "id": 2282866,
    "name": "Ouellé",
    "lat": 7.29611,
    "lng": -4.01364
  },
  {
    "id": 12687504,
    "name": "Trawaininkro",
    "lat": 6.06286,
    "lng": -6.88054
  },
  {
    "id": 2282609,
    "name": "Pauli-Brousse",
    "lat": 4.96289,
    "lng": -6.18983
  },
  {
    "id": 2281475,
    "name": "Soko",
    "lat": 7.99173,
    "lng": -2.74435
  },
  {
    "id": 2288497,
    "name": "Gloplou",
    "lat": 7.11261,
    "lng": -7.35152
  },
  {
    "id": 2288091,
    "name": "Grégbeu",
    "lat": 6.80685,
    "lng": -6.71716
  },
  {
    "id": 12687503,
    "name": "Wonséaly",
    "lat": 6.17149,
    "lng": -7.03729
  },
  {
    "id": 2289543,
    "name": "Duférébo",
    "lat": 7.08976,
    "lng": -3.44624
  },
  {
    "id": 12688101,
    "name": "Gonié-Tahouaké",
    "lat": 7.13159,
    "lng": -7.29997
  },
  {
    "id": 8031882,
    "name": "Samo",
    "lat": 5.284,
    "lng": -3.51785
  },
  {
    "id": 12687733,
    "name": "Kadéko",
    "lat": 6.09846,
    "lng": -5.58439
  },
  {
    "id": 2293085,
    "name": "Akridou",
    "lat": 5.62668,
    "lng": -5.60681
  },
  {
    "id": 12687857,
    "name": "Tiékou-Carrefour",
    "lat": 6.35872,
    "lng": -4.28598
  },
  {
    "id": 2281142,
    "name": "Tabo",
    "lat": 6.2361,
    "lng": -5.13745
  },
  {
    "id": 12687732,
    "name": "Dougodou",
    "lat": 5.30101,
    "lng": -5.35141
  },
  {
    "id": 12687964,
    "name": "Assangbadji",
    "lat": 6.40782,
    "lng": -3.87669
  },
  {
    "id": 2288447,
    "name": "Godélilié",
    "lat": 6.0456,
    "lng": -5.84345
  },
  {
    "id": 12688100,
    "name": "Tié-Iné",
    "lat": 6.90141,
    "lng": -7.59785
  },
  {
    "id": 2281973,
    "name": "Sapli",
    "lat": 8.14477,
    "lng": -2.98627
  },
  {
    "id": 2285614,
    "name": "Kregbé",
    "lat": 6.97249,
    "lng": -3.98416
  },
  {
    "id": 2280143,
    "name": "Tiéme",
    "lat": 9.54452,
    "lng": -7.31778
  },
  {
    "id": 2286459,
    "name": "Kong",
    "lat": 6.11391,
    "lng": -3.64849
  },
  {
    "id": 12687502,
    "name": "Liliyo",
    "lat": 5.99473,
    "lng": -6.3573
  },
  {
    "id": 12688408,
    "name": "Djélisso",
    "lat": 10.19489,
    "lng": -5.39097
  },
  {
    "id": 2283847,
    "name": "N’deou",
    "lat": 9.97,
    "lng": -6.61823
  },
  {
    "id": 7849854,
    "name": "Namane",
    "lat": 6.42177,
    "lng": -6.68203
  },
  {
    "id": 2290819,
    "name": "Bouoissué",
    "lat": 6.96348,
    "lng": -3.2324
  },
  {
    "id": 2290169,
    "name": "Diapé",
    "lat": 6.0142,
    "lng": -3.92726
  },
  {
    "id": 12688211,
    "name": "N'Douffoukankro",
    "lat": 6.8616,
    "lng": -5.82098
  },
  {
    "id": 2286007,
    "name": "Kouassi-Datékro",
    "lat": 7.8175,
    "lng": -3.52556
  },
  {
    "id": 2288207,
    "name": "Gbeya",
    "lat": 10.31053,
    "lng": -6.93507
  },
  {
    "id": 12687501,
    "name": "Négbatchi",
    "lat": 4.89972,
    "lng": -7.46838
  },
  {
    "id": 2286892,
    "name": "Kodioussou",
    "lat": 5.77116,
    "lng": -3.75595
  },
  {
    "id": 2291027,
    "name": "Boron",
    "lat": 8.69445,
    "lng": -5.96906
  },
  {
    "id": 2279393,
    "name": "Zékrézinssou",
    "lat": 7.07158,
    "lng": -4.28036
  },
  {
    "id": 2291257,
    "name": "Bohinou",
    "lat": 7.17337,
    "lng": -6.83116
  },
  {
    "id": 2284404,
    "name": "Memni",
    "lat": 5.51121,
    "lng": -3.73995
  },
  {
    "id": 2290310,
    "name": "Déma",
    "lat": 7.30833,
    "lng": -6.48194
  },
  {
    "id": 2290438,
    "name": "Dania",
    "lat": 7.15082,
    "lng": -6.84125
  },
  {
    "id": 2597112,
    "name": "Adaou",
    "lat": 5.42783,
    "lng": -3.26443
  },
  {
    "id": 2290335,
    "name": "Dédifla",
    "lat": 7.2851,
    "lng": -6.58711
  },
  {
    "id": 2292399,
    "name": "Bagouri",
    "lat": 7.12992,
    "lng": -6.81457
  },
  {
    "id": 2596814,
    "name": "Tézié",
    "lat": 6.3875,
    "lng": -6.3025
  },
  {
    "id": 12688535,
    "name": "Sran-Bélakro",
    "lat": 7.35138,
    "lng": -5.59067
  },
  {
    "id": 2282250,
    "name": "Raviart",
    "lat": 7.40422,
    "lng": -4.88668
  },
  {
    "id": 2596951,
    "name": "Agou",
    "lat": 5.98289,
    "lng": -3.94393
  },
  {
    "id": 2284583,
    "name": "Manoufla",
    "lat": 6.6195,
    "lng": -5.62714
  },
  {
    "id": 12687731,
    "name": "Goudouko",
    "lat": 5.73666,
    "lng": -5.61581
  },
  {
    "id": 2279539,
    "name": "Zabré",
    "lat": 5.31012,
    "lng": -6.27536
  },
  {
    "id": 12687500,
    "name": "Magnéry",
    "lat": 4.94007,
    "lng": -6.92193
  },
  {
    "id": 2570408,
    "name": "Koulouan",
    "lat": 6.95309,
    "lng": -7.69888
  },
  {
    "id": 2285596,
    "name": "Krinjabo",
    "lat": 5.39733,
    "lng": -3.21357
  },
  {
    "id": 2288102,
    "name": "Grand Morié",
    "lat": 5.98312,
    "lng": -4.13537
  },
  {
    "id": 8032042,
    "name": "Alosso-II",
    "lat": 5.56437,
    "lng": -3.50035
  },
  {
    "id": 2290396,
    "name": "Darakokaha",
    "lat": 8.28921,
    "lng": -5.15868
  },
  {
    "id": 2287940,
    "name": "Guinkin",
    "lat": 6.5667,
    "lng": -7.72277
  },
  {
    "id": 12687392,
    "name": "Néro",
    "lat": 4.50817,
    "lng": -7.5212
  },
  {
    "id": 2289222,
    "name": "Faraba",
    "lat": 8.65459,
    "lng": -6.252
  },
  {
    "id": 2281075,
    "name": "Taï",
    "lat": 5.87366,
    "lng": -7.45519
  },
  {
    "id": 2596993,
    "name": "Sanhoukro",
    "lat": 5.78499,
    "lng": -3.12968
  },
  {
    "id": 2290917,
    "name": "Boudépé",
    "lat": 5.98392,
    "lng": -3.98698
  },
  {
    "id": 12688099,
    "name": "Kéibly",
    "lat": 5.99636,
    "lng": -7.4726
  },
  {
    "id": 12687730,
    "name": "Cfi-Baroko",
    "lat": 5.72051,
    "lng": -5.17192
  },
  {
    "id": 2283930,
    "name": "Napié",
    "lat": 9.28868,
    "lng": -5.58324
  },
  {
    "id": 2292718,
    "name": "Assaoufoué",
    "lat": 6.57675,
    "lng": -4.22405
  },
  {
    "id": 2292866,
    "name": "Anoumaba",
    "lat": 6.33735,
    "lng": -4.51626
  },
  {
    "id": 2596986,
    "name": "Appouasso",
    "lat": 5.96305,
    "lng": -3.17605
  },
  {
    "id": 12687963,
    "name": "Ellibou",
    "lat": 5.6882,
    "lng": -4.51
  },
  {
    "id": 2292877,
    "name": "Anno",
    "lat": 5.85952,
    "lng": -4.37902
  },
  {
    "id": 2284032,
    "name": "Nambézaria",
    "lat": 5.65,
    "lng": -5.75
  },
  {
    "id": 12687593,
    "name": "Siakakro",
    "lat": 6.91244,
    "lng": -3.24469
  },
  {
    "id": 2285508,
    "name": "Labodougou",
    "lat": 5.71433,
    "lng": -5.41263
  },
  {
    "id": 2282955,
    "name": "Oress-Krobou",
    "lat": 5.7324,
    "lng": -4.3947
  },
  {
    "id": 12687499,
    "name": "Mayakoffikro",
    "lat": 6.27502,
    "lng": -6.99623
  },
  {
    "id": 2597109,
    "name": "Assouba",
    "lat": 5.45956,
    "lng": -3.25653
  },
  {
    "id": 2293269,
    "name": "Agbossou",
    "lat": 6.86144,
    "lng": -4.0816
  },
  {
    "id": 12687498,
    "name": "Gnipi",
    "lat": 5.66876,
    "lng": -6.64374
  },
  {
    "id": 7848486,
    "name": "Ledjean",
    "lat": 6.92867,
    "lng": -7.10539
  },
  {
    "id": 2282706,
    "name": "Pakouabo",
    "lat": 7.15724,
    "lng": -5.7925
  },
  {
    "id": 2290654,
    "name": "Brozan",
    "lat": 6.39873,
    "lng": -5.50306
  },
  {
    "id": 12687729,
    "name": "Kazéribéri",
    "lat": 5.63899,
    "lng": -5.61016
  },
  {
    "id": 2287360,
    "name": "Karié",
    "lat": 5.437,
    "lng": -7.33944
  },
  {
    "id": 2280988,
    "name": "Talléré",
    "lat": 9.20084,
    "lng": -6.14807
  },
  {
    "id": 2285350,
    "name": "Latokaha",
    "lat": 8.62257,
    "lng": -5.38733
  },
  {
    "id": 2281571,
    "name": "Sipilou",
    "lat": 7.8645,
    "lng": -8.10143
  },
  {
    "id": 2596997,
    "name": "Mborou",
    "lat": 5.59474,
    "lng": -4.36334
  },
  {
    "id": 2285362,
    "name": "Lataha",
    "lat": 9.56724,
    "lng": -5.59098
  },
  {
    "id": 2291148,
    "name": "Booda",
    "lat": 6.36075,
    "lng": -5.68817
  },
  {
    "id": 2287428,
    "name": "Kanzra",
    "lat": 7.32282,
    "lng": -6.22237
  },
  {
    "id": 2292663,
    "name": "Assinie-Mafia",
    "lat": 5.13384,
    "lng": -3.29096
  },
  {
    "id": 2279222,
    "name": "Zouhounou",
    "lat": 6.61217,
    "lng": -3.29229
  },
  {
    "id": 2291409,
    "name": "Bobi",
    "lat": 8.16144,
    "lng": -6.55006
  },
  {
    "id": 2292535,
    "name": "Ayénoua",
    "lat": 5.36681,
    "lng": -3.31774
  },
  {
    "id": 12688210,
    "name": "Gbéhigbly",
    "lat": 7.25591,
    "lng": -7.05965
  },
  {
    "id": 2280901,
    "name": "Tayo",
    "lat": 5.66667,
    "lng": -6.35
  },
  {
    "id": 2279474,
    "name": "Zanfouénou",
    "lat": 6.70516,
    "lng": -4.10607
  },
  {
    "id": 2287859,
    "name": "Iboguhé",
    "lat": 6.5481,
    "lng": -6.84419
  },
  {
    "id": 2283475,
    "name": "Nidrou",
    "lat": 6.90202,
    "lng": -7.18141
  },
  {
    "id": 2292173,
    "name": "Bangoua",
    "lat": 7.33542,
    "lng": -3.47303
  },
  {
    "id": 12688513,
    "name": "Sucaf Ci Village",
    "lat": 9.29837,
    "lng": -5.29325
  },
  {
    "id": 2279861,
    "name": "Wora",
    "lat": 10.08407,
    "lng": -6.32683
  },
  {
    "id": 2293096,
    "name": "Akradio",
    "lat": 5.43719,
    "lng": -4.36353
  },
  {
    "id": 12687497,
    "name": "Gbalébouo",
    "lat": 5.73699,
    "lng": -6.34582
  },
  {
    "id": 2291177,
    "name": "Bolona",
    "lat": 10.29666,
    "lng": -6.43756
  },
  {
    "id": 2291658,
    "name": "Biasso",
    "lat": 6.11151,
    "lng": -3.78657
  },
  {
    "id": 2291469,
    "name": "Blésségue",
    "lat": 10.19833,
    "lng": -6.40778
  },
  {
    "id": 2285677,
    "name": "Koyékro",
    "lat": 6.15253,
    "lng": -4.74567
  },
  {
    "id": 2284706,
    "name": "Mahra",
    "lat": 8.67927,
    "lng": -5.97627
  },
  {
    "id": 2293452,
    "name": "Abradine",
    "lat": 6.19975,
    "lng": -3.61125
  },
  {
    "id": 2285831,
    "name": "Koun-Fao",
    "lat": 7.48764,
    "lng": -3.25249
  },
  {
    "id": 2285826,
    "name": "Kounahiri",
    "lat": 7.79089,
    "lng": -5.83477
  },
  {
    "id": 2284193,
    "name": "Montézo",
    "lat": 5.48556,
    "lng": -3.74027
  },
  {
    "id": 2292765,
    "name": "Apprompron",
    "lat": 6.29219,
    "lng": -3.31526
  },
  {
    "id": 2290475,
    "name": "Diamarakro",
    "lat": 6.23681,
    "lng": -3.32006
  },
  {
    "id": 2289777,
    "name": "Doké",
    "lat": 6.59281,
    "lng": -8.11205
  },
  {
    "id": 12687496,
    "name": "Ziéagui",
    "lat": 5.56399,
    "lng": -6.90694
  },
  {
    "id": 2290197,
    "name": "Diangbanasso",
    "lat": 9.08161,
    "lng": -4.6415
  },
  {
    "id": 2285381,
    "name": "Laouda",
    "lat": 6.20829,
    "lng": -5.70204
  },
  {
    "id": 2279967,
    "name": "Ouandérama-Dioulasso",
    "lat": 8.65,
    "lng": -4.4
  },
  {
    "id": 12687728,
    "name": "Wanéwa",
    "lat": 5.82369,
    "lng": -6.11183
  },
  {
    "id": 2291504,
    "name": "Blapleu",
    "lat": 7.63918,
    "lng": -7.73705
  },
  {
    "id": 2280083,
    "name": "Tyonlé",
    "lat": 7.0564,
    "lng": -7.66649
  },
  {
    "id": 12687495,
    "name": "Kagnénako",
    "lat": 5.81191,
    "lng": -6.349
  },
  {
    "id": 2290528,
    "name": "Dairo",
    "lat": 5.66059,
    "lng": -5.47393
  },
  {
    "id": 2597029,
    "name": "Nzodji",
    "lat": 5.59375,
    "lng": -3.85083
  },
  {
    "id": 2280973,
    "name": "Tankéssi",
    "lat": 7.34908,
    "lng": -3.20347
  },
  {
    "id": 8356569,
    "name": "Toumanguié",
    "lat": 5.32703,
    "lng": -3.32374
  },
  {
    "id": 2281097,
    "name": "Tagadi",
    "lat": 8.63154,
    "lng": -2.62515
  },
  {
    "id": 2283232,
    "name": "Nougoua",
    "lat": 5.34177,
    "lng": -2.77659
  },
  {
    "id": 2290178,
    "name": "Dianoufla",
    "lat": 6.79928,
    "lng": -6.01422
  },
  {
    "id": 12687962,
    "name": "Nouvel-Ousrou",
    "lat": 5.41101,
    "lng": -4.51335
  },
  {
    "id": 2289434,
    "name": "Ebikro-Ndakro",
    "lat": 5.725,
    "lng": -3.11099
  },
  {
    "id": 2290626,
    "name": "Chiépo",
    "lat": 5.69519,
    "lng": -5.06251
  },
  {
    "id": 2279375,
    "name": "Zépréguhé",
    "lat": 6.90617,
    "lng": -6.3704
  },
  {
    "id": 2280582,
    "name": "Tinhou",
    "lat": 6.43832,
    "lng": -8.1561
  },
  {
    "id": 12687881,
    "name": "Amani",
    "lat": 5.69753,
    "lng": -4.72254
  },
  {
    "id": 12687493,
    "name": "Niorouhio",
    "lat": 5.76837,
    "lng": -6.12006
  },
  {
    "id": 12688209,
    "name": "Benhuafla",
    "lat": 6.59526,
    "lng": -5.87943
  },
  {
    "id": 2285942,
    "name": "Koudougou",
    "lat": 6.93528,
    "lng": -5.6663
  },
  {
    "id": 7849875,
    "name": "Lobozoa",
    "lat": 6.21819,
    "lng": -6.95554
  },
  {
    "id": 12688208,
    "name": "Diacohou-Sud",
    "lat": 6.78794,
    "lng": -5.87103
  },
  {
    "id": 2282099,
    "name": "San",
    "lat": 10.3905,
    "lng": -6.43582
  },
  {
    "id": 2284658,
    "name": "Maminigui",
    "lat": 7.40183,
    "lng": -5.84077
  },
  {
    "id": 2285438,
    "name": "Lalogo",
    "lat": 8.83327,
    "lng": -6.3566
  },
  {
    "id": 12687492,
    "name": "Bricolo",
    "lat": 5.78502,
    "lng": -6.45205
  },
  {
    "id": 2286237,
    "name": "Kosso",
    "lat": 5.04973,
    "lng": -5.77883
  },
  {
    "id": 2281999,
    "name": "Santa",
    "lat": 7.66389,
    "lng": -7.84778
  },
  {
    "id": 2286487,
    "name": "Kodiébouman",
    "lat": 6.22107,
    "lng": -4.54056
  },
  {
    "id": 2285287,
    "name": "Léléblé",
    "lat": 6.23311,
    "lng": -5.22341
  },
  {
    "id": 12688098,
    "name": "Zaodrou",
    "lat": 7.15835,
    "lng": -7.1848
  },
  {
    "id": 2280521,
    "name": "Toazéo",
    "lat": 6.79943,
    "lng": -7.32988
  },
  {
    "id": 2291791,
    "name": "Benzra",
    "lat": 7.32774,
    "lng": -6.00849
  },
  {
    "id": 2289415,
    "name": "Abronambué",
    "lat": 6.75611,
    "lng": -3.34139
  },
  {
    "id": 2288791,
    "name": "Gangbapleu",
    "lat": 7.74878,
    "lng": -7.89301
  },
  {
    "id": 12688407,
    "name": "Mougnini",
    "lat": 10.01405,
    "lng": -6.67064
  },
  {
    "id": 2596901,
    "name": "Sahuyé",
    "lat": 5.73253,
    "lng": -4.52683
  },
  {
    "id": 2279327,
    "name": "Zikisso",
    "lat": 6.06396,
    "lng": -5.70245
  },
  {
    "id": 2287868,
    "name": "Huafla",
    "lat": 6.56368,
    "lng": -5.79967
  },
  {
    "id": 2288175,
    "name": "Gouméré",
    "lat": 7.8963,
    "lng": -2.98013
  },
  {
    "id": 2291491,
    "name": "Bléanianda",
    "lat": 6.3072,
    "lng": -5.70499
  },
  {
    "id": 2288081,
    "name": "Gribouo",
    "lat": 6.19511,
    "lng": -6.9132
  },
  {
    "id": 2280177,
    "name": "Guiembé",
    "lat": 9.23298,
    "lng": -5.71277
  },
  {
    "id": 2280997,
    "name": "Tanbi",
    "lat": 8.23343,
    "lng": -2.57362
  },
  {
    "id": 2288117,
    "name": "Grand Alépé",
    "lat": 5.47503,
    "lng": -3.76424
  },
  {
    "id": 12687592,
    "name": "Kossonoukro",
    "lat": 6.0107,
    "lng": -3.38927
  },
  {
    "id": 2288755,
    "name": "Gaouroubré",
    "lat": 5.28057,
    "lng": -6.24612
  },
  {
    "id": 2291284,
    "name": "Boguédia",
    "lat": 6.63434,
    "lng": -6.51915
  },
  {
    "id": 2285639,
    "name": "Kpouébo",
    "lat": 6.33441,
    "lng": -4.85618
  },
  {
    "id": 2281807,
    "name": "Séliéguhé",
    "lat": 6.62265,
    "lng": -6.86803
  },
  {
    "id": 2597371,
    "name": "Nafoungolo",
    "lat": 10.31364,
    "lng": -5.44754
  },
  {
    "id": 8051543,
    "name": "Ono Salci",
    "lat": 5.38138,
    "lng": -3.5655
  },
  {
    "id": 2283802,
    "name": "Ndjemin",
    "lat": 5.27031,
    "lng": -4.23875
  },
  {
    "id": 2293364,
    "name": "Adébem",
    "lat": 5.47349,
    "lng": -5.83667
  },
  {
    "id": 2288800,
    "name": "Gan",
    "lat": 7.06596,
    "lng": -7.89385
  },
  {
    "id": 7848498,
    "name": "Béablo",
    "lat": 6.37887,
    "lng": -7.33397
  },
  {
    "id": 12687491,
    "name": "Nonouan",
    "lat": 5.023,
    "lng": -6.37198
  },
  {
    "id": 2289754,
    "name": "Domobly",
    "lat": 6.5321,
    "lng": -7.57411
  },
  {
    "id": 12687490,
    "name": "Baglo",
    "lat": 6.37166,
    "lng": -7.1439
  },
  {
    "id": 2289865,
    "name": "Djidoubaye",
    "lat": 6.08567,
    "lng": -7.48642
  },
  {
    "id": 2290192,
    "name": "Diangobo",
    "lat": 6.56564,
    "lng": -3.33675
  },
  {
    "id": 2288518,
    "name": "Glanié",
    "lat": 7.75948,
    "lng": -8.0813
  },
  {
    "id": 12687489,
    "name": "Dahili",
    "lat": 5.50267,
    "lng": -6.78421
  },
  {
    "id": 2291488,
    "name": "Blédi Diéya",
    "lat": 6.58627,
    "lng": -8.06722
  },
  {
    "id": 2286888,
    "name": "Kodjina",
    "lat": 6.73543,
    "lng": -3.59696
  },
  {
    "id": 2281938,
    "name": "Satikran",
    "lat": 6.82699,
    "lng": -3.74318
  },
  {
    "id": 2291932,
    "name": "Bébou",
    "lat": 6.3617,
    "lng": -3.41275
  },
  {
    "id": 2279594,
    "name": "Yokoboué",
    "lat": 5.26933,
    "lng": -5.10658
  },
  {
    "id": 2292681,
    "name": "Assié Akpessé",
    "lat": 6.46539,
    "lng": -4.33607
  },
  {
    "id": 7850683,
    "name": "Gloleu",
    "lat": 7.12901,
    "lng": -7.76901
  },
  {
    "id": 12687488,
    "name": "Zougouzoa",
    "lat": 6.2121,
    "lng": -6.59185
  },
  {
    "id": 2288027,
    "name": "Guéhiébli",
    "lat": 6.89479,
    "lng": -7.43139
  },
  {
    "id": 2279247,
    "name": "Zonlé I",
    "lat": 7.36466,
    "lng": -7.7695
  },
  {
    "id": 12687727,
    "name": "Ahizabré",
    "lat": 6.04923,
    "lng": -6.09978
  },
  {
    "id": 2279364,
    "name": "Zéribéri",
    "lat": 5.38418,
    "lng": -5.44369
  },
  {
    "id": 2279418,
    "name": "Zéalé",
    "lat": 6.98846,
    "lng": -8.16097
  },
  {
    "id": 2289473,
    "name": "Diéouzon",
    "lat": 7.15575,
    "lng": -7.32219
  },
  {
    "id": 2291913,
    "name": "Bégbessou",
    "lat": 7.06697,
    "lng": -5.59738
  },
  {
    "id": 2292402,
    "name": "Bagoliéoua",
    "lat": 6.16794,
    "lng": -6.53318
  },
  {
    "id": 2292311,
    "name": "Baléko",
    "lat": 5.4339,
    "lng": -6.02594
  },
  {
    "id": 2286307,
    "name": "Koréguhé",
    "lat": 6.18859,
    "lng": -6.65891
  },
  {
    "id": 2292952,
    "name": "Amoriki",
    "lat": 7.08793,
    "lng": -4.16155
  },
  {
    "id": 12687487,
    "name": "Kangagui",
    "lat": 5.71755,
    "lng": -6.80999
  },
  {
    "id": 2281137,
    "name": "Tabagné",
    "lat": 7.99104,
    "lng": -3.06871
  },
  {
    "id": 2282253,
    "name": "Piébly Un",
    "lat": 7.25125,
    "lng": -7.08299
  },
  {
    "id": 2286038,
    "name": "Kouan Houlé",
    "lat": 7.39279,
    "lng": -8.26093
  },
  {
    "id": 2292445,
    "name": "Badikaha",
    "lat": 9.19166,
    "lng": -5.16499
  },
  {
    "id": 2279910,
    "name": "Ouellé",
    "lat": 10.35602,
    "lng": -6.80896
  },
  {
    "id": 2279867,
    "name": "Wongé",
    "lat": 8.32675,
    "lng": -6.57449
  },
  {
    "id": 12688097,
    "name": "Pona-Vahi",
    "lat": 6.94692,
    "lng": -7.16088
  },
  {
    "id": 2292037,
    "name": "Bassadzin",
    "lat": 5.93741,
    "lng": -3.73819
  },
  {
    "id": 12688207,
    "name": "Gouriniani",
    "lat": 7.20357,
    "lng": -6.18393
  },
  {
    "id": 2279775,
    "name": "Yala",
    "lat": 7.37778,
    "lng": -6.82639
  },
  {
    "id": 2279510,
    "name": "Zahirogbeu",
    "lat": 6.76219,
    "lng": -6.88421
  },
  {
    "id": 2293535,
    "name": "Abié",
    "lat": 5.86647,
    "lng": -3.92574
  },
  {
    "id": 2279951,
    "name": "Waranyéné",
    "lat": 9.41999,
    "lng": -5.66747
  },
  {
    "id": 2282124,
    "name": "Samatiguila",
    "lat": 9.81952,
    "lng": -7.56085
  },
  {
    "id": 2289580,
    "name": "Drayo",
    "lat": 6.25898,
    "lng": -6.04026
  },
  {
    "id": 8032016,
    "name": "Banguié I",
    "lat": 5.90159,
    "lng": -4.20054
  },
  {
    "id": 2287945,
    "name": "Gunglo Zia",
    "lat": 6.82062,
    "lng": -7.24392
  },
  {
    "id": 2288293,
    "name": "Gotongouiné",
    "lat": 7.17363,
    "lng": -7.74959
  },
  {
    "id": 2292635,
    "name": "Assoumoukro",
    "lat": 6.46403,
    "lng": -4.3728
  },
  {
    "id": 2286294,
    "name": "Koro",
    "lat": 8.55505,
    "lng": -7.46348
  },
  {
    "id": 2283916,
    "name": "Nassian",
    "lat": 8.45275,
    "lng": -3.47152
  },
  {
    "id": 12687591,
    "name": "Saykro",
    "lat": 5.2736,
    "lng": -2.78369
  },
  {
    "id": 12687486,
    "name": "Angagui",
    "lat": 5.94737,
    "lng": -6.81144
  },
  {
    "id": 2287999,
    "name": "Guéssiguié Un",
    "lat": 5.73853,
    "lng": -4.2355
  },
  {
    "id": 2291639,
    "name": "Bidiouan",
    "lat": 6.61531,
    "lng": -6.23701
  },
  {
    "id": 2293099,
    "name": "Akpessékro",
    "lat": 6.72488,
    "lng": -5.30602
  },
  {
    "id": 2280906,
    "name": "Tawara",
    "lat": 9.65719,
    "lng": -5.65254
  },
  {
    "id": 12688096,
    "name": "Gohouo-Zarabaon",
    "lat": 7.00374,
    "lng": -7.7499
  },
  {
    "id": 2288179,
    "name": "Goulikao",
    "lat": 6.50706,
    "lng": -5.52408
  },
  {
    "id": 2291660,
    "name": "Biantouo",
    "lat": 6.96438,
    "lng": -8.24995
  },
  {
    "id": 2286705,
    "name": "Kokolopozo",
    "lat": 5.13662,
    "lng": -6.08244
  },
  {
    "id": 2279937,
    "name": "Wataradougou",
    "lat": 8.67176,
    "lng": -5.81538
  },
  {
    "id": 2284820,
    "name": "Lomara",
    "lat": 10.35174,
    "lng": -6.33887
  },
  {
    "id": 12687485,
    "name": "Gnanké",
    "lat": 5.29851,
    "lng": -6.5289
  },
  {
    "id": 2283664,
    "name": "Nguessankro",
    "lat": 6.63468,
    "lng": -4.30349
  },
  {
    "id": 2286455,
    "name": "Kongaso",
    "lat": 7.81533,
    "lng": -6.07747
  },
  {
    "id": 2290620,
    "name": "Cosrou",
    "lat": 5.31906,
    "lng": -4.65889
  },
  {
    "id": 2281763,
    "name": "Sépénédyokaha",
    "lat": 9.84286,
    "lng": -5.15788
  },
  {
    "id": 12687856,
    "name": "Allangbakro",
    "lat": 6.75314,
    "lng": -4.41157
  },
  {
    "id": 2290205,
    "name": "Dianambroufla",
    "lat": 6.65823,
    "lng": -5.62325
  },
  {
    "id": 2282054,
    "name": "Sanégourifla",
    "lat": 6.65521,
    "lng": -5.80021
  },
  {
    "id": 2284203,
    "name": "Morokro",
    "lat": 6.0776,
    "lng": -4.70306
  },
  {
    "id": 2291142,
    "name": "Bondo-Dioula",
    "lat": 8.21942,
    "lng": -3.2004
  },
  {
    "id": 12687726,
    "name": "Pissékou",
    "lat": 6.28651,
    "lng": -5.82015
  },
  {
    "id": 12687961,
    "name": "Irobo",
    "lat": 5.29358,
    "lng": -4.79603
  },
  {
    "id": 2287533,
    "name": "Kanangonon",
    "lat": 8.29825,
    "lng": -5.05627
  },
  {
    "id": 2284197,
    "name": "Moronou",
    "lat": 6.32043,
    "lng": -4.97121
  },
  {
    "id": 2290153,
    "name": "Diasson",
    "lat": 5.97152,
    "lng": -3.72759
  },
  {
    "id": 2289927,
    "name": "Yorodougou",
    "lat": 7.78356,
    "lng": -7.88024
  },
  {
    "id": 2287711,
    "name": "Kadioha",
    "lat": 8.96821,
    "lng": -5.88332
  },
  {
    "id": 2290135,
    "name": "Diboké",
    "lat": 6.44434,
    "lng": -8.11234
  },
  {
    "id": 2289448,
    "name": "Dyougoublé",
    "lat": 9.52789,
    "lng": -5.935
  },
  {
    "id": 2597174,
    "name": "Bessedi Anon",
    "lat": 5.92585,
    "lng": -3.99411
  },
  {
    "id": 12687484,
    "name": "Gobroko",
    "lat": 5.40626,
    "lng": -5.90484
  },
  {
    "id": 2292317,
    "name": "Balayo",
    "lat": 6.44012,
    "lng": -6.01255
  },
  {
    "id": 2284481,
    "name": "Mbaoussiéssou",
    "lat": 6.58073,
    "lng": -4.2711
  },
  {
    "id": 2293124,
    "name": "Akoudzin",
    "lat": 6.02639,
    "lng": -3.98333
  },
  {
    "id": 2279315,
    "name": "Zaguinasso",
    "lat": 10.04886,
    "lng": -6.35999
  },
  {
    "id": 2292102,
    "name": "Baoubli",
    "lat": 6.80566,
    "lng": -7.39931
  },
  {
    "id": 2597172,
    "name": "Tiapoum",
    "lat": 5.13622,
    "lng": -3.02308
  },
  {
    "id": 2284250,
    "name": "Monga",
    "lat": 5.47623,
    "lng": -3.6607
  },
  {
    "id": 2283222,
    "name": "Noumousséria I",
    "lat": 6.70982,
    "lng": -6.66308
  },
  {
    "id": 2282372,
    "name": "Ponan",
    "lat": 5.90336,
    "lng": -7.47722
  },
  {
    "id": 2279506,
    "name": "Zakuéoua",
    "lat": 6.24931,
    "lng": -6.50741
  },
  {
    "id": 12687483,
    "name": "Sérigbangan",
    "lat": 5.52778,
    "lng": -6.71258
  },
  {
    "id": 2289291,
    "name": "Facobly",
    "lat": 7.3883,
    "lng": -7.37644
  },
  {
    "id": 2293399,
    "name": "Adikokoi",
    "lat": 6.63331,
    "lng": -3.71193
  },
  {
    "id": 2291786,
    "name": "Béoua",
    "lat": 6.5399,
    "lng": -7.64601
  },
  {
    "id": 2279626,
    "name": "Yorobodi",
    "lat": 8.11913,
    "lng": -3.68191
  },
  {
    "id": 2284710,
    "name": "Mahino",
    "lat": 5.11262,
    "lng": -7.4149
  },
  {
    "id": 2292134,
    "name": "Banneu",
    "lat": 7.07343,
    "lng": -8.25311
  },
  {
    "id": 2289321,
    "name": "Fadiadougou",
    "lat": 8.7,
    "lng": -6.62139
  },
  {
    "id": 2287795,
    "name": "Yrozon",
    "lat": 6.84043,
    "lng": -7.21862
  },
  {
    "id": 2282179,
    "name": "Sakaouo",
    "lat": 6.46381,
    "lng": -5.69083
  },
  {
    "id": 2289537,
    "name": "Duonfla",
    "lat": 6.843,
    "lng": -5.49915
  },
  {
    "id": 2285368,
    "name": "Lasologo",
    "lat": 9.58605,
    "lng": -5.10091
  },
  {
    "id": 2288495,
    "name": "Gloubli",
    "lat": 6.89842,
    "lng": -7.77758
  },
  {
    "id": 2285834,
    "name": "Koumoudji",
    "lat": 6.64449,
    "lng": -5.63742
  },
  {
    "id": 2287289,
    "name": "Katoro",
    "lat": 10.14962,
    "lng": -6.12869
  },
  {
    "id": 2282782,
    "name": "Ouréyo",
    "lat": 6.01972,
    "lng": -6.59778
  },
  {
    "id": 12687590,
    "name": "Ehuasso",
    "lat": 6.32597,
    "lng": -3.44403
  },
  {
    "id": 2290966,
    "name": "Bouafla",
    "lat": 7.25219,
    "lng": -5.84987
  },
  {
    "id": 2292415,
    "name": "Bagasséhoa",
    "lat": 6.19053,
    "lng": -6.36254
  },
  {
    "id": 2281236,
    "name": "Soukourougban",
    "lat": 7.84873,
    "lng": -5.93504
  },
  {
    "id": 7848062,
    "name": "Tahably Glodé",
    "lat": 6.74399,
    "lng": -7.24159
  },
  {
    "id": 2288101,
    "name": "Grand Yapo",
    "lat": 5.82634,
    "lng": -4.15452
  },
  {
    "id": 2287261,
    "name": "Kayo",
    "lat": 5.80977,
    "lng": -6.47534
  },
  {
    "id": 2290115,
    "name": "Didizo",
    "lat": 5.65104,
    "lng": -5.45993
  },
  {
    "id": 2284724,
    "name": "Mahalé",
    "lat": 10.12893,
    "lng": -6.57778
  },
  {
    "id": 2291446,
    "name": "Blotilé",
    "lat": 7.04902,
    "lng": -7.69201
  },
  {
    "id": 12687725,
    "name": "Mabouo",
    "lat": 5.93446,
    "lng": -6.02418
  },
  {
    "id": 2283993,
    "name": "Nandibo Un",
    "lat": 5.28381,
    "lng": -4.92117
  },
  {
    "id": 2292318,
    "name": "Balahio",
    "lat": 6.31448,
    "lng": -6.42587
  },
  {
    "id": 8032524,
    "name": "Boka",
    "lat": 5.94293,
    "lng": -4.39767
  },
  {
    "id": 2597401,
    "name": "Bielou-carrefour",
    "lat": 8.54139,
    "lng": -6.20056
  },
  {
    "id": 2291387,
    "name": "Boboua",
    "lat": 7.01945,
    "lng": -6.47003
  },
  {
    "id": 2288158,
    "name": "Gouriela",
    "lat": 7.53053,
    "lng": -6.5145
  },
  {
    "id": 2281957,
    "name": "Sarhala",
    "lat": 8.41789,
    "lng": -6.17147
  },
  {
    "id": 12687960,
    "name": "Djidjikro",
    "lat": 5.30993,
    "lng": -4.87689
  },
  {
    "id": 2279533,
    "name": "Zadioa",
    "lat": 6.43153,
    "lng": -6.39783
  },
  {
    "id": 12687959,
    "name": "Ahéoua",
    "lat": 6.36064,
    "lng": -3.86087
  },
  {
    "id": 2292893,
    "name": "Angovia",
    "lat": 7.03305,
    "lng": -5.53697
  },
  {
    "id": 7850553,
    "name": "Kreuzokoué",
    "lat": 6.07216,
    "lng": -5.44359
  },
  {
    "id": 2292936,
    "name": "Annépé",
    "lat": 5.90612,
    "lng": -3.76986
  },
  {
    "id": 12687589,
    "name": "Kotouagnoa",
    "lat": 5.21608,
    "lng": -2.89049
  },
  {
    "id": 7848495,
    "name": "Lokossou",
    "lat": 6.60116,
    "lng": -7.37859
  },
  {
    "id": 2288421,
    "name": "Gogobro",
    "lat": 6.15532,
    "lng": -5.32088
  },
  {
    "id": 12687588,
    "name": "Akati",
    "lat": 6.39852,
    "lng": -3.21473
  },
  {
    "id": 2279194,
    "name": "Zraluo",
    "lat": 7.57237,
    "lng": -5.88859
  },
  {
    "id": 2288290,
    "name": "Gouabafla",
    "lat": 7.32113,
    "lng": -6.56099
  },
  {
    "id": 2283019,
    "name": "Odia",
    "lat": 9.37361,
    "lng": -6.16889
  },
  {
    "id": 2287446,
    "name": "Kanouan",
    "lat": 7.41694,
    "lng": -5.45222
  },
  {
    "id": 2286492,
    "name": "Komborodougou",
    "lat": 9.32634,
    "lng": -5.42922
  },
  {
    "id": 2283009,
    "name": "Offa",
    "lat": 5.92241,
    "lng": -4.34689
  },
  {
    "id": 12688206,
    "name": "Minfla",
    "lat": 7.52299,
    "lng": -6.04404
  },
  {
    "id": 2292989,
    "name": "Amangbo",
    "lat": 6.0206,
    "lng": -4.37141
  },
  {
    "id": 2291364,
    "name": "Bodo",
    "lat": 5.90955,
    "lng": -4.68498
  },
  {
    "id": 2281077,
    "name": "Taoudi",
    "lat": 8.13701,
    "lng": -3.43473
  },
  {
    "id": 12689277,
    "name": "Séman",
    "lat": 6.89358,
    "lng": -5.29709
  },
  {
    "id": 2288440,
    "name": "Godoua",
    "lat": 6.51865,
    "lng": -6.30316
  },
  {
    "id": 2286313,
    "name": "Koréagui",
    "lat": 5.54303,
    "lng": -6.60172
  },
  {
    "id": 12687958,
    "name": "Ira",
    "lat": 5.35403,
    "lng": -4.65894
  },
  {
    "id": 2282975,
    "name": "Olodio",
    "lat": 4.71589,
    "lng": -7.46696
  },
  {
    "id": 2596933,
    "name": "Mantongouiné",
    "lat": 7.28782,
    "lng": -8.03824
  },
  {
    "id": 12689420,
    "name": "Ondéfidouo",
    "lat": 9.04384,
    "lng": -3.08297
  },
  {
    "id": 2291766,
    "name": "Béréblo",
    "lat": 5.27505,
    "lng": -7.46269
  },
  {
    "id": 2292763,
    "name": "Apron-Pronou",
    "lat": 7.00129,
    "lng": -3.36017
  },
  {
    "id": 2288559,
    "name": "Guintéguéla",
    "lat": 8.29044,
    "lng": -7.30927
  },
  {
    "id": 12687482,
    "name": "Brouagui",
    "lat": 5.65075,
    "lng": -6.82418
  },
  {
    "id": 2279509,
    "name": "Zakarékro",
    "lat": 5.10965,
    "lng": -5.60241
  },
  {
    "id": 2279731,
    "name": "Yaobou",
    "lat": 5.7115,
    "lng": -4.41274
  },
  {
    "id": 12689419,
    "name": "Léomidouo",
    "lat": 9.03536,
    "lng": -2.90439
  },
  {
    "id": 2288750,
    "name": "Gaboua",
    "lat": 7.0625,
    "lng": -6.46806
  },
  {
    "id": 12688095,
    "name": "Douékpé",
    "lat": 7.1362,
    "lng": -7.32839
  },
  {
    "id": 2291230,
    "name": "Bokéda",
    "lat": 6.3615,
    "lng": -5.71192
  },
  {
    "id": 2287836,
    "name": "Inahiri",
    "lat": 5.14007,
    "lng": -6.21354
  },
  {
    "id": 2288555,
    "name": "Guéoulé",
    "lat": 7.59893,
    "lng": -7.90071
  },
  {
    "id": 2281862,
    "name": "Séguié",
    "lat": 6.05573,
    "lng": -4.09421
  },
  {
    "id": 2290675,
    "name": "Broubrou",
    "lat": 5.72477,
    "lng": -4.8237
  },
  {
    "id": 2282759,
    "name": "Ourouta",
    "lat": 7.14219,
    "lng": -6.3143
  },
  {
    "id": 12688626,
    "name": "Gbimanan",
    "lat": 8.23371,
    "lng": -6.79954
  },
  {
    "id": 12687481,
    "name": "Kpangban",
    "lat": 5.58177,
    "lng": -6.75359
  },
  {
    "id": 2293407,
    "name": "Adiékro",
    "lat": 7.06743,
    "lng": -3.69271
  },
  {
    "id": 12688205,
    "name": "Hallanikro",
    "lat": 6.85323,
    "lng": -5.63957
  },
  {
    "id": 2290658,
    "name": "Brouta",
    "lat": 7.24953,
    "lng": -6.18451
  },
  {
    "id": 2281166,
    "name": "Suéfla",
    "lat": 6.8521,
    "lng": -5.71466
  },
  {
    "id": 12687724,
    "name": "Gbeugréhoa",
    "lat": 6.20546,
    "lng": -6.33818
  },
  {
    "id": 2286243,
    "name": "Kossandji",
    "lat": 5.82463,
    "lng": -3.61566
  },
  {
    "id": 12688406,
    "name": "Kélégbala",
    "lat": 10.03229,
    "lng": -6.75961
  },
  {
    "id": 2285581,
    "name": "Krokroum",
    "lat": 5.2111,
    "lng": -5.40944
  },
  {
    "id": 2289031,
    "name": "Fiékon",
    "lat": 7.09963,
    "lng": -6.84547
  },
  {
    "id": 2288539,
    "name": "Djibrosso",
    "lat": 8.76968,
    "lng": -6.99918
  },
  {
    "id": 2292829,
    "name": "Ahouakro",
    "lat": 6.11987,
    "lng": -4.87238
  },
  {
    "id": 2291589,
    "name": "Mibrigué",
    "lat": 10.28504,
    "lng": -5.795
  },
  {
    "id": 2280265,
    "name": "Tourvré",
    "lat": 9.9033,
    "lng": -6.50237
  },
  {
    "id": 2279422,
    "name": "Zahia",
    "lat": 6.91672,
    "lng": -6.57811
  },
  {
    "id": 2287162,
    "name": "Kétasso",
    "lat": 5.75869,
    "lng": -5.03378
  },
  {
    "id": 2293287,
    "name": "Agba-Mbayassou",
    "lat": 7.11518,
    "lng": -4.26818
  },
  {
    "id": 2292438,
    "name": "Bodokro",
    "lat": 7.86144,
    "lng": -5.47745
  },
  {
    "id": 2284978,
    "name": "Lolobo",
    "lat": 6.95892,
    "lng": -5.26581
  },
  {
    "id": 2290844,
    "name": "Bounafla",
    "lat": 6.72204,
    "lng": -5.51812
  },
  {
    "id": 2290736,
    "name": "Bréguiagui",
    "lat": 5.24854,
    "lng": -6.37914
  },
  {
    "id": 2280254,
    "name": "Transua",
    "lat": 7.55004,
    "lng": -3.01431
  },
  {
    "id": 2280289,
    "name": "Toupah",
    "lat": 5.31891,
    "lng": -4.56552
  },
  {
    "id": 8032138,
    "name": "Gaoussoukro",
    "lat": 5.2484,
    "lng": -2.97116
  },
  {
    "id": 12688094,
    "name": "Kéiténably",
    "lat": 7.26047,
    "lng": -7.33748
  },
  {
    "id": 7850567,
    "name": "Dainé II",
    "lat": 7.42997,
    "lng": -7.60525
  },
  {
    "id": 2280059,
    "name": "Valoua",
    "lat": 5.93088,
    "lng": -6.10075
  },
  {
    "id": 2289417,
    "name": "Eboué",
    "lat": 5.34407,
    "lng": -3.1255
  },
  {
    "id": 2291931,
    "name": "Bébouo-sibouo",
    "lat": 6.81967,
    "lng": -6.23775
  },
  {
    "id": 2290405,
    "name": "Daouo",
    "lat": 7.40348,
    "lng": -6.61788
  },
  {
    "id": 2289715,
    "name": "Donsohouo",
    "lat": 6.44981,
    "lng": -5.6963
  },
  {
    "id": 2287374,
    "name": "Karamokola",
    "lat": 8.09985,
    "lng": -6.18261
  },
  {
    "id": 2284449,
    "name": "Mborla-Dioulasso",
    "lat": 8.46882,
    "lng": -4.481
  },
  {
    "id": 2291997,
    "name": "Bawakaha",
    "lat": 9.49932,
    "lng": -5.41023
  },
  {
    "id": 2292125,
    "name": "Banoufla",
    "lat": 7.11998,
    "lng": -6.31833
  },
  {
    "id": 12688151,
    "name": "Blablata",
    "lat": 7.28616,
    "lng": -6.2456
  },
  {
    "id": 2290975,
    "name": "Boua",
    "lat": 5.01997,
    "lng": -7.05443
  },
  {
    "id": 2279579,
    "name": "Yopohua",
    "lat": 6.39596,
    "lng": -5.82952
  },
  {
    "id": 2290841,
    "name": "Bounantinfla",
    "lat": 6.75449,
    "lng": -5.91559
  },
  {
    "id": 2285896,
    "name": "Koukoguhé",
    "lat": 6.91063,
    "lng": -6.56571
  },
  {
    "id": 2282494,
    "name": "Pétyonara",
    "lat": 8.43064,
    "lng": -5.11429
  },
  {
    "id": 12687480,
    "name": "Zogbodoua",
    "lat": 5.73339,
    "lng": -6.31338
  },
  {
    "id": 2285924,
    "name": "Kouénoufla Don",
    "lat": 7.35452,
    "lng": -6.75151
  },
  {
    "id": 12688405,
    "name": "Ouolo",
    "lat": 9.54831,
    "lng": -5.4246
  },
  {
    "id": 2291172,
    "name": "Billahio",
    "lat": 6.21378,
    "lng": -6.14614
  },
  {
    "id": 2289017,
    "name": "Findimanou",
    "lat": 6.83153,
    "lng": -4.08298
  },
  {
    "id": 12688093,
    "name": "Pagnébly",
    "lat": 7.24845,
    "lng": -7.13249
  },
  {
    "id": 2291216,
    "name": "Gbily",
    "lat": 6.22964,
    "lng": -6.96934
  },
  {
    "id": 12687479,
    "name": "Amaragui",
    "lat": 5.81337,
    "lng": -6.71579
  },
  {
    "id": 2282127,
    "name": "Samapleu",
    "lat": 7.76161,
    "lng": -7.93784
  },
  {
    "id": 12687914,
    "name": "Palmindustrie Tamabo",
    "lat": 5.44147,
    "lng": -4.79541
  },
  {
    "id": 2290761,
    "name": "Bonzi",
    "lat": 6.91666,
    "lng": -5.53405
  },
  {
    "id": 2289388,
    "name": "Elenzué",
    "lat": 6.80811,
    "lng": -4.09735
  },
  {
    "id": 2290096,
    "name": "Djékanou",
    "lat": 6.48389,
    "lng": -5.11553
  },
  {
    "id": 2288465,
    "name": "Goazra",
    "lat": 6.94429,
    "lng": -5.96878
  },
  {
    "id": 12687723,
    "name": "Sané-Gazé",
    "lat": 6.4586,
    "lng": -5.80163
  },
  {
    "id": 12718622,
    "name": "Boahia",
    "lat": 7.5717,
    "lng": -3.51489
  },
  {
    "id": 12688625,
    "name": "Béréni-Dialla",
    "lat": 8.00364,
    "lng": -6.86094
  },
  {
    "id": 2289431,
    "name": "Ebimpe",
    "lat": 5.49901,
    "lng": -4.08207
  },
  {
    "id": 2288244,
    "name": "Gouéda",
    "lat": 6.21439,
    "lng": -5.69125
  },
  {
    "id": 2283783,
    "name": "Néguépié",
    "lat": 10.34762,
    "lng": -6.51708
  },
  {
    "id": 2293558,
    "name": "Abéanou",
    "lat": 6.97326,
    "lng": -4.2328
  },
  {
    "id": 2287532,
    "name": "Kananwolo",
    "lat": 8.78256,
    "lng": -5.3108
  },
  {
    "id": 12687722,
    "name": "Dioulabougou-Boléko",
    "lat": 5.35444,
    "lng": -5.16966
  },
  {
    "id": 8032092,
    "name": "Bakro",
    "lat": 5.50681,
    "lng": -3.2455
  },
  {
    "id": 2288726,
    "name": "Gazahio",
    "lat": 6.24409,
    "lng": -6.35457
  },
  {
    "id": 2288597,
    "name": "Gbonkaha",
    "lat": 9.11687,
    "lng": -6.89666
  },
  {
    "id": 2280448,
    "name": "Tonho",
    "lat": 9.90236,
    "lng": -5.72848
  },
  {
    "id": 2288063,
    "name": "Groguida",
    "lat": 5.1325,
    "lng": -5.08555
  },
  {
    "id": 12688204,
    "name": "Zokoguhé-Didéguhé",
    "lat": 7.06759,
    "lng": -6.45901
  },
  {
    "id": 2287171,
    "name": "Kiramissé",
    "lat": 8.22181,
    "lng": -3.44671
  },
  {
    "id": 12688092,
    "name": "Nané",
    "lat": 7.68757,
    "lng": -7.18685
  },
  {
    "id": 2292832,
    "name": "Aouabo",
    "lat": 6.23958,
    "lng": -3.79218
  },
  {
    "id": 12687721,
    "name": "Djidji",
    "lat": 6.15401,
    "lng": -5.69333
  },
  {
    "id": 2292206,
    "name": "Bandoli",
    "lat": 8.59226,
    "lng": -2.70806
  },
  {
    "id": 2290458,
    "name": "Dananon",
    "lat": 7.61072,
    "lng": -6.36333
  },
  {
    "id": 2280137,
    "name": "Kiémou",
    "lat": 9.0605,
    "lng": -5.54983
  },
  {
    "id": 2291798,
    "name": "Béinleu",
    "lat": 7.22838,
    "lng": -7.88256
  },
  {
    "id": 2292667,
    "name": "Assikoun",
    "lat": 6.4175,
    "lng": -3.88306
  },
  {
    "id": 2292483,
    "name": "Babien",
    "lat": 7.95339,
    "lng": -6.87053
  },
  {
    "id": 12688091,
    "name": "Gréikro",
    "lat": 6.81693,
    "lng": -7.05859
  },
  {
    "id": 2283999,
    "name": "Nanbonkaha",
    "lat": 9.74069,
    "lng": -5.15874
  },
  {
    "id": 2290531,
    "name": "Dahoua",
    "lat": 6.68253,
    "lng": -7.34761
  },
  {
    "id": 8032090,
    "name": "Temin",
    "lat": 5.53224,
    "lng": -3.27209
  },
  {
    "id": 2286234,
    "name": "Kossou",
    "lat": 7.00103,
    "lng": -5.48095
  },
  {
    "id": 2289844,
    "name": "Djiroutou",
    "lat": 5.36758,
    "lng": -7.28412
  },
  {
    "id": 2284199,
    "name": "Morondo",
    "lat": 8.95152,
    "lng": -6.78524
  },
  {
    "id": 2288802,
    "name": "Gamina",
    "lat": 6.96772,
    "lng": -6.65495
  },
  {
    "id": 7848500,
    "name": "Béhébou",
    "lat": 6.31697,
    "lng": -7.41991
  },
  {
    "id": 2292838,
    "name": "Arobo",
    "lat": 6.89341,
    "lng": -3.85799
  },
  {
    "id": 2283021,
    "name": "Obié",
    "lat": 5.91733,
    "lng": -5.21736
  },
  {
    "id": 2291423,
    "name": "Bouapé",
    "lat": 6.26239,
    "lng": -3.81457
  },
  {
    "id": 12688534,
    "name": "Ouanadiékaha",
    "lat": 8.36292,
    "lng": -5.17237
  },
  {
    "id": 2597171,
    "name": "Nguiémé",
    "lat": 5.14576,
    "lng": -3.04965
  },
  {
    "id": 2290764,
    "name": "Boyo",
    "lat": 9.95478,
    "lng": -6.37826
  },
  {
    "id": 12687957,
    "name": "N'Da-Gnamien",
    "lat": 6.16735,
    "lng": -4.93495
  },
  {
    "id": 2280078,
    "name": "Tioroniaradougou",
    "lat": 9.35446,
    "lng": -5.63766
  },
  {
    "id": 2290423,
    "name": "Daobli",
    "lat": 5.88205,
    "lng": -7.4756
  },
  {
    "id": 2279411,
    "name": "Zébra",
    "lat": 6.92126,
    "lng": -6.52948
  },
  {
    "id": 2291642,
    "name": "Bidihé",
    "lat": 6.19348,
    "lng": -5.62545
  },
  {
    "id": 12687478,
    "name": "Petit-Bondoukou",
    "lat": 5.60407,
    "lng": -6.64765
  },
  {
    "id": 12687720,
    "name": "Gnama",
    "lat": 5.73862,
    "lng": -5.48283
  },
  {
    "id": 12687477,
    "name": "Hana",
    "lat": 5.68994,
    "lng": -6.82328
  },
  {
    "id": 12687476,
    "name": "Blédouagui",
    "lat": 5.65583,
    "lng": -6.76744
  },
  {
    "id": 2290491,
    "name": "Daligépalenyoa",
    "lat": 5.83389,
    "lng": -5.93635
  },
  {
    "id": 2290958,
    "name": "Bouaka",
    "lat": 7.6707,
    "lng": -6.09708
  },
  {
    "id": 2281795,
    "name": "Sémiambli",
    "lat": 7.54278,
    "lng": -7.19444
  },
  {
    "id": 12688203,
    "name": "Blé",
    "lat": 6.82036,
    "lng": -5.85306
  },
  {
    "id": 2281307,
    "name": "Zakogbeu",
    "lat": 6.78305,
    "lng": -6.81606
  },
  {
    "id": 2283712,
    "name": "Ngatakro",
    "lat": 7.06378,
    "lng": -3.75868
  },
  {
    "id": 2283663,
    "name": "Nguessankro",
    "lat": 7.12148,
    "lng": -3.34329
  },
  {
    "id": 2289454,
    "name": "Diorholé",
    "lat": 7.79787,
    "lng": -6.36755
  },
  {
    "id": 12687719,
    "name": "Gnagbodougnoa",
    "lat": 5.96632,
    "lng": -5.84337
  },
  {
    "id": 2289539,
    "name": "Duokro",
    "lat": 6.65903,
    "lng": -5.23498
  },
  {
    "id": 2292371,
    "name": "Bakadou I",
    "lat": 5.39787,
    "lng": -6.02241
  },
  {
    "id": 2596905,
    "name": "Katadji",
    "lat": 5.66771,
    "lng": -4.54136
  },
  {
    "id": 2288088,
    "name": "Gréguibré",
    "lat": 5.24742,
    "lng": -6.25389
  },
  {
    "id": 2281941,
    "name": "Satiari",
    "lat": 7.0475,
    "lng": -5.27833
  },
  {
    "id": 12688202,
    "name": "Allahou-Bazi",
    "lat": 7.03485,
    "lng": -5.53339
  },
  {
    "id": 2596882,
    "name": "Niamanzra",
    "lat": 5.88519,
    "lng": -4.62386
  },
  {
    "id": 12687956,
    "name": "Soribadougou",
    "lat": 6.54882,
    "lng": -3.77689
  },
  {
    "id": 2290995,
    "name": "Botindé",
    "lat": 5.7781,
    "lng": -4.75524
  },
  {
    "id": 2289792,
    "name": "Dogozo",
    "lat": 5.69303,
    "lng": -5.05171
  },
  {
    "id": 2283586,
    "name": "Niambli",
    "lat": 6.74357,
    "lng": -7.28827
  },
  {
    "id": 2285412,
    "name": "Landiougou",
    "lat": 9.78385,
    "lng": -6.29388
  },
  {
    "id": 2282158,
    "name": "Sakré",
    "lat": 5.68166,
    "lng": -7.39172
  },
  {
    "id": 2285886,
    "name": "Koulalé",
    "lat": 7.95798,
    "lng": -8.06857
  },
  {
    "id": 12687718,
    "name": "Ziki",
    "lat": 5.76047,
    "lng": -5.44482
  },
  {
    "id": 2290872,
    "name": "Bouko",
    "lat": 8.87507,
    "lng": -7.7902
  },
  {
    "id": 2289878,
    "name": "Djébonoua",
    "lat": 7.51573,
    "lng": -5.0735
  },
  {
    "id": 2291231,
    "name": "Pahoubli",
    "lat": 6.39667,
    "lng": -8.37527
  },
  {
    "id": 2281082,
    "name": "Tahara",
    "lat": 10.15444,
    "lng": -7.12266
  },
  {
    "id": 2279177,
    "name": "Zuékokoré",
    "lat": 6.56831,
    "lng": -4.28911
  },
  {
    "id": 12689418,
    "name": "Youndouo",
    "lat": 8.82541,
    "lng": -2.95745
  },
  {
    "id": 2290716,
    "name": "Mbrimbo",
    "lat": 6.0262,
    "lng": -4.87406
  },
  {
    "id": 2291384,
    "name": "Bobuo II",
    "lat": 5.59062,
    "lng": -6.02957
  },
  {
    "id": 2285343,
    "name": "Lauzoua",
    "lat": 5.20327,
    "lng": -5.31013
  },
  {
    "id": 12688201,
    "name": "Attossè",
    "lat": 6.8751,
    "lng": -5.86769
  },
  {
    "id": 12687717,
    "name": "Kpadagnoa",
    "lat": 5.57574,
    "lng": -5.90638
  },
  {
    "id": 2288001,
    "name": "Guessihio",
    "lat": 6.10722,
    "lng": -6.00722
  },
  {
    "id": 8032023,
    "name": "Mafia",
    "lat": 5.53436,
    "lng": -3.84868
  },
  {
    "id": 2279388,
    "name": "Zémongokaha",
    "lat": 9.6465,
    "lng": -5.6198
  },
  {
    "id": 2290560,
    "name": "Dagba",
    "lat": 9.24503,
    "lng": -5.96465
  },
  {
    "id": 2281942,
    "name": "Satama-Sokoura",
    "lat": 7.89975,
    "lng": -4.3636
  },
  {
    "id": 12687716,
    "name": "Néko",
    "lat": 5.78899,
    "lng": -5.73623
  },
  {
    "id": 2280620,
    "name": "Tinasso",
    "lat": 9.91667,
    "lng": -6.65
  },
  {
    "id": 2290281,
    "name": "Déraouan",
    "lat": 6.89087,
    "lng": -6.4232
  },
  {
    "id": 2287714,
    "name": "Kadrokpa",
    "lat": 4.97426,
    "lng": -6.01222
  },
  {
    "id": 2291820,
    "name": "Bénéné",
    "lat": 6.95031,
    "lng": -4.0514
  },
  {
    "id": 2288516,
    "name": "Glaou",
    "lat": 6.62573,
    "lng": -7.37005
  },
  {
    "id": 2281684,
    "name": "Sibabli",
    "lat": 6.93717,
    "lng": -7.16392
  },
  {
    "id": 12687955,
    "name": "Akalékro",
    "lat": 5.61062,
    "lng": -4.82517
  },
  {
    "id": 2293229,
    "name": "Ahiroa",
    "lat": 6.17474,
    "lng": -4.63357
  },
  {
    "id": 2290753,
    "name": "Braffédon",
    "lat": 5.13839,
    "lng": -4.98963
  },
  {
    "id": 2290896,
    "name": "Bougou",
    "lat": 10.22306,
    "lng": -5.8657
  },
  {
    "id": 2292720,
    "name": "Assanou",
    "lat": 6.99442,
    "lng": -5.15835
  },
  {
    "id": 2597039,
    "name": "Koutoukro",
    "lat": 5.61683,
    "lng": -3.58292
  },
  {
    "id": 2287290,
    "name": "Katonon",
    "lat": 10.03596,
    "lng": -5.61363
  },
  {
    "id": 12687475,
    "name": "Touanié",
    "lat": 5.51767,
    "lng": -6.51047
  },
  {
    "id": 2281877,
    "name": "Séguélon",
    "lat": 9.35694,
    "lng": -7.12083
  },
  {
    "id": 2279493,
    "name": "Zamaka",
    "lat": 6.911,
    "lng": -3.41532
  },
  {
    "id": 12687474,
    "name": "Djiro-Gnépahio",
    "lat": 4.84675,
    "lng": -6.62739
  },
  {
    "id": 7848484,
    "name": "Gozon",
    "lat": 6.89282,
    "lng": -7.4689
  },
  {
    "id": 2279817,
    "name": "Yadio",
    "lat": 6.07276,
    "lng": -4.07399
  },
  {
    "id": 2293567,
    "name": "Abadjin-Kouté",
    "lat": 5.33017,
    "lng": -4.15226
  },
  {
    "id": 2283724,
    "name": "Nganon",
    "lat": 9.68176,
    "lng": -5.99172
  },
  {
    "id": 2288848,
    "name": "Gabia",
    "lat": 6.40891,
    "lng": -6.3791
  },
  {
    "id": 2287992,
    "name": "Guéya",
    "lat": 6.55368,
    "lng": -7.95722
  },
  {
    "id": 2292980,
    "name": "Aman Salékro",
    "lat": 7.25208,
    "lng": -5.58005
  },
  {
    "id": 2288309,
    "name": "Gorodi",
    "lat": 6.70524,
    "lng": -6.91219
  },
  {
    "id": 12688200,
    "name": "Litobli",
    "lat": 6.87751,
    "lng": -7.00803
  },
  {
    "id": 2292225,
    "name": "Bandakanyi-Sokoura",
    "lat": 8.11118,
    "lng": -3.62799
  },
  {
    "id": 12688131,
    "name": "Liadjénoufla",
    "lat": 6.81109,
    "lng": -5.7775
  },
  {
    "id": 2290041,
    "name": "Digbam",
    "lat": 6.41422,
    "lng": -6.24297
  },
  {
    "id": 2279501,
    "name": "Zakroguhé",
    "lat": 6.34387,
    "lng": -6.47286
  },
  {
    "id": 2285939,
    "name": "Koudouyou",
    "lat": 5.76382,
    "lng": -6.51191
  },
  {
    "id": 12688090,
    "name": "Péhê-Zarabaon",
    "lat": 6.92937,
    "lng": -7.76294
  },
  {
    "id": 2281071,
    "name": "Tahiraguhé",
    "lat": 6.79236,
    "lng": -6.40031
  },
  {
    "id": 2290616,
    "name": "Da",
    "lat": 6.97453,
    "lng": -7.5465
  },
  {
    "id": 2292564,
    "name": "Attiégouakro",
    "lat": 6.77402,
    "lng": -5.11411
  },
  {
    "id": 2284955,
    "name": "Longo",
    "lat": 8.97579,
    "lng": -5.39915
  },
  {
    "id": 12688089,
    "name": "Diébly",
    "lat": 7.10352,
    "lng": -7.22019
  },
  {
    "id": 12687473,
    "name": "Louogba",
    "lat": 5.55078,
    "lng": -6.72445
  },
  {
    "id": 2291481,
    "name": "Blékoum",
    "lat": 6.39068,
    "lng": -3.53685
  },
  {
    "id": 2289653,
    "name": "Dougbafra",
    "lat": 6.34539,
    "lng": -5.40101
  },
  {
    "id": 12687472,
    "name": "Médon",
    "lat": 5.20687,
    "lng": -6.21691
  },
  {
    "id": 2288593,
    "name": "Yasségouiné",
    "lat": 7.52592,
    "lng": -8.01362
  },
  {
    "id": 2286217,
    "name": "Kotoka",
    "lat": 5.54281,
    "lng": -2.86912
  },
  {
    "id": 12688624,
    "name": "Korokopla",
    "lat": 7.88168,
    "lng": -5.96623
  },
  {
    "id": 2596952,
    "name": "Assikoa",
    "lat": 5.99326,
    "lng": -3.80923
  },
  {
    "id": 2290220,
    "name": "Diamankani",
    "lat": 10.56303,
    "lng": -6.52987
  },
  {
    "id": 2289408,
    "name": "Edjambo",
    "lat": 5.19767,
    "lng": -2.9625
  },
  {
    "id": 12688199,
    "name": "Nangrékro",
    "lat": 6.92853,
    "lng": -5.86142
  },
  {
    "id": 2290677,
    "name": "Brou-Attakro",
    "lat": 6.6774,
    "lng": -3.80374
  },
  {
    "id": 2284511,
    "name": "Massadougou",
    "lat": 8.29918,
    "lng": -3.9215
  },
  {
    "id": 2289632,
    "name": "Doukouyo",
    "lat": 5.84233,
    "lng": -5.97134
  },
  {
    "id": 12687470,
    "name": "Pont-Brimé",
    "lat": 4.84213,
    "lng": -6.56492
  },
  {
    "id": 2281622,
    "name": "Sindala",
    "lat": 9.09847,
    "lng": -4.75254
  },
  {
    "id": 2596904,
    "name": "Badasso",
    "lat": 5.68172,
    "lng": -4.52113
  },
  {
    "id": 2291355,
    "name": "Boduaso",
    "lat": 7.70644,
    "lng": -6.39561
  },
  {
    "id": 2283357,
    "name": "Niouldé",
    "lat": 6.55196,
    "lng": -7.69047
  },
  {
    "id": 2279555,
    "name": "Youorédoula",
    "lat": 7.31758,
    "lng": -6.71288
  },
  {
    "id": 12687469,
    "name": "Robert-Porte",
    "lat": 5.62245,
    "lng": -6.61928
  },
  {
    "id": 2281329,
    "name": "Sorobango",
    "lat": 8.17239,
    "lng": -2.70814
  },
  {
    "id": 2279646,
    "name": "Yéleu",
    "lat": 6.97093,
    "lng": -8.05105
  },
  {
    "id": 12687468,
    "name": "Ahoutouagui",
    "lat": 5.33693,
    "lng": -6.47087
  },
  {
    "id": 2290033,
    "name": "Digbeuguhé",
    "lat": 6.32146,
    "lng": -6.73138
  },
  {
    "id": 2282724,
    "name": "Padiégnan",
    "lat": 6.97847,
    "lng": -3.42304
  },
  {
    "id": 12688198,
    "name": "Domangbeu",
    "lat": 6.98467,
    "lng": -7.01882
  },
  {
    "id": 12687715,
    "name": "Akabréboua",
    "lat": 5.89255,
    "lng": -5.64916
  },
  {
    "id": 2287484,
    "name": "Kanguélé",
    "lat": 8.11152,
    "lng": -2.71527
  },
  {
    "id": 2282320,
    "name": "Pouébo",
    "lat": 7.28889,
    "lng": -4.71889
  },
  {
    "id": 2281640,
    "name": "Sikolo",
    "lat": 9.44248,
    "lng": -4.71513
  },
  {
    "id": 2596877,
    "name": "Kaganiézé",
    "lat": 5.93098,
    "lng": -4.79223
  },
  {
    "id": 2293254,
    "name": "Agoua",
    "lat": 6.88063,
    "lng": -4.05587
  },
  {
    "id": 2287996,
    "name": "Guétuzon II",
    "lat": 6.75146,
    "lng": -6.92283
  },
  {
    "id": 2284463,
    "name": "M’bérié",
    "lat": 6.02699,
    "lng": -4.13174
  },
  {
    "id": 2291995,
    "name": "Baya",
    "lat": 9.90531,
    "lng": -6.24781
  },
  {
    "id": 12687954,
    "name": "Mèbifon",
    "lat": 5.95251,
    "lng": -3.57884
  },
  {
    "id": 2292193,
    "name": "Gbangbossou",
    "lat": 7.53963,
    "lng": -4.81773
  },
  {
    "id": 2596945,
    "name": "Ery-Makouguié II",
    "lat": 5.90458,
    "lng": -4.17084
  },
  {
    "id": 2597159,
    "name": "Akounougbé",
    "lat": 5.18278,
    "lng": -3.17836
  },
  {
    "id": 2287224,
    "name": "Kékrénou",
    "lat": 7.52837,
    "lng": -5.59692
  },
  {
    "id": 2285742,
    "name": "Koulikoro",
    "lat": 7.80819,
    "lng": -7.15739
  },
  {
    "id": 2288373,
    "name": "Goliahio",
    "lat": 6.32206,
    "lng": -6.3749
  },
  {
    "id": 2285153,
    "name": "Lobo-Akoudzin",
    "lat": 5.85088,
    "lng": -3.82291
  },
  {
    "id": 2283320,
    "name": "Nkoupé",
    "lat": 6.0729,
    "lng": -3.93534
  },
  {
    "id": 12687714,
    "name": "Zokolilié",
    "lat": 5.76141,
    "lng": -5.64129
  },
  {
    "id": 2597114,
    "name": "Diatokro",
    "lat": 5.39545,
    "lng": -3.34407
  },
  {
    "id": 2287952,
    "name": "Guiméyo",
    "lat": 5.83072,
    "lng": -6.30877
  },
  {
    "id": 2282681,
    "name": "Pana",
    "lat": 8.22773,
    "lng": -3.34082
  },
  {
    "id": 2279313,
    "name": "Zinzénou",
    "lat": 6.88139,
    "lng": -3.45806
  },
  {
    "id": 12687467,
    "name": "Niabably Pk",
    "lat": 5.0725,
    "lng": -6.07504
  },
  {
    "id": 8032043,
    "name": "Wehou",
    "lat": 5.52399,
    "lng": -3.45092
  },
  {
    "id": 2284680,
    "name": "Malamalakro",
    "lat": 5.24371,
    "lng": -2.97063
  },
  {
    "id": 2293445,
    "name": "Aby",
    "lat": 5.30502,
    "lng": -3.16916
  },
  {
    "id": 2281020,
    "name": "Tamabo",
    "lat": 5.4144,
    "lng": -4.81775
  },
  {
    "id": 2281667,
    "name": "Siempurgo",
    "lat": 9.51953,
    "lng": -6.19408
  },
  {
    "id": 2279627,
    "name": "Yérébaye",
    "lat": 8.34553,
    "lng": -2.81344
  },
  {
    "id": 12687466,
    "name": "Koupéro",
    "lat": 5.884,
    "lng": -6.84575
  },
  {
    "id": 2288590,
    "name": "Gbonné",
    "lat": 7.53116,
    "lng": -7.41275
  },
  {
    "id": 2290771,
    "name": "Boyakro",
    "lat": 7.64693,
    "lng": -5.70688
  },
  {
    "id": 2293367,
    "name": "Adjouan",
    "lat": 5.30995,
    "lng": -3.15232
  },
  {
    "id": 2290682,
    "name": "Brouafla",
    "lat": 7.24429,
    "lng": -6.68344
  },
  {
    "id": 2281943,
    "name": "Satama-Sokoro",
    "lat": 7.89806,
    "lng": -4.53012
  },
  {
    "id": 2291281,
    "name": "Gboguhé",
    "lat": 6.75728,
    "lng": -6.58371
  },
  {
    "id": 2292754,
    "name": "Arraguié",
    "lat": 6.01258,
    "lng": -4.14541
  },
  {
    "id": 2289657,
    "name": "Doufla",
    "lat": 7.45659,
    "lng": -6.74097
  },
  {
    "id": 2290459,
    "name": "Zoola Danangoro",
    "lat": 7.17558,
    "lng": -5.92494
  },
  {
    "id": 2288236,
    "name": "Gouékangouiné",
    "lat": 7.24071,
    "lng": -7.65424
  },
  {
    "id": 2284066,
    "name": "Nahio",
    "lat": 6.38423,
    "lng": -6.22736
  },
  {
    "id": 12688375,
    "name": "Farakoro",
    "lat": 8.78113,
    "lng": -5.91635
  },
  {
    "id": 2289010,
    "name": "Fizankoro",
    "lat": 8.46361,
    "lng": -6.19861
  },
  {
    "id": 2288717,
    "name": "Gbablasso",
    "lat": 7.76277,
    "lng": -7.69428
  },
  {
    "id": 2288110,
    "name": "Bouboury",
    "lat": 5.33871,
    "lng": -4.4596
  },
  {
    "id": 12687464,
    "name": "N'Driagui",
    "lat": 5.65762,
    "lng": -6.61271
  },
  {
    "id": 2292557,
    "name": "Audoin Santé",
    "lat": 5.28995,
    "lng": -4.13712
  },
  {
    "id": 12688197,
    "name": "Ouatigbeu",
    "lat": 6.66836,
    "lng": -6.89825
  },
  {
    "id": 12689417,
    "name": "Siyalédouo",
    "lat": 9.03777,
    "lng": -3.00497
  },
  {
    "id": 2290571,
    "name": "Dadéguhé",
    "lat": 6.51917,
    "lng": -6.75076
  },
  {
    "id": 2288211,
    "name": "Gouétilé",
    "lat": 7.01239,
    "lng": -7.7094
  },
  {
    "id": 2281541,
    "name": "Sissédougou",
    "lat": 9.15254,
    "lng": -6.43902
  },
  {
    "id": 12687463,
    "name": "Fahé",
    "lat": 4.99303,
    "lng": -6.64073
  },
  {
    "id": 12688374,
    "name": "Tiaplé",
    "lat": 10.098,
    "lng": -5.38939
  },
  {
    "id": 2290330,
    "name": "Dakouépleu",
    "lat": 7.18522,
    "lng": -7.5726
  },
  {
    "id": 2283699,
    "name": "Ngohinou",
    "lat": 6.54293,
    "lng": -4.50755
  },
  {
    "id": 2288872,
    "name": "Fransobli",
    "lat": 7.52986,
    "lng": -7.24973
  },
  {
    "id": 2284814,
    "name": "Louoboua",
    "lat": 6.57798,
    "lng": -6.37134
  },
  {
    "id": 11204680,
    "name": "Dieviessou",
    "lat": 7.565,
    "lng": -5.61574
  },
  {
    "id": 2290350,
    "name": "Débélé",
    "lat": 10.61306,
    "lng": -6.59528
  },
  {
    "id": 2284138,
    "name": "Mpossa",
    "lat": 5.48333,
    "lng": -2.85
  },
  {
    "id": 2280018,
    "name": "Vouéboufla",
    "lat": 7.62278,
    "lng": -5.94855
  },
  {
    "id": 2279188,
    "name": "Zro",
    "lat": 6.30276,
    "lng": -7.51229
  },
  {
    "id": 2279152,
    "name": "Zyogouiné",
    "lat": 7.19246,
    "lng": -7.64056
  },
  {
    "id": 2291669,
    "name": "Blenfla",
    "lat": 6.85648,
    "lng": -5.76379
  },
  {
    "id": 12687713,
    "name": "Grand-Zia",
    "lat": 6.18837,
    "lng": -6.24898
  },
  {
    "id": 2288897,
    "name": "Foumbolo",
    "lat": 8.64189,
    "lng": -4.64539
  },
  {
    "id": 2284528,
    "name": "Massala",
    "lat": 7.89888,
    "lng": -6.43716
  },
  {
    "id": 2282957,
    "name": "Orbaff",
    "lat": 5.40157,
    "lng": -4.41398
  },
  {
    "id": 12687462,
    "name": "Adamagui",
    "lat": 5.85839,
    "lng": -6.82237
  },
  {
    "id": 12687461,
    "name": "Gréléon",
    "lat": 4.78262,
    "lng": -6.91293
  },
  {
    "id": 12688533,
    "name": "Ouréguékaha",
    "lat": 8.44923,
    "lng": -5.1944
  },
  {
    "id": 2292270,
    "name": "Banabo",
    "lat": 6.70218,
    "lng": -4.29038
  },
  {
    "id": 2289340,
    "name": "Etroukro",
    "lat": 7.25889,
    "lng": -3.76389
  },
  {
    "id": 2289688,
    "name": "Douasso",
    "lat": 10.08881,
    "lng": -6.6639
  },
  {
    "id": 2287692,
    "name": "Kafiné",
    "lat": 8.50838,
    "lng": -5.31081
  },
  {
    "id": 2286250,
    "name": "Kosséhoa",
    "lat": 6.06919,
    "lng": -6.2955
  },
  {
    "id": 2291108,
    "name": "Bonguéra",
    "lat": 7.66663,
    "lng": -4.24335
  },
  {
    "id": 2288278,
    "name": "Gbombélo I",
    "lat": 7.59058,
    "lng": -7.64526
  },
  {
    "id": 2281651,
    "name": "Sifié",
    "lat": 7.98139,
    "lng": -6.92722
  },
  {
    "id": 12687460,
    "name": "Gbazoa",
    "lat": 6.22999,
    "lng": -6.62608
  },
  {
    "id": 2282221,
    "name": "Sabréguhé",
    "lat": 6.29526,
    "lng": -6.74253
  },
  {
    "id": 2284956,
    "name": "Bengbré",
    "lat": 7.39743,
    "lng": -5.14534
  },
  {
    "id": 2288181,
    "name": "Goulia",
    "lat": 10.01908,
    "lng": -7.20108
  },
  {
    "id": 12688196,
    "name": "Kayéta",
    "lat": 6.63906,
    "lng": -5.65406
  },
  {
    "id": 12688195,
    "name": "Gazibouo",
    "lat": 6.36791,
    "lng": -6.49427
  },
  {
    "id": 12688373,
    "name": "Olléo",
    "lat": 9.60842,
    "lng": -5.78626
  },
  {
    "id": 12688372,
    "name": "Djédana",
    "lat": 9.21019,
    "lng": -4.87894
  },
  {
    "id": 2281000,
    "name": "Tanosso",
    "lat": 6.67193,
    "lng": -4.2671
  },
  {
    "id": 2280791,
    "name": "Tiagba",
    "lat": 5.26028,
    "lng": -4.72333
  },
  {
    "id": 2289711,
    "name": "Dotou",
    "lat": 4.82591,
    "lng": -6.9252
  },
  {
    "id": 2288071,
    "name": "Grobia Souané",
    "lat": 5.85058,
    "lng": -5.48885
  },
  {
    "id": 2279399,
    "name": "Zégréboué",
    "lat": 5.37348,
    "lng": -5.91773
  },
  {
    "id": 2281042,
    "name": "Tala",
    "lat": 7.88667,
    "lng": -7.01139
  },
  {
    "id": 2290342,
    "name": "Débo I",
    "lat": 6.67498,
    "lng": -6.77728
  },
  {
    "id": 2283963,
    "name": "Nangoniékaha",
    "lat": 8.775,
    "lng": -5.23031
  },
  {
    "id": 2287332,
    "name": "Kassiongo-Koura",
    "lat": 10.01975,
    "lng": -5.57195
  },
  {
    "id": 2286085,
    "name": "Kouakro",
    "lat": 5.444,
    "lng": -2.90642
  },
  {
    "id": 12687549,
    "name": "Adamakro",
    "lat": 6.30059,
    "lng": -3.25696
  },
  {
    "id": 2290451,
    "name": "Dandougou",
    "lat": 8.38361,
    "lng": -5.90125
  },
  {
    "id": 2290589,
    "name": "Taboitien",
    "lat": 5.93806,
    "lng": -4.84222
  },
  {
    "id": 2290533,
    "name": "Kpapekou",
    "lat": 6.25143,
    "lng": -5.95054
  },
  {
    "id": 12687459,
    "name": "Soumahorodougou",
    "lat": 5.20941,
    "lng": -6.54747
  },
  {
    "id": 2284547,
    "name": "Marandala",
    "lat": 8.44722,
    "lng": -5.91948
  },
  {
    "id": 2291472,
    "name": "Blépleu",
    "lat": 7.39013,
    "lng": -7.82972
  },
  {
    "id": 2291013,
    "name": "Boroumba",
    "lat": 8.04653,
    "lng": -2.62145
  },
  {
    "id": 2290600,
    "name": "Dabégo",
    "lat": 4.9956,
    "lng": -5.97392
  },
  {
    "id": 2287117,
    "name": "Kilimoukro",
    "lat": 6.67691,
    "lng": -4.32499
  },
  {
    "id": 2279244,
    "name": "Zorofla",
    "lat": 7.24415,
    "lng": -6.2643
  },
  {
    "id": 2292425,
    "name": "Baffia",
    "lat": 5.53891,
    "lng": -2.99023
  },
  {
    "id": 12687712,
    "name": "Daako",
    "lat": 6.07822,
    "lng": -5.18439
  },
  {
    "id": 2288584,
    "name": "Gbrakro",
    "lat": 7.74375,
    "lng": -4.04101
  },