[
  {
    "id": 1796236,
    "name": "Shanghai",
    "lat": 31.22222,
    "lng": 121.45806
  },
  {
    "id": 1816670,
    "name": "Beijing",
    "lat": 39.9075,
    "lng": 116.39723
  },
  {
    "id": 1795565,
    "name": "Shenzhen",
    "lat": 22.54554,
    "lng": 114.0683
  },
  {
    "id": 1809858,
    "name": "Guangzhou",
    "lat": 23.11667,
    "lng": 113.25
  },
  {
    "id": 1815286,
    "name": "Chengdu",
    "lat": 30.66667,
    "lng": 104.06667
  },
  {
    "id": 1792947,
    "name": "Tianjin",
    "lat": 39.14222,
    "lng": 117.17667
  },
  {
    "id": 1791247,
    "name": "Wuhan",
    "lat": 30.58333,
    "lng": 114.26667
  },
  {
    "id": 1812545,
    "name": "Dongguan",
    "lat": 23.01797,
    "lng": 113.74866
  },
  {
    "id": 1790630,
    "name": "Xi’an",
    "lat": 34.25833,
    "lng": 108.92861
  },
  {
    "id": 1799962,
    "name": "Nanjing",
    "lat": 32.06167,
    "lng": 118.77778
  },
  {
    "id": 1808926,
    "name": "Hangzhou",
    "lat": 30.29365,
    "lng": 120.16142
  },
  {
    "id": 1811103,
    "name": "Foshan",
    "lat": 23.02677,
    "lng": 113.13148
  },
  {
    "id": 1814906,
    "name": "Chongqing",
    "lat": 29.56026,
    "lng": 106.55771
  },
  {
    "id": 1797929,
    "name": "Qingdao",
    "lat": 36.06488,
    "lng": 120.38042
  },
  {
    "id": 2034937,
    "name": "Shenyang",
    "lat": 41.79222,
    "lng": 123.43278
  },
  {
    "id": 1886760,
    "name": "Suzhou",
    "lat": 31.30408,
    "lng": 120.59538
  },
  {
    "id": 2037013,
    "name": "Harbin",
    "lat": 45.75,
    "lng": 126.65
  },
  {
    "id": 1808722,
    "name": "Hefei",
    "lat": 31.86389,
    "lng": 117.28083
  },
  {
    "id": 1814087,
    "name": "Dalian",
    "lat": 38.91222,
    "lng": 121.60222
  },
  {
    "id": 2038180,
    "name": "Changchun",
    "lat": 43.88,
    "lng": 125.32278
  },
  {
    "id": 1790645,
    "name": "Xiamen",
    "lat": 24.47979,
    "lng": 118.08187
  },
  {
    "id": 13308620,
    "name": "Bao'an",
    "lat": 22.55213,
    "lng": 113.88288
  },
  {
    "id": 1790923,
    "name": "Wuxi",
    "lat": 31.56887,
    "lng": 120.28857
  },
  {
    "id": 1805753,
    "name": "Jinan",
    "lat": 36.66833,
    "lng": 116.99722
  },
  {
    "id": 1793511,
    "name": "Taiyuan",
    "lat": 37.86944,
    "lng": 112.56028
  },
  {
    "id": 1784658,
    "name": "Zhengzhou",
    "lat": 34.75778,
    "lng": 113.64861
  },
  {
    "id": 1795270,
    "name": "Shijiazhuang",
    "lat": 38.04139,
    "lng": 114.47861
  },
  {
    "id": 1804651,
    "name": "Kunming",
    "lat": 25.03889,
    "lng": 102.71833
  },
  {
    "id": 6986104,
    "name": "Zhongshan",
    "lat": 22.52306,
    "lng": 113.37912
  },
  {
    "id": 1799869,
    "name": "Nanning",
    "lat": 22.81667,
    "lng": 108.31667
  },
  {
    "id": 1795940,
    "name": "Shantou",
    "lat": 23.35489,
    "lng": 116.67876
  },
  {
    "id": 1810821,
    "name": "Fuzhou",
    "lat": 26.06139,
    "lng": 119.30611
  },
  {
    "id": 1799397,
    "name": "Ningbo",
    "lat": 29.87819,
    "lng": 121.54945
  },
  {
    "id": 1798425,
    "name": "Puyang",
    "lat": 29.45679,
    "lng": 119.88872
  },
  {
    "id": 1794903,
    "name": "Shiyan",
    "lat": 32.6475,
    "lng": 110.77806
  },
  {
    "id": 1793346,
    "name": "Tangshan",
    "lat": 39.64381,
    "lng": 118.18319
  },
  {
    "id": 13512505,
    "name": "Lüliang",
    "lat": 37.5192,
    "lng": 111.14436
  },
  {
    "id": 1815456,
    "name": "Changzhou",
    "lat": 31.77359,
    "lng": 119.95401
  },
  {
    "id": 1785286,
    "name": "Zibo",
    "lat": 36.79056,
    "lng": 118.06333
  },
  {
    "id": 1815577,
    "name": "Changsha",
    "lat": 28.19874,
    "lng": 112.97087
  },
  {
    "id": 1809461,
    "name": "Guiyang",
    "lat": 26.58333,
    "lng": 106.71667
  },
  {
    "id": 1529102,
    "name": "Ürümqi",
    "lat": 43.80096,
    "lng": 87.60046
  },
  {
    "id": 1804430,
    "name": "Lanzhou",
    "lat": 36.05701,
    "lng": 103.83987
  },
  {
    "id": 1806776,
    "name": "Huizhou",
    "lat": 23.11147,
    "lng": 114.41523
  },
  {
    "id": 1809078,
    "name": "Haikou",
    "lat": 20.03421,
    "lng": 110.34651
  },
  {
    "id": 1803318,
    "name": "Linyi",
    "lat": 35.06306,
    "lng": 118.34278
  },
  {
    "id": 1816971,
    "name": "Baoding",
    "lat": 38.87288,
    "lng": 115.46246
  },
  {
    "id": 1791388,
    "name": "Wenzhou",
    "lat": 27.99942,
    "lng": 120.66682
  },
  {
    "id": 1785725,
    "name": "Yunfu",
    "lat": 22.92787,
    "lng": 112.03809
  },
  {
    "id": 1797873,
    "name": "Huai'an",
    "lat": 33.58861,
    "lng": 119.01917
  },
  {
    "id": 1800163,
    "name": "Nanchang",
    "lat": 28.68396,
    "lng": 115.85306
  },
  {
    "id": 2036892,
    "name": "Hohhot",
    "lat": 40.81056,
    "lng": 111.65222
  },
  {
    "id": 1795855,
    "name": "Shaoxing",
    "lat": 30.00237,
    "lng": 120.57864
  },
  {
    "id": 1799722,
    "name": "Nantong",
    "lat": 32.03028,
    "lng": 120.87472
  },
  {
    "id": 1787093,
    "name": "Yantai",
    "lat": 37.47649,
    "lng": 121.44081
  },
  {
    "id": 1790437,
    "name": "Zhuhai",
    "lat": 22.27694,
    "lng": 113.56778
  },
  {
    "id": 2038432,
    "name": "Baotou",
    "lat": 40.6516,
    "lng": 109.84389
  },
  {
    "id": 12359313,
    "name": "Qingyang",
    "lat": 35.70976,
    "lng": 107.64455
  },
  {
    "id": 1785623,
    "name": "Kunshan",
    "lat": 31.37762,
    "lng": 120.95431
  },
  {
    "id": 1791681,
    "name": "Weifang",
    "lat": 36.71,
    "lng": 119.10194
  },
  {
    "id": 1783621,
    "name": "Zunyi",
    "lat": 27.68667,
    "lng": 106.90722
  },
  {
    "id": 10859300,
    "name": "Lianyungang",
    "lat": 34.59845,
    "lng": 119.21556
  },
  {
    "id": 1810638,
    "name": "Ganzhou",
    "lat": 25.84664,
    "lng": 114.9326
  },
  {
    "id": 8347664,
    "name": "Ordos",
    "lat": 39.6086,
    "lng": 109.78157
  },
  {
    "id": 1797121,
    "name": "Jieyang",
    "lat": 23.5418,
    "lng": 116.36581
  },
  {
    "id": 2036502,
    "name": "Jilin",
    "lat": 43.84652,
    "lng": 126.5608
  },
  {
    "id": 1800146,
    "name": "Nanchong",
    "lat": 30.79508,
    "lng": 106.08473
  },
  {
    "id": 2037799,
    "name": "Datong",
    "lat": 40.09361,
    "lng": 113.29139
  },
  {
    "id": 1799629,
    "name": "Nanyang",
    "lat": 32.99472,
    "lng": 112.53278
  },
  {
    "id": 1806299,
    "name": "Jiangmen",
    "lat": 22.58333,
    "lng": 113.08333
  },
  {
    "id": 1815251,
    "name": "Jiangyin",
    "lat": 31.91102,
    "lng": 120.26302
  },
  {
    "id": 1810845,
    "name": "Fuyang",
    "lat": 32.9,
    "lng": 115.81667
  },
  {
    "id": 11838258,
    "name": "Bayan Nur",
    "lat": 40.74143,
    "lng": 107.38599
  },
  {
    "id": 1815395,
    "name": "Chaozhou",
    "lat": 23.65396,
    "lng": 116.62262
  },
  {
    "id": 1797945,
    "name": "Qingyuan",
    "lat": 23.7,
    "lng": 113.03333
  },
  {
    "id": 1793724,
    "name": "Tai’an",
    "lat": 36.18528,
    "lng": 117.12
  },
  {
    "id": 1788852,
    "name": "Xining",
    "lat": 36.62554,
    "lng": 101.75739
  },
  {
    "id": 7283386,
    "name": "Changshu",
    "lat": 31.64615,
    "lng": 120.74221
  },
  {
    "id": 1807681,
    "name": "Huainan",
    "lat": 32.62639,
    "lng": 116.99694
  },
  {
    "id": 1793743,
    "name": "Suzhou",
    "lat": 33.63611,
    "lng": 116.97889
  },
  {
    "id": 1802206,
    "name": "Lu’an",
    "lat": 31.73561,
    "lng": 116.51688
  },
  {
    "id": 1787746,
    "name": "Yancheng",
    "lat": 33.3575,
    "lng": 120.1573
  },
  {
    "id": 1793505,
    "name": "Taizhou",
    "lat": 32.49069,
    "lng": 119.90812
  },
  {
    "id": 2037860,
    "name": "Daqing",
    "lat": 46.58333,
    "lng": 125.0
  },
  {
    "id": 1791236,
    "name": "Wuhu",
    "lat": 31.35259,
    "lng": 118.42947
  },
  {
    "id": 1813325,
    "name": "Dazhou",
    "lat": 31.2106,
    "lng": 107.46308
  },
  {
    "id": 1787227,
    "name": "Yangzhou",
    "lat": 32.39722,
    "lng": 119.43583
  },
  {
    "id": 1809498,
    "name": "Guilin",
    "lat": 25.28022,
    "lng": 110.29639
  },
  {
    "id": 1784853,
    "name": "Zhaoqing",
    "lat": 23.04893,
    "lng": 112.46091
  },
  {
    "id": 1800627,
    "name": "Mianyang",
    "lat": 31.46784,
    "lng": 104.68168
  },
  {
    "id": 12358576,
    "name": "Wanzhou",
    "lat": 30.76451,
    "lng": 108.39586
  },
  {
    "id": 1798449,
    "name": "Putian",
    "lat": 25.43944,
    "lng": 119.01028
  },
  {
    "id": 1783934,
    "name": "Shangqiu",
    "lat": 34.45,
    "lng": 115.65
  },
  {
    "id": 1786657,
    "name": "Yinchuan",
    "lat": 38.46806,
    "lng": 106.27306
  },
  {
    "id": 8400694,
    "name": "Taizhou",
    "lat": 28.66266,
    "lng": 121.43312
  },
  {
    "id": 1814870,
    "name": "Yiwu",
    "lat": 29.31506,
    "lng": 120.07676
  },
  {
    "id": 1797353,
    "name": "Quanzhou",
    "lat": 24.91389,
    "lng": 118.58583
  },
  {
    "id": 1805528,
    "name": "Jinhua",
    "lat": 29.10678,
    "lng": 119.64421
  },
  {
    "id": 1806602,
    "name": "Cixi",
    "lat": 30.1764,
    "lng": 121.2457
  },
  {
    "id": 1791121,
    "name": "Changde",
    "lat": 29.03205,
    "lng": 111.69844
  },
  {
    "id": 1804879,
    "name": "Kaifeng",
    "lat": 34.7986,
    "lng": 114.30742
  },
  {
    "id": 2038632,
    "name": "Anshan",
    "lat": 41.12361,
    "lng": 122.99
  },
  {
    "id": 10942359,
    "name": "Baoji",
    "lat": 34.36775,
    "lng": 107.23705
  },
  {
    "id": 1793771,
    "name": "Suqian",
    "lat": 33.94917,
    "lng": 118.29583
  },
  {
    "id": 1803300,
    "name": "Liuzhou",
    "lat": 24.32405,
    "lng": 109.40698
  },
  {
    "id": 1787331,
    "name": "Zhangjiagang",
    "lat": 31.865,
    "lng": 120.53889
  },
  {
    "id": 1797658,
    "name": "Jinjiang",
    "lat": 24.81978,
    "lng": 118.57415
  },
  {
    "id": 1816234,
    "name": "Bozhou",
    "lat": 33.87722,
    "lng": 115.77028
  },
  {
    "id": 1797318,
    "name": "Qujing",
    "lat": 25.48333,
    "lng": 103.78333
  },
  {
    "id": 1784990,
    "name": "Zhanjiang",
    "lat": 21.23391,
    "lng": 110.38749
  },
  {
    "id": 2037355,
    "name": "Fushun",
    "lat": 41.88669,
    "lng": 123.94363
  },
  {
    "id": 1801792,
    "name": "Luoyang",
    "lat": 34.67345,
    "lng": 112.43684
  },
  {
    "id": 1802875,
    "name": "Guankou",
    "lat": 28.15861,
    "lng": 113.62709
  },
  {
    "id": 1808963,
    "name": "Handan",
    "lat": 36.60999,
    "lng": 114.48764
  },
  {
    "id": 1786764,
    "name": "Yichang",
    "lat": 30.71444,
    "lng": 111.28472
  },
  {
    "id": 1808198,
    "name": "Heze",
    "lat": 35.23929,
    "lng": 115.47358
  },
  {
    "id": 8533133,
    "name": "Liupanshui",
    "lat": 26.59444,
    "lng": 104.83333
  },
  {
    "id": 1801180,
    "name": "Maoming",
    "lat": 21.66625,
    "lng": 110.91364
  },
  {
    "id": 1797551,
    "name": "Qinzhou",
    "lat": 21.98247,
    "lng": 108.65061
  },
  {
    "id": 1801934,
    "name": "Luohe",
    "lat": 33.56394,
    "lng": 114.04272
  },
  {
    "id": 1790587,
    "name": "Xiangyang",
    "lat": 32.0422,
    "lng": 112.14479
  },
  {
    "id": 1806408,
    "name": "Yangjiang",
    "lat": 21.85563,
    "lng": 111.96272
  },
  {
    "id": 1786760,
    "name": "Yixing",
    "lat": 31.36059,
    "lng": 119.82016
  },
  {
    "id": 1788046,
    "name": "Xuchang",
    "lat": 34.03189,
    "lng": 113.86299
  },
  {
    "id": 1783745,
    "name": "Zigong",
    "lat": 29.34162,
    "lng": 104.77689
  },
  {
    "id": 10630003,
    "name": "Xuzhou",
    "lat": 34.20442,
    "lng": 117.28386
  },
  {
    "id": 1799491,
    "name": "Neijiang",
    "lat": 29.58354,
    "lng": 105.06216
  },
  {
    "id": 1808316,
    "name": "Heshan",
    "lat": 28.56938,
    "lng": 112.34733
  },
  {
    "id": 1805518,
    "name": "Jining",
    "lat": 35.405,
    "lng": 116.58139
  },
  {
    "id": 1788534,
    "name": "Xinyang",
    "lat": 32.12278,
    "lng": 114.06556
  },
  {
    "id": 1803834,
    "name": "Liaocheng",
    "lat": 36.45064,
    "lng": 116.00247
  },
  {
    "id": 10942283,
    "name": "Jinzhong",
    "lat": 37.68403,
    "lng": 112.75471
  },
  {
    "id": 1808956,
    "name": "Changzhi",
    "lat": 36.18389,
    "lng": 113.10528
  },
  {
    "id": 1792892,
    "name": "Tianshui",
    "lat": 34.57952,
    "lng": 105.74238
  },
  {
    "id": 1791636,
    "name": "Weinan",
    "lat": 34.50355,
    "lng": 109.50891
  },
  {
    "id": 1805953,
    "name": "Jiaxing",
    "lat": 30.7522,
    "lng": 120.75
  },
  {
    "id": 1805179,
    "name": "Jiujiang",
    "lat": 29.70475,
    "lng": 116.00206
  },
  {
    "id": 1785294,
    "name": "Anyang",
    "lat": 36.096,
    "lng": 114.38278
  },
  {
    "id": 1816373,
    "name": "Bijie",
    "lat": 27.30193,
    "lng": 105.28627
  },
  {
    "id": 1783763,
    "name": "Zhuzhou",
    "lat": 27.83333,
    "lng": 113.15
  },
  {
    "id": 1787858,
    "name": "Shangrao",
    "lat": 28.45179,
    "lng": 117.94287
  },
  {
    "id": 1807700,
    "name": "Huaibei",
    "lat": 33.97444,
    "lng": 116.79167
  },
  {
    "id": 1800818,
    "name": "Meishan",
    "lat": 30.04392,
    "lng": 103.83696
  },
  {
    "id": 1810820,
    "name": "Fuzhou",
    "lat": 27.95999,
    "lng": 116.33333
  },
  {
    "id": 1809532,
    "name": "Guigang",
    "lat": 23.11603,
    "lng": 109.59472
  },
  {
    "id": 1808370,
    "name": "Hengyang",
    "lat": 26.88946,
    "lng": 112.61888
  },
  {
    "id": 1785781,
    "name": "Yulin",
    "lat": 22.6305,
    "lng": 110.14686
  },
  {
    "id": 1805540,
    "name": "Jingzhou",
    "lat": 30.35028,
    "lng": 112.19028
  },
  {
    "id": 1788572,
    "name": "Xinxiang",
    "lat": 35.19033,
    "lng": 113.80151
  },
  {
    "id": 1786746,
    "name": "Yichun",
    "lat": 27.83333,
    "lng": 114.4
  },
  {
    "id": 1790353,
    "name": "Xianyang",
    "lat": 34.33778,
    "lng": 108.70261
  },
  {
    "id": 1796556,
    "name": "Sanya",
    "lat": 18.25435,
    "lng": 109.50947
  },
  {
    "id": 1795874,
    "name": "Shaoguan",
    "lat": 24.8,
    "lng": 113.58333
  },
  {
    "id": 1802276,
    "name": "Longyan",
    "lat": 25.07485,
    "lng": 117.01775
  },
  {
    "id": 1786217,
    "name": "Yongzhou",
    "lat": 26.42389,
    "lng": 111.61306
  },
  {
    "id": 1806535,
    "name": "Huzhou",
    "lat": 30.8703,
    "lng": 120.0933
  },
  {
    "id": 1803936,
    "name": "Wuwei",
    "lat": 37.92672,
    "lng": 102.63202
  },
  {
    "id": 1808857,
    "name": "Hanzhong",
    "lat": 33.07507,
    "lng": 107.02214
  },
  {
    "id": 7576887,
    "name": "Hezhou",
    "lat": 24.40357,
    "lng": 111.56675
  },
  {
    "id": 7602670,
    "name": "Zhu Cheng City",
    "lat": 35.99502,
    "lng": 119.40259
  },
  {
    "id": 1812101,
    "name": "Dongying",
    "lat": 37.46271,
    "lng": 118.49165
  },
  {
    "id": 1801640,
    "name": "Luzhou",
    "lat": 28.8903,
    "lng": 105.42575
  },
  {
    "id": 1800779,
    "name": "Meizhou",
    "lat": 24.28859,
    "lng": 116.11768
  },
  {
    "id": 1927639,
    "name": "Yueyang",
    "lat": 29.37455,
    "lng": 113.09481
  },
  {
    "id": 1804591,
    "name": "Laiwu",
    "lat": 36.19278,
    "lng": 117.65694
  },
  {
    "id": 2038300,
    "name": "Benxi",
    "lat": 41.28861,
    "lng": 123.765
  },
  {
    "id": 1798827,
    "name": "Pingdingshan",
    "lat": 33.73847,
    "lng": 113.30119
  },
  {
    "id": 1816440,
    "name": "Bengbu",
    "lat": 32.94083,
    "lng": 117.36083
  },
  {
    "id": 1790492,
    "name": "Xiangtan",
    "lat": 27.85,
    "lng": 112.9
  },
  {
    "id": 1803567,
    "name": "Linfen",
    "lat": 36.08889,
    "lng": 111.51889
  },
  {
    "id": 1784642,
    "name": "Zhenjiang",
    "lat": 32.21086,
    "lng": 119.45508
  },
  {
    "id": 2036662,
    "name": "Huludao",
    "lat": 40.75243,
    "lng": 120.83552
  },
  {
    "id": 1281673,
    "name": "Baoshan",
    "lat": 25.11626,
    "lng": 99.16366
  },
  {
    "id": 1797063,
    "name": "Rui’an",
    "lat": 27.77605,
    "lng": 120.65859
  },
  {
    "id": 1804609,
    "name": "Laibin",
    "lat": 23.74743,
    "lng": 109.22222
  },
  {
    "id": 1790254,
    "name": "Xiaogan",
    "lat": 30.92689,
    "lng": 113.92221
  },
  {
    "id": 1783683,
    "name": "Ziyang",
    "lat": 30.12108,
    "lng": 104.64811
  },
  {
    "id": 1797264,
    "name": "Quzhou",
    "lat": 28.95944,
    "lng": 118.86861
  },
  {
    "id": 1785453,
    "name": "Zaozhuang",
    "lat": 34.86472,
    "lng": 117.55417
  },
  {
    "id": 1798654,
    "name": "Pingxiang",
    "lat": 27.61672,
    "lng": 113.85353
  },
  {
    "id": 1886762,
    "name": "Zhoushan",
    "lat": 29.98869,
    "lng": 122.20488
  },
  {
    "id": 2035265,
    "name": "Qiqihar",
    "lat": 47.33922,
    "lng": 123.96154
  },
  {
    "id": 1802940,
    "name": "Puning",
    "lat": 23.31072,
    "lng": 116.16869
  },
  {
    "id": 1789065,
    "name": "Ankang",
    "lat": 32.68,
    "lng": 109.01722
  },
  {
    "id": 1804540,
    "name": "Langfang",
    "lat": 39.52079,
    "lng": 116.71471
  },
  {
    "id": 1805987,
    "name": "Jiaozuo",
    "lat": 35.23925,
    "lng": 113.23914
  },
  {
    "id": 1791748,
    "name": "Wanxian",
    "lat": 30.81601,
    "lng": 108.37407
  },
  {
    "id": 1799194,
    "name": "Guang’an",
    "lat": 30.47413,
    "lng": 106.63696
  },
  {
    "id": 1791673,
    "name": "Weihai",
    "lat": 37.50914,
    "lng": 122.11356
  },
  {
    "id": 1788508,
    "name": "Xinyu",
    "lat": 27.80429,
    "lng": 114.93335
  },
  {
    "id": 1786770,
    "name": "Yibin",
    "lat": 28.7593,
    "lng": 104.63994
  },
  {
    "id": 1793703,
    "name": "Taicang",
    "lat": 31.44778,
    "lng": 121.09389
  },
  {
    "id": 1815059,
    "name": "Chenzhou",
    "lat": 25.8,
    "lng": 113.03333
  },
  {
    "id": 1817993,
    "name": "Anqing",
    "lat": 30.51365,
    "lng": 117.04723
  },
  {
    "id": 1788927,
    "name": "Xingtai",
    "lat": 37.06217,
    "lng": 114.49272
  },
  {
    "id": 1784841,
    "name": "Zhaotong",
    "lat": 27.31667,
    "lng": 103.71667
  },
  {
    "id": 6929460,
    "name": "Panzhihua",
    "lat": 26.58509,
    "lng": 101.71276
  },
  {
    "id": 1814757,
    "name": "Chuzhou",
    "lat": 32.32194,
    "lng": 118.29778
  },
  {
    "id": 1788081,
    "name": "Xuancheng",
    "lat": 30.9525,
    "lng": 118.75528
  },
  {
    "id": 1817720,
    "name": "Shangyu",
    "lat": 30.01556,
    "lng": 120.87111
  },
  {
    "id": 1817968,
    "name": "Anshun",
    "lat": 26.25,
    "lng": 105.93333
  },
  {
    "id": 1790840,
    "name": "Wuzhou",
    "lat": 23.48054,
    "lng": 111.28848
  },
  {
    "id": 1797595,
    "name": "Qinhuangdao",
    "lat": 39.94104,
    "lng": 119.58936
  },
  {
    "id": 1816920,
    "name": "Shaoyang",
    "lat": 27.23818,
    "lng": 111.46214
  },
  {
    "id": 2036986,
    "name": "Hegang",
    "lat": 47.34727,
    "lng": 130.29033
  },
  {
    "id": 1801620,
    "name": "Ma’anshan",
    "lat": 31.68579,
    "lng": 118.51008
  },
  {
    "id": 12324556,
    "name": "Shizuishan",
    "lat": 38.98082,
    "lng": 106.3892
  },
  {
    "id": 1812961,
    "name": "Deyang",
    "lat": 31.13019,
    "lng": 104.38198
  },
  {
    "id": 1787351,
    "name": "Yangquan",
    "lat": 37.8575,
    "lng": 113.56333
  },
  {
    "id": 1783873,
    "name": "Zhumadian",
    "lat": 32.97944,
    "lng": 114.02944
  },
  {
    "id": 1815463,
    "name": "Changzhi",
    "lat": 35.20889,
    "lng": 111.73861
  },
  {
    "id": 2033196,
    "name": "Zhangjiakou",
    "lat": 40.78341,
    "lng": 114.87139
  },
  {
    "id": 2037346,
    "name": "Fuxin",
    "lat": 42.01556,
    "lng": 121.65889
  },
  {
    "id": 1796989,
    "name": "Changsha",
    "lat": 22.38124,
    "lng": 112.68492
  },
  {
    "id": 1807234,
    "name": "Huangshi",
    "lat": 30.24706,
    "lng": 115.04814
  },
  {
    "id": 2036113,
    "name": "Liaoyang",
    "lat": 41.27194,
    "lng": 123.17306
  },
  {
    "id": 1816269,
    "name": "Baise",
    "lat": 23.89013,
    "lng": 106.62684
  },
  {
    "id": 1816336,
    "name": "Binzhou",
    "lat": 37.36667,
    "lng": 118.01667
  },
  {
    "id": 1785738,
    "name": "Yuncheng",
    "lat": 35.02306,
    "lng": 110.99278
  },
  {
    "id": 1812955,
    "name": "Dezhou",
    "lat": 37.44661,
    "lng": 116.36706
  },
  {
    "id": 1796669,
    "name": "Sanmenxia",
    "lat": 34.78081,
    "lng": 111.19287
  },
  {
    "id": 6642286,
    "name": "E’zhou",
    "lat": 30.39607,
    "lng": 114.88655
  },
  {
    "id": 2035715,
    "name": "Mudanjiang",
    "lat": 44.54804,
    "lng": 129.62594
  },
  {
    "id": 1804153,
    "name": "Leshan",
    "lat": 29.56227,
    "lng": 103.76386
  },
  {
    "id": 9072919,
    "name": "Rizhao",
    "lat": 35.41414,
    "lng": 119.52908
  },
  {
    "id": 1793900,
    "name": "Suining",
    "lat": 30.50802,
    "lng": 105.57332
  },
  {
    "id": 9181182,
    "name": "Puyang",
    "lat": 35.75641,
    "lng": 115.04363
  },
  {
    "id": 1808770,
    "name": "Hebi",
    "lat": 35.73231,
    "lng": 114.28616
  },
  {
    "id": 1805611,
    "name": "Jingmen",
    "lat": 31.03361,
    "lng": 112.20472
  },
  {
    "id": 2037886,
    "name": "Dandong",
    "lat": 40.12917,
    "lng": 124.39472
  },
  {
    "id": 2035513,
    "name": "Panshan",
    "lat": 41.18806,
    "lng": 122.04944
  },
  {
    "id": 1806096,
    "name": "Jiaozhou",
    "lat": 36.28389,
    "lng": 120.00333
  },
  {
    "id": 1793879,
    "name": "Suizhou",
    "lat": 31.71111,
    "lng": 113.36306
  },
  {
    "id": 1814934,
    "name": "Chizhou",
    "lat": 30.66134,
    "lng": 117.47783
  },
  {
    "id": 1787816,
    "name": "Ya'an",
    "lat": 29.98521,
    "lng": 102.999
  },
  {
    "id": 2036427,
    "name": "Jinzhou",
    "lat": 41.10778,
    "lng": 121.14167
  },
  {
    "id": 1796663,
    "name": "Sanming",
    "lat": 26.24861,
    "lng": 117.61861
  },
  {
    "id": 2034786,
    "name": "Shuangyashan",
    "lat": 46.67686,
    "lng": 131.13273
  },
  {
    "id": 1802204,
    "name": "Luancheng",
    "lat": 37.88452,
    "lng": 114.64629
  },
  {
    "id": 13512502,
    "name": "Mengzi",
    "lat": 23.36779,
    "lng": 103.38212
  },
  {
    "id": 2033370,
    "name": "Yingkou",
    "lat": 40.66472,
    "lng": 122.23176
  },
  {
    "id": 1785018,
    "name": "Zhangzhou",
    "lat": 24.51333,
    "lng": 117.65556
  },
  {
    "id": 1529195,
    "name": "Shihezi",
    "lat": 44.3023,
    "lng": 86.03694
  },
  {
    "id": 1791544,
    "name": "Wenchang",
    "lat": 19.55158,
    "lng": 110.80279
  },
  {
    "id": 2034714,
    "name": "Siping",
    "lat": 43.16143,
    "lng": 124.37785
  },
  {
    "id": 1814760,
    "name": "Chuxiong",
    "lat": 25.03639,
    "lng": 101.54556
  },
  {
    "id": 1807689,
    "name": "Huaihua",
    "lat": 27.56337,
    "lng": 110.00404
  },
  {
    "id": 8335361,
    "name": "Ulanqab",
    "lat": 40.993,
    "lng": 113.133
  },
  {
    "id": 2036581,
    "name": "Jiamusi",
    "lat": 46.79711,
    "lng": 130.31118
  },
  {
    "id": 1529376,
    "name": "Korla",
    "lat": 41.76055,
    "lng": 86.15231
  },
  {
    "id": 1791779,
    "name": "Wanning",
    "lat": 18.79931,
    "lng": 110.3841
  },
  {
    "id": 1788450,
    "name": "Xinzhou",
    "lat": 38.40917,
    "lng": 112.73333
  },
  {
    "id": 1798821,
    "name": "Pingdu",
    "lat": 36.78444,
    "lng": 119.94639
  },
  {
    "id": 1806445,
    "name": "Ji’an",
    "lat": 27.11716,
    "lng": 114.97927
  },
  {
    "id": 1809412,
    "name": "Guli",
    "lat": 28.88162,
    "lng": 120.03308
  },
  {
    "id": 1529660,
    "name": "Aqsu",
    "lat": 41.18418,
    "lng": 80.27921
  },
  {
    "id": 1793424,
    "name": "Tanggu",
    "lat": 39.02111,
    "lng": 117.64694
  },
  {
    "id": 1796068,
    "name": "Shangluo",
    "lat": 33.86667,
    "lng": 109.93056
  },
  {
    "id": 1806488,
    "name": "Qionghai",
    "lat": 19.2425,
    "lng": 110.46417
  },
  {
    "id": 1816080,
    "name": "Cangzhou",
    "lat": 38.31124,
    "lng": 116.85334
  },
  {
    "id": 1816705,
    "name": "Beihai",
    "lat": 21.48349,
    "lng": 109.11549
  },
  {
    "id": 1808392,
    "name": "Hengshui",
    "lat": 37.73908,
    "lng": 115.68348
  },
  {
    "id": 1806466,
    "name": "Guangyuan",
    "lat": 32.44201,
    "lng": 105.823
  },
  {
    "id": 1790396,
    "name": "Xianning",
    "lat": 29.84347,
    "lng": 114.32201
  },
  {
    "id": 12492662,
    "name": "Mianzhu, Deyang, Sichuan",
    "lat": 31.33786,
    "lng": 104.22057
  },
  {
    "id": 2034414,
    "name": "Tonghua",
    "lat": 41.71972,
    "lng": 125.92639
  },
  {
    "id": 1909733,
    "name": "Banan",
    "lat": 29.37861,
    "lng": 106.54
  },
  {
    "id": 1785036,
    "name": "Zhangye",
    "lat": 38.93417,
    "lng": 100.45167
  },
  {
    "id": 1280849,
    "name": "Kashgar",
    "lat": 39.46718,
    "lng": 75.98675
  },
  {
    "id": 1784130,
    "name": "Zhoukou",
    "lat": 33.63333,
    "lng": 114.63333
  },
  {
    "id": 1798760,
    "name": "Pingliang",
    "lat": 35.53917,
    "lng": 106.68611
  },
  {
    "id": 1783988,
    "name": "Zhucheng",
    "lat": 35.99472,
    "lng": 119.3975
  },
  {
    "id": 1802238,
    "name": "Loudi",
    "lat": 27.73444,
    "lng": 111.99444
  },
  {
    "id": 1795928,
    "name": "Shanwei",
    "lat": 22.78199,
    "lng": 115.3475
  },
  {
    "id": 9931406,
    "name": "Jianshui",
    "lat": 24.2774,
    "lng": 101.224
  },
  {
    "id": 1789647,
    "name": "Xichang",
    "lat": 27.89642,
    "lng": 102.26341
  },
  {
    "id": 13527052,
    "name": "Chéngguān Qū",
    "lat": 29.63842,
    "lng": 91.04441
  },
  {
    "id": 1805741,
    "name": "Jincheng",
    "lat": 35.50222,
    "lng": 112.83278
  },
  {
    "id": 1787765,
    "name": "Yan’an",
    "lat": 36.59889,
    "lng": 109.49167
  },
  {
    "id": 1794794,
    "name": "Shouguang",
    "lat": 36.88,
    "lng": 118.7375
  },
  {
    "id": 1805680,
    "name": "Jingdezhen",
    "lat": 29.2947,
    "lng": 117.20789
  },
  {
    "id": 1799846,
    "name": "Nanping",
    "lat": 26.645,
    "lng": 118.17361
  },
  {
    "id": 2036109,
    "name": "Longshan",
    "lat": 42.88545,
    "lng": 125.1367
  },
  {
    "id": 1786112,
    "name": "Heyuan",
    "lat": 23.73333,
    "lng": 114.68333
  },
  {
    "id": 1792359,
    "name": "Huangshan",
    "lat": 29.71139,
    "lng": 118.3125
  },
  {
    "id": 1803245,
    "name": "Lishui",
    "lat": 28.46042,
    "lng": 119.91029
  },
  {
    "id": 8505006,
    "name": "Wenshan City",
    "lat": 23.36306,
    "lng": 104.25047
  },
  {
    "id": 2038087,
    "name": "Chengde",
    "lat": 40.9519,
    "lng": 117.95883
  },
  {
    "id": 1816858,
    "name": "Basuo",
    "lat": 19.10267,
    "lng": 108.66565
  },
  {
    "id": 1813171,
    "name": "Zhangjiajie",
    "lat": 29.12944,
    "lng": 110.47833
  },
  {
    "id": 2038365,
    "name": "Bei’an",
    "lat": 48.26667,
    "lng": 126.6
  },
  {
    "id": 1806097,
    "name": "Ningde",
    "lat": 26.66167,
    "lng": 119.52278
  },
  {
    "id": 1279945,
    "name": "Jiuquan",
    "lat": 39.74318,
    "lng": 98.51736
  },
  {
    "id": 1812749,
    "name": "Dingxi",
    "lat": 35.57088,
    "lng": 104.62303
  },
  {
    "id": 7064006,
    "name": "Tongchuan",
    "lat": 34.8988,
    "lng": 108.95056
  },
  {
    "id": 1809152,
    "name": "Guyuan",
    "lat": 36.00667,
    "lng": 106.28083
  },
  {
    "id": 2038120,
    "name": "Chaoyang",
    "lat": 41.57028,
    "lng": 120.45861
  },
  {
    "id": 1281019,
    "name": "Gujangbagh",
    "lat": 37.10927,
    "lng": 79.93433
  },
  {
    "id": 2036389,
    "name": "Jixi",
    "lat": 45.29322,
    "lng": 130.96217
  },
  {
    "id": 1792621,
    "name": "Tongling",
    "lat": 30.95,
    "lng": 117.78333
  },
  {
    "id": 1810458,
    "name": "Gaomi",
    "lat": 36.38333,
    "lng": 119.75278
  },
  {
    "id": 12159964,
    "name": "Chongzuo",
    "lat": 22.38161,
    "lng": 107.3683
  },
  {
    "id": 1913154,
    "name": "Tanzhou",
    "lat": 22.25503,
    "lng": 113.46692
  },
  {
    "id": 1808212,
    "name": "Hechuan",
    "lat": 29.99228,
    "lng": 106.26461
  },
  {
    "id": 2033574,
    "name": "Xuanhua",
    "lat": 40.61205,
    "lng": 115.06463
  },
  {
    "id": 7304020,
    "name": "Fenghuang",
    "lat": 27.93557,
    "lng": 109.59961
  },
  {
    "id": 8537264,
    "name": "Huanggang",
    "lat": 30.45143,
    "lng": 114.87035
  },
  {
    "id": 1817990,
    "name": "Anqiu",
    "lat": 36.43417,
    "lng": 119.1925
  },
  {
    "id": 1805029,
    "name": "Jizhou",
    "lat": 37.55054,
    "lng": 115.56871
  },
  {
    "id": 11694038,
    "name": "Huocheng",
    "lat": 44.05305,
    "lng": 80.87173
  },
  {
    "id": 8067345,
    "name": "Lhoka",
    "lat": 29.24301,
    "lng": 91.77239
  },
  {
    "id": 1798900,
    "name": "Pengze",
    "lat": 29.89885,
    "lng": 116.54572
  },
  {
    "id": 8054802,
    "name": "Xilinhot",
    "lat": 43.93889,
    "lng": 116.07021
  },
  {
    "id": 12548253,
    "name": "Hulunbuir",
    "lat": 49.21141,
    "lng": 119.75582
  },
  {
    "id": 1813206,
    "name": "Daye",
    "lat": 30.08333,
    "lng": 114.95
  },
  {
    "id": 2038067,
    "name": "Chifeng",
    "lat": 42.26833,
    "lng": 118.96361
  },
  {
    "id": 12277239,
    "name": "Yunlong",
    "lat": 34.25281,
    "lng": 117.25167
  },
  {
    "id": 2035261,
    "name": "Qitaihe",
    "lat": 45.768,
    "lng": 130.9953
  },
  {
    "id": 1785716,
    "name": "Pizhou",
    "lat": 34.31139,
    "lng": 117.95028
  },
  {
    "id": 1794479,
    "name": "Laixi",
    "lat": 36.85917,
    "lng": 120.52694
  },
  {
    "id": 2034439,
    "name": "Tieling",
    "lat": 42.29306,
    "lng": 123.84139
  },
  {
    "id": 12358476,
    "name": "Hechi",
    "lat": 24.69285,
    "lng": 108.08376
  },
  {
    "id": 1787824,
    "name": "Tongshan",
    "lat": 34.18045,
    "lng": 117.15707
  },
  {
    "id": 2033467,
    "name": "Yanji",
    "lat": 42.88825,
    "lng": 129.50241
  },
  {
    "id": 1803590,
    "name": "Lincang",
    "lat": 23.87972,
    "lng": 100.09455
  },
  {
    "id": 1807566,
    "name": "Xingyi",
    "lat": 25.09617,
    "lng": 104.90639
  },
  {
    "id": 6958518,
    "name": "Tantou",
    "lat": 22.75121,
    "lng": 113.83496
  },
  {
    "id": 2038569,
    "name": "Baicheng",
    "lat": 45.61751,
    "lng": 122.83302
  },
  {
    "id": 2036434,
    "name": "Lianshan",
    "lat": 40.76432,
    "lng": 120.85327
  },
  {
    "id": 1815482,
    "name": "Changyi",
    "lat": 36.85361,
    "lng": 119.39083
  },
  {
    "id": 1789262,
    "name": "Xinyi",
    "lat": 34.38424,
    "lng": 118.34617
  },
  {
    "id": 1787323,
    "name": "Yangshuo",
    "lat": 24.78081,
    "lng": 110.48967
  },
  {
    "id": 1803364,
    "name": "Linqu",
    "lat": 36.51556,
    "lng": 118.53972
  },
  {
    "id": 1794209,
    "name": "Simao",
    "lat": 22.78863,
    "lng": 100.97481
  },
  {
    "id": 1817240,
    "name": "Baiyin",
    "lat": 36.54696,
    "lng": 104.17023
  },
  {
    "id": 1810295,
    "name": "Gaozhou",
    "lat": 21.91965,
    "lng": 110.85678
  },
  {
    "id": 1788245,
    "name": "Xiuying",
    "lat": 20.00073,
    "lng": 110.29359
  },
  {
    "id": 1812990,
    "name": "Dengzhou",
    "lat": 32.68222,
    "lng": 112.08194
  },
  {
    "id": 1281743,
    "name": "Artux",
    "lat": 39.70842,
    "lng": 76.17971
  },
  {
    "id": 1529046,
    "name": "Xinyuan",
    "lat": 43.42649,
    "lng": 83.24959
  },
  {
    "id": 1811720,
    "name": "Enshi",
    "lat": 30.3,
    "lng": 109.48333
  },
  {
    "id": 1793419,
    "name": "Binhe",
    "lat": 32.68833,
    "lng": 112.8275
  },
  {
    "id": 1783633,
    "name": "Zoucheng",
    "lat": 35.40056,
    "lng": 116.96556
  },
  {
    "id": 12269572,
    "name": "Fangchenggang",
    "lat": 21.76945,
    "lng": 108.35661
  },
  {
    "id": 1804866,
    "name": "Kaili",
    "lat": 26.58583,
    "lng": 107.97972
  },
  {
    "id": 8594670,
    "name": "Xingning",
    "lat": 24.1483,
    "lng": 115.72272
  },
  {
    "id": 1803331,
    "name": "Linxia Chengguanzhen",
    "lat": 35.60028,
    "lng": 103.20639
  },
  {
    "id": 1529114,
    "name": "Turpan",
    "lat": 42.94769,
    "lng": 89.17886
  },
  {
    "id": 12492660,
    "name": "Longling County",
    "lat": 24.58663,
    "lng": 98.68934
  },
  {
    "id": 1529435,
    "name": "Ghulja",
    "lat": 43.91515,
    "lng": 81.32151
  },
  {
    "id": 1810979,
    "name": "Fuling",
    "lat": 29.70997,
    "lng": 107.39391
  },
  {
    "id": 1786640,
    "name": "Chengzhong",
    "lat": 30.94454,
    "lng": 113.55284
  },
  {
    "id": 2036670,
    "name": "Hulan Ergi",
    "lat": 47.20417,
    "lng": 123.63333
  },
  {
    "id": 1812521,
    "name": "Donghai",
    "lat": 22.94593,
    "lng": 115.64204
  },
  {
    "id": 1812228,
    "name": "Dongtai",
    "lat": 32.85231,
    "lng": 120.30947
  },
  {
    "id": 1529401,
    "name": "Karamay",
    "lat": 45.58473,
    "lng": 84.88724
  },
  {
    "id": 2034400,
    "name": "Tongliao",
    "lat": 43.6125,
    "lng": 122.26528
  },
  {
    "id": 1799471,
    "name": "Nianbo",
    "lat": 36.48,
    "lng": 102.41639
  },
  {
    "id": 1529641,
    "name": "Aral",
    "lat": 40.54184,
    "lng": 81.26566
  },
  {
    "id": 1815669,
    "name": "Changle",
    "lat": 36.70583,
    "lng": 118.8275
  },
  {
    "id": 2036458,
    "name": "Jining",
    "lat": 41.0275,
    "lng": 113.10583
  },
  {
    "id": 10942183,
    "name": "Rugao",
    "lat": 32.37035,
    "lng": 120.57649
  },
  {
    "id": 1793899,
    "name": "Suicheng",
    "lat": 33.8963,
    "lng": 117.93307
  },
  {
    "id": 1800234,
    "name": "Nada",
    "lat": 19.52134,
    "lng": 109.57895
  },
  {
    "id": 1787031,
    "name": "Yanzhou",
    "lat": 35.55278,
    "lng": 116.82861
  },
  {
    "id": 1804386,
    "name": "Laohekou",
    "lat": 32.38583,
    "lng": 111.66778
  },
  {
    "id": 2034655,
    "name": "Suihua",
    "lat": 46.64814,
    "lng": 126.96656
  },
  {
    "id": 1792260,
    "name": "Wafangdian",
    "lat": 39.61833,
    "lng": 122.00806
  },
  {
    "id": 1816790,
    "name": "Beibei",
    "lat": 29.82739,
    "lng": 106.43645
  },
  {
    "id": 1529484,
    "name": "Hami",
    "lat": 42.83393,
    "lng": 93.50601
  },
  {
    "id": 1806988,
    "name": "Huayin",
    "lat": 34.56528,
    "lng": 110.06639
  },
  {
    "id": 1805012,
    "name": "Jiyuan",
    "lat": 35.08912,
    "lng": 112.58815
  },
  {
    "id": 1790371,
    "name": "Xiantao",
    "lat": 30.3708,
    "lng": 113.44294
  },
  {
    "id": 1786731,
    "name": "Qingzhou",
    "lat": 36.69667,
    "lng": 118.47972
  },
  {
    "id": 8521718,
    "name": "Bole",
    "lat": 44.89334,
    "lng": 82.06993
  },
  {
    "id": 1814093,
    "name": "Dali",
    "lat": 25.58474,
    "lng": 100.21229
  },
  {
    "id": 1280957,
    "name": "Jiayuguan",
    "lat": 39.81121,
    "lng": 98.28618
  },
  {
    "id": 7843638,
    "name": "Changzheng",
    "lat": 31.23913,
    "lng": 121.36779
  },
  {
    "id": 1805733,
    "name": "Jinchang",
    "lat": 38.50062,
    "lng": 102.19379
  },
  {
    "id": 1807508,
    "name": "Huanggang",
    "lat": 23.67704,
    "lng": 116.99961
  },
  {
    "id": 1805618,
    "name": "Jingling",
    "lat": 30.65,
    "lng": 113.1
  },
  {
    "id": 2036973,
    "name": "Heihe",
    "lat": 50.24413,
    "lng": 127.49016
  },
  {
    "id": 1795196,
    "name": "Tongchuanshi",
    "lat": 35.07474,
    "lng": 109.08495
  },
  {
    "id": 1788618,
    "name": "Xintai",
    "lat": 35.90056,
    "lng": 117.75194
  },
  {
    "id": 1790894,
    "name": "Wuxue",
    "lat": 29.85058,
    "lng": 115.5525
  },
  {
    "id": 1791249,
    "name": "Wuhai",
    "lat": 39.68442,
    "lng": 106.81583
  },
  {
    "id": 12358616,
    "name": "Yintai",
    "lat": 35.11524,
    "lng": 109.09702
  },
  {
    "id": 1805298,
    "name": "Jinzhou",
    "lat": 39.1,
    "lng": 121.71667
  },
  {
    "id": 1786577,
    "name": "Yingtan",
    "lat": 28.23333,
    "lng": 117.0
  },
  {
    "id": 1783700,
    "name": "Zitong",
    "lat": 30.1782,
    "lng": 105.82991
  },
  {
    "id": 1801909,
    "name": "Luojiang",
    "lat": 31.30497,
    "lng": 104.50484
  },
  {
    "id": 1813253,
    "name": "Lijiang",
    "lat": 26.86879,
    "lng": 100.22072
  },
  {
    "id": 2037078,
    "name": "Hailar",
    "lat": 49.2,
    "lng": 119.7
  },
  {
    "id": 1814082,
    "name": "Daliang",
    "lat": 22.84067,
    "lng": 113.2503
  },
  {
    "id": 1817848,
    "name": "Bachuan",
    "lat": 29.84863,
    "lng": 106.05046
  },
  {
    "id": 1808931,
    "name": "Hangu",
    "lat": 39.24889,
    "lng": 117.78917
  },
  {
    "id": 1809380,
    "name": "Gunan",
    "lat": 29.0231,
    "lng": 106.648
  },
  {
    "id": 1785710,
    "name": "Jinghong",
    "lat": 22.00265,
    "lng": 100.7697
  },
  {
    "id": 6958503,
    "name": "Gongheyong",
    "lat": 22.75923,
    "lng": 113.79452
  },
  {
    "id": 8544703,
    "name": "Nanchuan",
    "lat": 29.15201,
    "lng": 107.10335
  },
  {
    "id": 1816329,
    "name": "Bishan",
    "lat": 29.59491,
    "lng": 106.22476
  },
  {
    "id": 1810437,
    "name": "Gaoping",
    "lat": 30.77576,
    "lng": 106.10294
  },
  {
    "id": 13512708,
    "name": "Nyingchi",
    "lat": 29.64885,
    "lng": 94.35509
  },
  {
    "id": 1803551,
    "name": "Beiliu",
    "lat": 22.70722,
    "lng": 110.34917
  },
  {
    "id": 1529569,
    "name": "Changji",
    "lat": 44.00782,
    "lng": 87.30461
  },
  {
    "id": 1811764,
    "name": "Duyun",
    "lat": 26.26667,
    "lng": 107.51667
  },
  {
    "id": 1804850,
    "name": "Kaiyuan",
    "lat": 23.69767,
    "lng": 103.30372
  },
  {
    "id": 1800657,
    "name": "Mentougou",
    "lat": 39.93819,
    "lng": 116.09307
  },
  {
    "id": 13512503,
    "name": "Lushui",
    "lat": 25.8232,
    "lng": 98.85853
  },
  {
    "id": 1805798,
    "name": "Jijiang",
    "lat": 29.28993,
    "lng": 106.25001
  },
  {
    "id": 1808950,
    "name": "Hanfeng",
    "lat": 31.16946,
    "lng": 108.4031
  },
  {
    "id": 1798972,
    "name": "Peicheng",
    "lat": 34.73611,
    "lng": 116.92472
  },
  {
    "id": 1811619,
    "name": "Ezhou",
    "lat": 30.4,
    "lng": 114.83333
  },
  {
    "id": 1784712,
    "name": "Zhengding",
    "lat": 38.14501,
    "lng": 114.56556
  },
  {
    "id": 1786378,
    "name": "Yongchuan",
    "lat": 29.35376,
    "lng": 105.89392
  },
  {
    "id": 1803842,
    "name": "Hepu",
    "lat": 21.65921,
    "lng": 109.20011
  },
  {
    "id": 1792585,
    "name": "Fuding",
    "lat": 27.32734,
    "lng": 120.21399
  },
  {
    "id": 1806696,
    "name": "Humen",
    "lat": 22.81899,
    "lng": 113.67306
  },
  {
    "id": 2037086,
    "name": "Haicheng",
    "lat": 40.85158,
    "lng": 122.74754
  },
  {
    "id": 1529651,
    "name": "Jinshanlu",
    "lat": 47.8505,
    "lng": 88.13286
  },
  {
    "id": 1809467,
    "name": "Guixi",
    "lat": 30.33355,
    "lng": 107.34545
  },
  {
    "id": 1804578,
    "name": "Laizhou",
    "lat": 37.18073,
    "lng": 119.94217
  },
  {
    "id": 8416933,
    "name": "Huixing",
    "lat": 29.68403,
    "lng": 106.61486
  },
  {
    "id": 1815477,
    "name": "Changyuan",
    "lat": 29.40499,
    "lng": 105.58827
  },
  {
    "id": 7910932,
    "name": "Shangri-La",
    "lat": 27.82511,
    "lng": 99.70779
  },
  {
    "id": 8417605,
    "name": "Yangcheng",
    "lat": 29.99968,
    "lng": 106.25604
  },
  {
    "id": 1529531,
    "name": "Dunhuang",
    "lat": 40.16667,
    "lng": 94.68333
  },
  {
    "id": 1785462,
    "name": "Zaoyang",
    "lat": 32.12722,
    "lng": 112.75417
  },
  {
    "id": 2038584,
    "name": "Baishan",
    "lat": 41.93853,
    "lng": 126.41965
  },
  {
    "id": 1784617,
    "name": "Zhenping Chengguanzhen",
    "lat": 33.03314,
    "lng": 112.23321
  },
  {
    "id": 2038650,
    "name": "Anda",
    "lat": 46.44867,
    "lng": 125.30161
  },
  {
    "id": 12492669,
    "name": "Pingwu County",
    "lat": 32.40732,
    "lng": 104.52738
  },
  {
    "id": 1786067,
    "name": "Qianjiang",
    "lat": 30.421,
    "lng": 112.8919
  },
  {
    "id": 1784580,
    "name": "Zhenzhou",
    "lat": 32.28034,
    "lng": 119.16999
  },
  {
    "id": 1789137,
    "name": "Xindi",
    "lat": 29.81667,
    "lng": 113.46667
  },
  {
    "id": 8416626,
    "name": "Fengcheng",
    "lat": 29.82587,
    "lng": 107.06019
  },
  {
    "id": 2036401,
    "name": "Jiutai",
    "lat": 44.1525,
    "lng": 125.83278
  },
  {
    "id": 1803791,
    "name": "Licheng",
    "lat": 23.29549,
    "lng": 113.82465
  },
  {
    "id": 2037620,
    "name": "Dongling",
    "lat": 41.81444,
    "lng": 123.57583
  },
  {
    "id": 1804586,
    "name": "Laiyang",
    "lat": 36.97583,
    "lng": 120.71361
  },
  {
    "id": 2034312,
    "name": "Ulanhot",
    "lat": 46.08333,
    "lng": 122.08333
  },
  {
    "id": 1794060,
    "name": "Songcheng",
    "lat": 26.88194,
    "lng": 120.00111
  },
  {
    "id": 2036920,
    "name": "Hengshan",
    "lat": 45.20837,
    "lng": 130.89808
  },
  {
    "id": 1792520,
    "name": "Tongzhou",
    "lat": 39.90395,
    "lng": 116.66183
  },
  {
    "id": 1818116,
    "name": "Anbu",
    "lat": 23.44895,
    "lng": 116.68092
  },
  {
    "id": 1799389,
    "name": "Ning’er",
    "lat": 23.04053,
    "lng": 101.03683
  },
  {
    "id": 1811200,
    "name": "Fengcheng",
    "lat": 34.70388,
    "lng": 116.58717
  },
  {
    "id": 1529167,
    "name": "Tacheng",
    "lat": 46.74535,
    "lng": 82.95847
  },
  {
    "id": 1784554,
    "name": "Zhicheng",
    "lat": 30.29556,
    "lng": 111.50472
  },
  {
    "id": 2035644,
    "name": "Nanpiao",
    "lat": 41.09822,
    "lng": 120.74792
  },
  {
    "id": 8416218,
    "name": "Lizhi",
    "lat": 29.70317,
    "lng": 107.39521
  },
  {
    "id": 1797632,
    "name": "Yizhou",
    "lat": 24.5,
    "lng": 108.66667
  },
  {
    "id": 2033413,
    "name": "Yichun",
    "lat": 47.72143,
    "lng": 128.87529
  },
  {
    "id": 1919014,
    "name": "Lianghu",
    "lat": 29.99152,
    "lng": 120.89845
  },
  {
    "id": 2038342,
    "name": "Beipiao",
    "lat": 41.79194,
    "lng": 120.77917
  },
  {
    "id": 1809879,
    "name": "Guangshui",
    "lat": 31.6199,
    "lng": 113.9978
  },
  {
    "id": 1808872,
    "name": "Fu’an",
    "lat": 27.09131,
    "lng": 119.64446
  },
  {
    "id": 2033168,
    "name": "Zhaodong",
    "lat": 46.05223,
    "lng": 125.9552
  },
  {
    "id": 1789273,
    "name": "Sanshui",
    "lat": 23.15486,
    "lng": 112.89161
  },
  {
    "id": 1816265,
    "name": "Boshan",
    "lat": 36.48333,
    "lng": 117.83333
  },
  {
    "id": 1814786,
    "name": "Yangchun",
    "lat": 22.16667,
    "lng": 111.78333
  },
  {
    "id": 1812728,
    "name": "Dingzhou",
    "lat": 38.51473,
    "lng": 114.9868
  },
  {
    "id": 1798919,
    "name": "Pengpu",
    "lat": 31.2855,
    "lng": 121.4367
  },
  {
    "id": 1815302,
    "name": "Chenghua",
    "lat": 23.46132,
    "lng": 116.77007
  },
  {
    "id": 2035980,
    "name": "Longfeng",
    "lat": 46.53168,
    "lng": 125.1038
  },
  {
    "id": 2037534,
    "name": "Dunhua",
    "lat": 43.36954,
    "lng": 128.22861
  },
  {
    "id": 2034638,
    "name": "Sujiatun",
    "lat": 41.65917,
    "lng": 123.33917
  },
  {
    "id": 2036876,
    "name": "Honggang",
    "lat": 46.3974,
    "lng": 124.88447
  },
  {
    "id": 1788816,
    "name": "Xinji",
    "lat": 37.92595,
    "lng": 115.21907
  },
  {
    "id": 1793700,
    "name": "Taishan",
    "lat": 22.25135,
    "lng": 112.7799
  },
  {
    "id": 2038679,
    "name": "Acheng",
    "lat": 45.54558,
    "lng": 126.95191
  },
  {
    "id": 2037075,
    "name": "Hailin",
    "lat": 44.57149,
    "lng": 129.38539
  },
  {
    "id": 1786395,
    "name": "Yong’an",
    "lat": 31.01894,
    "lng": 109.45949
  },
  {
    "id": 8417607,
    "name": "Nanjin",
    "lat": 29.98497,
    "lng": 106.26529
  },
  {
    "id": 8408334,
    "name": "Qianjiang",
    "lat": 29.53284,
    "lng": 108.77478
  },
  {
    "id": 1805844,
    "name": "Jieshou",
    "lat": 33.26338,
    "lng": 115.36108
  },
  {
    "id": 1281105,
    "name": "Yushu",
    "lat": 33.00118,
    "lng": 97.00893
  },
  {
    "id": 8406214,
    "name": "Sanhe",
    "lat": 29.86864,
    "lng": 107.73027
  },
  {
    "id": 2037222,
    "name": "Gongzhuling",
    "lat": 43.50075,
    "lng": 124.81979
  },
  {
    "id": 1794371,
    "name": "Shuizhai",
    "lat": 23.92961,
    "lng": 115.76499
  },
  {
    "id": 2034996,
    "name": "Shanhaiguan",
    "lat": 40.00119,
    "lng": 119.75395
  },
  {
    "id": 2036776,
    "name": "Huadian",
    "lat": 42.97213,
    "lng": 126.74107
  },
  {
    "id": 10020191,
    "name": "Liuzhi",
    "lat": 26.2342,
    "lng": 105.426
  },
  {
    "id": 2037335,
    "name": "Fuyu",
    "lat": 45.18333,
    "lng": 124.81667
  },
  {
    "id": 1815427,
    "name": "Chaohu",
    "lat": 31.6,
    "lng": 117.86667
  },
  {
    "id": 12489673,
    "name": "Liangping",
    "lat": 30.66108,
    "lng": 107.7661
  },
  {
    "id": 6559683,
    "name": "Doilungdêqên",
    "lat": 29.65505,
    "lng": 90.99177
  },
  {
    "id": 1805857,
    "name": "Jieshi",
    "lat": 22.81027,
    "lng": 115.83058
  },
  {
    "id": 1808612,
    "name": "Hejiang",
    "lat": 28.81161,
    "lng": 105.83359
  },
  {
    "id": 1922014,
    "name": "Wuyishan",
    "lat": 27.75995,
    "lng": 118.03066
  },
  {
    "id": 1794806,
    "name": "Huinong",
    "lat": 39.23333,
    "lng": 106.76944
  },
  {
    "id": 1810240,
    "name": "Gejiu",
    "lat": 23.36085,
    "lng": 103.15372
  },
  {
    "id": 2036597,
    "name": "Jiagedaqi",
    "lat": 50.41667,
    "lng": 124.11667
  },
  {
    "id": 12022102,
    "name": "Tumxuk",
    "lat": 39.86984,
    "lng": 79.06118
  },
  {
    "id": 1795055,
    "name": "Shiqiao",
    "lat": 22.9464,
    "lng": 113.35769
  },
  {
    "id": 8419424,
    "name": "Shenglilu",
    "lat": 29.35048,
    "lng": 105.8775
  },
  {
    "id": 1805962,
    "name": "Jiawang",
    "lat": 34.43278,
    "lng": 117.44194
  },
  {
    "id": 1798473,
    "name": "Puqi",
    "lat": 29.71667,
    "lng": 113.88333
  },
  {
    "id": 1791272,
    "name": "Wugang",
    "lat": 26.7279,
    "lng": 110.63198
  },
  {
    "id": 2033225,
    "name": "Zhalantun",
    "lat": 48.00945,
    "lng": 122.73651
  },
  {
    "id": 1811028,
    "name": "Fuji",
    "lat": 29.14819,
    "lng": 105.37391
  },
  {
    "id": 1813344,
    "name": "Dawukou",
    "lat": 39.04194,
    "lng": 106.39583
  },
  {
    "id": 1801401,
    "name": "Majie",
    "lat": 25.0319,
    "lng": 102.638
  },
  {
    "id": 1808336,
    "name": "Hepo",
    "lat": 23.43077,
    "lng": 115.82991
  },
  {
    "id": 2035002,
    "name": "Shangzhi",
    "lat": 45.20562,
    "lng": 128.00242
  },
  {
    "id": 2034834,
    "name": "Shuangcheng",
    "lat": 45.3798,
    "lng": 126.30711
  },
  {
    "id": 1791056,
    "name": "Dongyang",
    "lat": 29.26778,
    "lng": 120.22528
  },
  {
    "id": 1913126,
    "name": "Nantou",
    "lat": 22.72171,
    "lng": 113.29261
  },
  {
    "id": 1805935,
    "name": "Jiazi",
    "lat": 22.87932,
    "lng": 116.07318
  },
  {
    "id": 1794035,
    "name": "Songjiang",
    "lat": 31.03443,
    "lng": 121.22326
  },
  {
    "id": 1791325,
    "name": "Wuda",
    "lat": 39.49944,
    "lng": 106.71167
  },
  {
    "id": 13527315,
    "name": "Santo António",
    "lat": 22.20208,
    "lng": 113.54394
  },
  {
    "id": 1804208,
    "name": "Leiyang",
    "lat": 26.40238,
    "lng": 112.85908
  },
  {
    "id": 12450887,
    "name": "Shuanglonghu",
    "lat": 29.71617,
    "lng": 106.60684
  },
  {
    "id": 1280037,
    "name": "Shache",
    "lat": 38.41667,
    "lng": 77.24056
  },
  {
    "id": 1885823,
    "name": "Jiangyou",
    "lat": 31.76667,
    "lng": 104.71667
  },
  {
    "id": 1279891,
    "name": "Tengyue",
    "lat": 24.99492,
    "lng": 98.51276
  },
  {
    "id": 1796376,
    "name": "Shajing",
    "lat": 22.74628,
    "lng": 113.81903
  },
  {
    "id": 1790251,
    "name": "Jinfeng",
    "lat": 28.2385,
    "lng": 116.60054
  },
  {
    "id": 1805543,
    "name": "Jingzhi",
    "lat": 36.31,
    "lng": 119.3875
  },
  {
    "id": 1813812,
    "name": "Danshui",
    "lat": 22.7984,
    "lng": 114.46716
  },
  {
    "id": 1801582,
    "name": "Macheng",
    "lat": 31.18013,
    "lng": 115.02213
  },
  {
    "id": 13527308,
    "name": "Nossa Senhora de Fátima",
    "lat": 22.20769,
    "lng": 113.54831
  },
  {
    "id": 1806881,
    "name": "Huicheng",
    "lat": 23.03845,
    "lng": 116.28988
  },
  {
    "id": 1789703,
    "name": "Xiazhen",
    "lat": 34.80222,
    "lng": 117.11167
  },
  {
    "id": 1809062,
    "name": "Haimen",
    "lat": 23.19346,
    "lng": 116.61219
  },
  {
    "id": 1796421,
    "name": "Shahecheng",
    "lat": 36.93833,
    "lng": 114.50583
  },
  {
    "id": 2033242,
    "name": "Yushu",
    "lat": 44.82751,
    "lng": 126.54063
  },
  {
    "id": 1804252,
    "name": "Lecheng",
    "lat": 25.128,
    "lng": 113.35041
  },
  {
    "id": 1800130,
    "name": "Nancun",
    "lat": 36.53278,
    "lng": 120.13389
  },
  {
    "id": 2036403,
    "name": "Jiupu",
    "lat": 41.06667,
    "lng": 122.95
  },
  {
    "id": 2038438,
    "name": "Baoshan",
    "lat": 46.57472,
    "lng": 131.39318
  },
  {
    "id": 1801799,
    "name": "Luoyang",
    "lat": 23.16244,
    "lng": 114.27342
  },
  {
    "id": 2036536,
    "name": "Jiaohe",
    "lat": 43.72133,
    "lng": 127.33473
  },
  {
    "id": 1807112,
    "name": "Huangzhou",
    "lat": 30.45,
    "lng": 114.8
  },
  {
    "id": 1788268,
    "name": "Xiulin",
    "lat": 29.71667,
    "lng": 112.4
  },
  {
    "id": 1784178,
    "name": "Zhoucun",
    "lat": 36.81667,
    "lng": 117.81667
  },
  {
    "id": 1790442,
    "name": "Xiangcheng",
    "lat": 25.46687,
    "lng": 100.56248
  },
  {
    "id": 1802420,
    "name": "Longshui",
    "lat": 29.56555,
    "lng": 105.76205
  },
  {
    "id": 2035669,
    "name": "Lianhe",
    "lat": 47.13333,
    "lng": 129.27426
  },
  {
    "id": 2033824,
    "name": "Xilin Hot",
    "lat": 43.96667,
    "lng": 116.03333
  },
  {
    "id": 1803782,
    "name": "Lichuan",
    "lat": 30.3,
    "lng": 108.85
  },
  {
    "id": 2037411,
    "name": "Fengcheng",
    "lat": 40.45361,
    "lng": 124.07167
  },
  {
    "id": 13308659,
    "name": "Bao'an Centre",
    "lat": 22.57953,
    "lng": 113.9163
  },
  {
    "id": 1784953,
    "name": "Zhaoyuan",
    "lat": 37.36497,
    "lng": 120.40997
  },
  {
    "id": 1280737,
    "name": "Lhasa",
    "lat": 29.65,
    "lng": 91.1
  },
  {
    "id": 1787901,
    "name": "Xunchang",
    "lat": 28.45433,
    "lng": 104.71498
  },
  {
    "id": 1800175,
    "name": "Nanbin",
    "lat": 29.9994,
    "lng": 108.10913
  },
  {
    "id": 1795860,
    "name": "Shaoshan",
    "lat": 27.91667,
    "lng": 112.51667
  },
  {
    "id": 1790920,
    "name": "Wushan",
    "lat": 31.07749,
    "lng": 109.87639
  },
  {
    "id": 2034754,
    "name": "Shunyi",
    "lat": 40.12175,
    "lng": 116.64783
  },
  {
    "id": 2035966,
    "name": "Longjing",
    "lat": 42.77131,
    "lng": 129.42307
  },
  {
    "id": 1809408,
    "name": "Gulin",
    "lat": 28.04223,
    "lng": 105.81038
  },
  {
    "id": 1815276,
    "name": "Chenggu",
    "lat": 33.14917,
    "lng": 107.32583
  },
  {
    "id": 1807301,
    "name": "Dasha",
    "lat": 23.11037,
    "lng": 113.4418
  },
  {
    "id": 2033536,
    "name": "Yakeshi",
    "lat": 49.28333,
    "lng": 120.73333
  },
  {
    "id": 1817441,
    "name": "Baisha",
    "lat": 29.06226,
    "lng": 106.1189
  },
  {
    "id": 1818020,
    "name": "Anliu",
    "lat": 23.69824,
    "lng": 115.67953
  },
  {
    "id": 1804169,
    "name": "Lengshuijiang",
    "lat": 27.68806,
    "lng": 111.42944
  },
  {
    "id": 1791536,
    "name": "Tianfu",
    "lat": 37.26366,
    "lng": 122.05228
  },
  {
    "id": 1800498,
    "name": "Mingshui",
    "lat": 36.71667,
    "lng": 117.5
  },
  {
    "id": 1798131,
    "name": "Qiaotou",
    "lat": 36.935,
    "lng": 101.67361
  },
  {
    "id": 1785545,
    "name": "Yuyao",
    "lat": 30.05,
    "lng": 121.14944
  },
  {
    "id": 2033147,
    "name": "Zhaozhou",
    "lat": 45.70595,
    "lng": 125.26606
  },
  {
    "id": 1791765,
    "name": "Wansheng",
    "lat": 28.9629,
    "lng": 106.92844
  },
  {
    "id": 1791706,
    "name": "Wayaobu",
    "lat": 37.13611,
    "lng": 109.65972
  },
  {
    "id": 1798713,
    "name": "Pingshan",
    "lat": 22.99376,
    "lng": 114.71311
  },
  {
    "id": 2035399,
    "name": "Songyuan",
    "lat": 45.12902,
    "lng": 124.82769
  },
  {
    "id": 1801615,
    "name": "Maba",
    "lat": 24.68413,
    "lng": 113.59839
  },
  {
    "id": 2034497,
    "name": "Taonan",
    "lat": 45.33319,
    "lng": 122.78464
  },
  {
    "id": 1809077,
    "name": "Haikou",
    "lat": 24.77985,
    "lng": 102.57548
  },
  {
    "id": 1795857,
    "name": "Shaowu",
    "lat": 27.34089,
    "lng": 117.4831
  },
  {
    "id": 1280570,
    "name": "Mengmao",
    "lat": 24.00139,
    "lng": 97.86499
  },
  {
    "id": 2036337,
    "name": "Kaiyuan",
    "lat": 42.53306,
    "lng": 124.04028
  },
  {
    "id": 1916012,
    "name": "Wuzhishan",
    "lat": 18.78229,
    "lng": 109.5013
  },
  {
    "id": 1789496,
    "name": "Xigang",
    "lat": 38.55258,
    "lng": 106.34805
  },
  {
    "id": 1811729,
    "name": "Encheng",
    "lat": 22.18659,
    "lng": 112.30424
  },
  {
    "id": 1783940,
    "name": "Zhuji",
    "lat": 29.71877,
    "lng": 120.24233
  },
  {
    "id": 1813425,
    "name": "Datun",
    "lat": 34.80923,
    "lng": 116.90174
  },
  {
    "id": 1803367,
    "name": "Qingnian",
    "lat": 36.84092,
    "lng": 115.71087
  },
  {
    "id": 1803352,
    "name": "Linshui",
    "lat": 36.42472,
    "lng": 114.20472
  },
  {
    "id": 2037069,
    "name": "Hailun",
    "lat": 47.44663,
    "lng": 126.92475
  },
  {
    "id": 1795184,
    "name": "Shilong",
    "lat": 23.11444,
    "lng": 113.84722
  },
  {
    "id": 2037685,
    "name": "Didao",
    "lat": 45.34725,
    "lng": 130.83693
  },
  {
    "id": 1806439,
    "name": "Jianchang",
    "lat": 27.55831,
    "lng": 116.63978
  },
  {
    "id": 2036671,
    "name": "Hulan",
    "lat": 45.89326,
    "lng": 126.57836
  },
  {
    "id": 1786546,
    "name": "Zhongxiang",
    "lat": 31.16611,
    "lng": 112.58306
  },
  {
    "id": 2037712,
    "name": "Dehui",
    "lat": 44.53674,
    "lng": 125.69427
  },
  {
    "id": 1808916,
    "name": "Hanjia",
    "lat": 29.29524,
    "lng": 108.16132
  },
  {
    "id": 8403612,
    "name": "Taibai",
    "lat": 30.82482,
    "lng": 108.35783
  },
  {
    "id": 1787828,
    "name": "Xuyong",
    "lat": 28.16992,
    "lng": 105.43452
  },
  {
    "id": 2035610,
    "name": "Nehe",
    "lat": 48.4793,
    "lng": 124.87016
  },
  {
    "id": 2036595,
    "name": "Jalai Nur",
    "lat": 49.45,
    "lng": 117.7
  },
  {
    "id": 2034440,
    "name": "Tieli",
    "lat": 46.97544,
    "lng": 128.04804
  },
  {
    "id": 1795842,
    "name": "Shaping",
    "lat": 22.77019,
    "lng": 112.95776
  },
  {
    "id": 1803886,
    "name": "Anning",
    "lat": 24.92271,
    "lng": 102.48496
  },
  {
    "id": 2035970,
    "name": "Longjiang",
    "lat": 47.33601,
    "lng": 123.196
  },
  {
    "id": 1816221,
    "name": "Buhe",
    "lat": 30.28757,
    "lng": 112.22979
  },
  {
    "id": 1784820,
    "name": "Xinghua",
    "lat": 32.93917,
    "lng": 119.83417
  },
  {
    "id": 1793036,
    "name": "Chengtangcun",
    "lat": 35.08357,
    "lng": 117.19071
  },
  {
    "id": 12324302,
    "name": "Yidu",
    "lat": 36.77121,
    "lng": 118.42454
  },
  {
    "id": 1784393,
    "name": "Zhonghe",
    "lat": 28.45049,
    "lng": 108.98901
  },
  {
    "id": 1798422,
    "name": "Puyang Chengguanzhen",
    "lat": 35.70622,
    "lng": 115.0279
  },
  {
    "id": 1807544,
    "name": "Daxing",
    "lat": 39.74025,
    "lng": 116.32693
  },
  {
    "id": 1786778,
    "name": "Yezhou",
    "lat": 30.60369,
    "lng": 109.72333
  },
  {
    "id": 8403616,
    "name": "Pailou",
    "lat": 30.79641,
    "lng": 108.3858
  },
  {
    "id": 1798490,
    "name": "Pulandian",
    "lat": 39.39528,
    "lng": 121.96694
  },
  {
    "id": 1800829,
    "name": "Wuchuan",
    "lat": 21.45713,
    "lng": 110.76591
  },
  {
    "id": 2035196,
    "name": "Salaqi",
    "lat": 40.54139,
    "lng": 110.51083
  },
  {
    "id": 2036418,
    "name": "Jishu",
    "lat": 44.31667,
    "lng": 126.8
  },
  {
    "id": 1784185,
    "name": "Yuxi",
    "lat": 24.355,
    "lng": 102.54222
  },
  {
    "id": 1816865,
    "name": "Bashan",
    "lat": 27.76823,
    "lng": 116.05017
  },
  {
    "id": 1797091,
    "name": "Tongren",
    "lat": 35.51483,
    "lng": 102.016
  },
  {
    "id": 1810724,
    "name": "Gangu Chengguanzhen",
    "lat": 34.73564,
    "lng": 105.32632
  },
  {
    "id": 1529363,
    "name": "Xincheng",
    "lat": 41.71497,
    "lng": 82.93249
  },
  {
    "id": 1805270,
    "name": "Jishou",
    "lat": 28.31925,
    "lng": 109.73346
  },
  {
    "id": 6648023,
    "name": "Shuifu",
    "lat": 28.63215,
    "lng": 104.40783
  },
  {
    "id": 1997228,
    "name": "Hedong",
    "lat": 23.9196,
    "lng": 115.7801
  },
  {
    "id": 1807738,
    "name": "Huacheng",
    "lat": 24.06703,
    "lng": 115.61309
  },
  {
    "id": 1804120,
    "name": "Lianjiang",
    "lat": 21.64673,
    "lng": 110.28172
  },
  {
    "id": 1803334,
    "name": "Linxi",
    "lat": 39.71183,
    "lng": 118.44954
  },
  {
    "id": 1788492,
    "name": "Xinzhai",
    "lat": 36.4,
    "lng": 118.61667
  },
  {
    "id": 1802171,
    "name": "Kangding",
    "lat": 30.00222,
    "lng": 101.9569
  },
  {
    "id": 1797959,
    "name": "Qincheng",
    "lat": 27.2127,
    "lng": 116.53008
  },
  {
    "id": 12358512,
    "name": "Menghuan",
    "lat": 24.43532,
    "lng": 98.58375
  },
  {
    "id": 1788207,
    "name": "Xixiang",
    "lat": 32.98703,
    "lng": 107.764
  },
  {
    "id": 1812256,
    "name": "Dongsheng",
    "lat": 39.81609,
    "lng": 109.97763
  },
  {
    "id": 2034228,
    "name": "Wangkui",
    "lat": 46.83214,
    "lng": 126.47657
  },
  {
    "id": 2035801,
    "name": "Meihekou",
    "lat": 42.52869,
    "lng": 125.67876
  },
  {
    "id": 1812647,
    "name": "Xinle",
    "lat": 38.34898,
    "lng": 114.68531
  },
  {
    "id": 1803522,
    "name": "Linghe",
    "lat": 36.36417,
    "lng": 119.07694
  },
  {
    "id": 2033766,
    "name": "Xingcheng",
    "lat": 40.61667,
    "lng": 120.71667
  },
  {
    "id": 1797181,
    "name": "Renqiu",
    "lat": 38.70941,
    "lng": 116.10086
  },
  {
    "id": 2034657,
    "name": "Suifenhe",
    "lat": 44.39982,
    "lng": 131.14775
  },
  {
    "id": 1788638,
    "name": "Xinshi",
    "lat": 31.04704,
    "lng": 113.14098
  },
  {
    "id": 1812057,
    "name": "Xinyi",
    "lat": 22.37303,
    "lng": 110.94746
  },
  {
    "id": 2038080,
    "name": "Chengzihe",
    "lat": 45.33611,
    "lng": 131.00489
  },
  {
    "id": 1803616,
    "name": "Xishan",
    "lat": 27.66667,
    "lng": 113.5
  },
  {
    "id": 1786783,
    "name": "Yeyuan",
    "lat": 36.41667,
    "lng": 118.5
  },
  {
    "id": 1809849,
    "name": "Guanhu",
    "lat": 34.42528,
    "lng": 117.99528
  },
  {
    "id": 1805220,
    "name": "Jiudian",
    "lat": 36.9918,
    "lng": 120.20412
  },
  {
    "id": 1908011,
    "name": "Xinxing",
    "lat": 34.77597,
    "lng": 105.32216
  },
  {
    "id": 1811542,
    "name": "Fangshan",
    "lat": 39.68699,
    "lng": 115.99658
  },
  {
    "id": 6644097,
    "name": "Jinniu",
    "lat": 25.80062,
    "lng": 100.57435
  },
  {
    "id": 1807761,
    "name": "Houzhen",
    "lat": 36.99136,
    "lng": 118.96582
  },
  {
    "id": 1810136,
    "name": "Gongguan",
    "lat": 21.8,
    "lng": 109.6
  },
  {
    "id": 1799686,
    "name": "Nanxi",
    "lat": 28.84209,
    "lng": 104.97958
  },
  {
    "id": 1802177,
    "name": "Lubu",
    "lat": 23.17233,
    "lng": 112.28298
  },
  {
    "id": 1805408,
    "name": "Jinsha",
    "lat": 32.08982,
    "lng": 121.07355
  },
  {
    "id": 1811929,
    "name": "Ducheng",
    "lat": 23.24212,
    "lng": 111.5284
  },
  {
    "id": 1795632,
    "name": "Shenjiamen",
    "lat": 29.95763,
    "lng": 122.29802
  },
  {
    "id": 2038274,
    "name": "Boli",
    "lat": 45.7529,
    "lng": 130.58452
  },
  {
    "id": 1789998,
    "name": "Xiaoshan",
    "lat": 30.16746,
    "lng": 120.25883
  },
  {
    "id": 1789030,
    "name": "Xingguo",
    "lat": 34.85861,
    "lng": 105.66861
  },
  {
    "id": 2034141,
    "name": "Wuchang",
    "lat": 44.92754,
    "lng": 127.16039
  },
  {
    "id": 1816821,
    "name": "Bayan Hot",
    "lat": 38.83861,
    "lng": 105.66861
  },
  {
    "id": 1811844,
    "name": "Dunhou",
    "lat": 27.05,
    "lng": 114.9
  },
  {
    "id": 1789289,
    "name": "Ximeicun",
    "lat": 24.98773,
    "lng": 118.3858
  },
  {
    "id": 1786455,
    "name": "Yishui",
    "lat": 35.78472,
    "lng": 118.62806
  },
  {
    "id": 1784417,
    "name": "Zhongduo",
    "lat": 28.8466,
    "lng": 108.76416
  },
  {
    "id": 1811594,
    "name": "Fangcheng Chengguanzhen",
    "lat": 33.25322,
    "lng": 113.0012
  },
  {
    "id": 1813755,
    "name": "Daotian",
    "lat": 36.83389,
    "lng": 118.89778
  },
  {
    "id": 1529626,
    "name": "Baijiantan",
    "lat": 45.69298,
    "lng": 85.13942
  },
  {
    "id": 1785692,
    "name": "Yunnanyi",
    "lat": 25.4245,
    "lng": 100.689
  },
  {
    "id": 2033135,
    "name": "Shuangliao",
    "lat": 43.51067,
    "lng": 123.50069
  },
  {
    "id": 2033149,
    "name": "Zhaoyuan",
    "lat": 45.51971,
    "lng": 125.07633
  },
  {
    "id": 2037930,
    "name": "Dalai",
    "lat": 45.5,
    "lng": 124.3
  },
  {
    "id": 1793315,
    "name": "Tangwu",
    "lat": 36.44667,
    "lng": 118.85972
  },
  {
    "id": 1805947,
    "name": "Jiayue",
    "lat": 36.02361,
    "lng": 119.17611
  },
  {
    "id": 2038154,
    "name": "Changping",
    "lat": 40.21612,
    "lng": 116.23471
  },
  {
    "id": 1803841,
    "name": "Lianzhou",
    "lat": 24.78186,
    "lng": 112.3712
  },
  {
    "id": 12324243,
    "name": "Yingqiu",
    "lat": 36.52663,
    "lng": 118.99285
  },
  {
    "id": 1812621,
    "name": "Dongcun",
    "lat": 36.77667,
    "lng": 121.15972
  },
  {
    "id": 1813828,
    "name": "Danjiangkou",
    "lat": 32.54278,
    "lng": 111.50861
  },
  {
    "id": 8403618,
    "name": "Bai’anba",
    "lat": 30.76283,
    "lng": 108.43717
  },
  {
    "id": 1784310,
    "name": "Zhongshu",
    "lat": 24.51667,
    "lng": 103.76667
  },
  {
    "id": 1806960,
    "name": "Huazhou",
    "lat": 21.63333,
    "lng": 110.58333
  },
  {
    "id": 1788944,
    "name": "Xingren",
    "lat": 25.43333,
    "lng": 105.23333
  },
  {
    "id": 1802476,
    "name": "Longquan",
    "lat": 24.67193,
    "lng": 102.1613
  },
  {
    "id": 1786855,
    "name": "Yatou",
    "lat": 37.1566,
    "lng": 122.43762
  },
  {
    "id": 12324474,
    "name": "Tanfang",
    "lat": 36.69977,
    "lng": 118.67087
  },
  {
    "id": 2036075,
    "name": "Lingyuan",
    "lat": 41.24,
    "lng": 119.40111
  },
  {
    "id": 1810309,
    "name": "Gaoyou",
    "lat": 32.78933,
    "lng": 119.44182
  },
  {
    "id": 1785777,
    "name": "Yulinshi",
    "lat": 38.29181,
    "lng": 109.73753
  },
  {
    "id": 1808879,
    "name": "Hanting",
    "lat": 36.77083,
    "lng": 119.21083
  },
  {
    "id": 1792592,
    "name": "Tongren",
    "lat": 27.71722,
    "lng": 109.18528
  },
  {
    "id": 1789462,
    "name": "Xihe",
    "lat": 31.68635,
    "lng": 113.46585
  },
  {
    "id": 1811829,
    "name": "Duobao",
    "lat": 30.67,
    "lng": 112.68952
  },
  {
    "id": 1794140,
    "name": "Sishui",
    "lat": 35.64889,
    "lng": 117.27583
  },
  {
    "id": 1810668,
    "name": "Gantang",
    "lat": 27.4375,
    "lng": 111.97306
  },
  {
    "id": 1801876,
    "name": "Luomen",
    "lat": 34.75417,
    "lng": 105.02472
  },
  {
    "id": 1807695,
    "name": "Huaidian",
    "lat": 33.43333,
    "lng": 115.03333
  },
  {
    "id": 1817456,
    "name": "Baisha",
    "lat": 21.71667,
    "lng": 109.68333
  },
  {
    "id": 2037375,
    "name": "Fujin",
    "lat": 47.24723,
    "lng": 132.02957
  },
  {
    "id": 1807687,
    "name": "Huaicheng",
    "lat": 23.91952,
    "lng": 112.17629
  },
  {
    "id": 1800544,
    "name": "Micheng",
    "lat": 25.34294,
    "lng": 100.48725
  },
  {
    "id": 1802068,
    "name": "Lucheng",
    "lat": 31.23357,
    "lng": 117.28057
  },
  {
    "id": 1808744,
    "name": "Hede",
    "lat": 33.7722,
    "lng": 120.26176
  },
  {
    "id": 8397870,
    "name": "Chengxiang",
    "lat": 31.39798,
    "lng": 109.57063
  },
  {
    "id": 8419425,
    "name": "Nandajie",
    "lat": 29.33773,
    "lng": 105.89237
  },
  {
    "id": 1804162,
    "name": "Lengshuitan",
    "lat": 26.4111,
    "lng": 111.59559
  },
  {
    "id": 2034221,
    "name": "Wangqing",
    "lat": 43.31077,
    "lng": 129.76334
  },
  {
    "id": 1789691,
    "name": "Xiazhuang",
    "lat": 36.44917,
    "lng": 119.83556
  },
  {
    "id": 1812138,
    "name": "Dongxing",
    "lat": 21.55,
    "lng": 107.96667
  },
  {
    "id": 1803402,
    "name": "Linjiacun",
    "lat": 35.99389,
    "lng": 119.65028
  },
  {
    "id": 8403611,
    "name": "Zhoujiaba",
    "lat": 30.84349,
    "lng": 108.36642
  },
  {
    "id": 1808133,
    "name": "Honghe",
    "lat": 36.40278,
    "lng": 118.91806
  },
  {
    "id": 1817294,
    "name": "Baixi",
    "lat": 28.6997,
    "lng": 104.54917
  },
  {
    "id": 1803753,
    "name": "Lidu",
    "lat": 29.73861,
    "lng": 107.29477
  },
  {
    "id": 1785566,
    "name": "Yingchuan",
    "lat": 34.16278,
    "lng": 113.46389
  },
  {
    "id": 1784450,
    "name": "Gusong",
    "lat": 28.3133,
    "lng": 105.2377
  },
  {
    "id": 1808977,
    "name": "Hanchuan",
    "lat": 30.65,
    "lng": 113.76667
  },
  {
    "id": 1792795,
    "name": "Tiefu",
    "lat": 34.53333,
    "lng": 118.03333
  },
  {
    "id": 1797535,
    "name": "Qiongshan",
    "lat": 20.00864,
    "lng": 110.35384
  },
  {
    "id": 1790471,
    "name": "Xiangxiang",
    "lat": 27.73333,
    "lng": 112.53333
  },
  {
    "id": 1812981,
    "name": "Deqing",
    "lat": 30.54485,
    "lng": 119.9599
  },
  {
    "id": 1787925,
    "name": "Xujiang",
    "lat": 26.83945,
    "lng": 116.32011
  },
  {
    "id": 2035746,
    "name": "Mishan",
    "lat": 45.55,
    "lng": 131.88333
  },
  {
    "id": 2035601,
    "name": "Nenjiang",
    "lat": 49.17405,
    "lng": 125.21967
  },
  {
    "id": 1280574,
    "name": "Menglang",
    "lat": 22.56214,
    "lng": 99.91029
  },
  {
    "id": 1794825,
    "name": "Shizilu",
    "lat": 35.17111,
    "lng": 118.82889
  },
  {
    "id": 1806271,
    "name": "Jiangshan",
    "lat": 36.67806,
    "lng": 120.52917
  },
  {
    "id": 1784929,
    "name": "Zhaogezhuang",
    "lat": 39.76538,
    "lng": 118.41191
  },
  {
    "id": 1818019,
    "name": "Anlong",
    "lat": 25.1,
    "lng": 105.51667
  },
  {
    "id": 1280281,
    "name": "Qamdo",
    "lat": 31.1304,
    "lng": 97.17982
  },
  {
    "id": 1800088,
    "name": "Nanfeng",
    "lat": 23.72695,
    "lng": 111.79723
  },
  {
    "id": 8403614,
    "name": "Zhonggulou",
    "lat": 30.82491,
    "lng": 108.38413
  },
  {
    "id": 11778484,
    "name": "Longnan",
    "lat": 33.39791,
    "lng": 104.91703
  },
  {
    "id": 2036933,
    "name": "Helong",
    "lat": 42.53974,
    "lng": 128.99722
  },
  {
    "id": 1800107,
    "name": "Nanding",
    "lat": 36.74833,
    "lng": 118.05583
  },
  {
    "id": 1809263,
    "name": "Guozhen",
    "lat": 34.36591,
    "lng": 107.35904
  },
  {
    "id": 1812988,
    "name": "Dengzhou",
    "lat": 37.80822,
    "lng": 120.75908
  },
  {
    "id": 1797333,
    "name": "Qufu",
    "lat": 35.59667,
    "lng": 116.99111
  },
  {
    "id": 1280757,
    "name": "Laojunmiao",
    "lat": 39.83333,
    "lng": 97.73333
  },
  {
    "id": 1893595,
    "name": "Dacheng",
    "lat": 19.50927,
    "lng": 109.39275
  },
  {
    "id": 1800629,
    "name": "Mianyang",
    "lat": 33.15703,
    "lng": 106.69445
  },
  {
    "id": 1813088,
    "name": "Dazhong",
    "lat": 33.19973,
    "lng": 120.4578
  },
  {
    "id": 1803822,
    "name": "Liaolan",
    "lat": 36.67444,
    "lng": 119.87528
  },
  {
    "id": 1805334,
    "name": "Jinxiang",
    "lat": 27.43265,
    "lng": 120.60625
  },
  {
    "id": 12324303,
    "name": "Dongxia",
    "lat": 36.74918,
    "lng": 118.58268
  },
  {
    "id": 1813032,
    "name": "Degan",
    "lat": 29.27846,
    "lng": 106.23157
  },
  {
    "id": 1790392,
    "name": "Xiannü",
    "lat": 32.42806,
    "lng": 119.56048
  },
  {
    "id": 1786515,
    "name": "Yinma",
    "lat": 36.66083,
    "lng": 119.4625
  },
  {
    "id": 2036081,
    "name": "Lingdong",
    "lat": 46.55428,
    "lng": 131.14493
  },
  {
    "id": 1799574,
    "name": "Nanzhang Chengguanzhen",
    "lat": 31.78394,
    "lng": 111.82752
  },
  {
    "id": 1787837,
    "name": "Xucheng",
    "lat": 20.33025,
    "lng": 110.16643
  },
  {
    "id": 1808747,
    "name": "Hecun",
    "lat": 36.53333,
    "lng": 114.11111
  },
  {
    "id": 1799348,
    "name": "Ningyang",
    "lat": 35.76417,
    "lng": 116.79139
  },
  {
    "id": 1805379,
    "name": "Jinshi",
    "lat": 29.60487,
    "lng": 111.87012
  },
  {
    "id": 1786060,
    "name": "Yuanping",
    "lat": 38.71528,
    "lng": 112.7575
  },
  {
    "id": 1817884,
    "name": "Aoxi",
    "lat": 27.42589,
    "lng": 115.83643
  },
  {
    "id": 1813033,
    "name": "Liping",
    "lat": 26.23111,
    "lng": 109.13139
  },
  {
    "id": 1815585,
    "name": "Changqing",
    "lat": 36.5575,
    "lng": 116.72722
  },
  {
    "id": 12277235,
    "name": "Dali Old Town",
    "lat": 25.68863,
    "lng": 100.15894
  },
  {
    "id": 1789118,
    "name": "Xindian",
    "lat": 36.7975,
    "lng": 118.29444
  },
  {
    "id": 1786676,
    "name": "Yima",
    "lat": 34.73806,
    "lng": 111.88389
  },
  {
    "id": 1798182,
    "name": "Qiaoguan",
    "lat": 36.56444,
    "lng": 118.88389
  },
  {
    "id": 1800065,
    "name": "Nangong",
    "lat": 37.35464,
    "lng": 115.38881
  },
  {
    "id": 1801722,
    "name": "Lüshun",
    "lat": 38.8,
    "lng": 121.26667
  },
  {
    "id": 1549817,
    "name": "Anguo",
    "lat": 34.83056,
    "lng": 116.81944
  },
  {
    "id": 1794947,
    "name": "Shiwan",
    "lat": 23.00107,
    "lng": 113.077
  },
  {
    "id": 1808103,
    "name": "Donghe",
    "lat": 32.23341,
    "lng": 106.30126
  },
  {
    "id": 1786042,
    "name": "Huaiyang",
    "lat": 37.76145,
    "lng": 114.51703
  },
  {
    "id": 1793364,
    "name": "Tangping",
    "lat": 22.03177,
    "lng": 111.93537
  },
  {
    "id": 1785964,
    "name": "Yudong",
    "lat": 29.385,
    "lng": 106.51944
  },
  {
    "id": 1815617,
    "name": "Changning",
    "lat": 28.57773,
    "lng": 104.92087
  },
  {
    "id": 1788269,
    "name": "Xiugu",
    "lat": 27.91132,
    "lng": 116.77637
  },
  {
    "id": 1811440,
    "name": "Feicheng",
    "lat": 35.26056,
    "lng": 117.9675
  },
  {
    "id": 1795941,
    "name": "Shanting",
    "lat": 35.07528,
    "lng": 117.45778
  },
  {
    "id": 1804935,
    "name": "Junlian",
    "lat": 28.17106,
    "lng": 104.51162
  },
  {
    "id": 1549667,
    "name": "Nianzhuang",
    "lat": 34.29722,
    "lng": 117.77222
  },
  {
    "id": 1280328,
    "name": "Yingjiang",
    "lat": 24.71022,
    "lng": 97.93671
  },
  {
    "id": 1784055,
    "name": "Zhuanghe",
    "lat": 39.70083,
    "lng": 122.99111
  },
  {
    "id": 1792516,
    "name": "Loushanguan",
    "lat": 28.1368,
    "lng": 106.822
  },
  {
    "id": 1816890,
    "name": "Baoying",
    "lat": 33.22917,
    "lng": 119.30917
  },
  {
    "id": 2037823,
    "name": "Dashiqiao",
    "lat": 40.63732,
    "lng": 122.50251
  },
  {
    "id": 2035511,
    "name": "Panshi",
    "lat": 42.93719,
    "lng": 126.05743
  },
  {
    "id": 1789649,
    "name": "Xichang",
    "lat": 21.63333,
    "lng": 108.95
  },
  {
    "id": 12324301,
    "name": "Huanglou",
    "lat": 36.64709,
    "lng": 118.60554
  },
  {
    "id": 1811794,
    "name": "Dushan",
    "lat": 25.83333,
    "lng": 107.53333
  },
  {
    "id": 1279715,
    "name": "Rikaze",
    "lat": 29.25,
    "lng": 88.88333
  },
  {
    "id": 1549774,
    "name": "Songlou",
    "lat": 34.57231,
    "lng": 116.60239
  },
  {
    "id": 1793533,
    "name": "Taixing",
    "lat": 32.16667,
    "lng": 120.01361
  },
  {
    "id": 1793385,
    "name": "Tangjiazhuang",
    "lat": 39.74326,
    "lng": 118.45099
  },
  {
    "id": 1795579,
    "name": "Yanta",
    "lat": 36.24111,
    "lng": 115.66722
  },
  {
    "id": 1797438,
    "name": "Zhuangyuan",
    "lat": 37.30553,
    "lng": 120.82747
  },
  {
    "id": 1790885,
    "name": "Wuyang",
    "lat": 31.9925,
    "lng": 116.24722
  },
  {
    "id": 1788402,
    "name": "Xiongzhou",
    "lat": 25.11667,
    "lng": 114.3
  },
  {
    "id": 1815847,
    "name": "Chaigou",
    "lat": 36.24889,
    "lng": 119.62417
  },
  {
    "id": 1788452,
    "name": "Xinzhou",
    "lat": 30.86667,
    "lng": 114.8
  },
  {
    "id": 1794971,
    "name": "Shitanjing",
    "lat": 39.23417,
    "lng": 106.34389
  },
  {
    "id": 2034340,
    "name": "Tumen",
    "lat": 42.96562,
    "lng": 129.84199
  },
  {
    "id": 8420195,
    "name": "Qinggang",
    "lat": 29.4677,
    "lng": 106.23618
  },
  {
    "id": 1808517,
    "name": "Hengbei",
    "lat": 23.87968,
    "lng": 115.72546
  },
  {
    "id": 12324246,
    "name": "Yishan",
    "lat": 36.22107,
    "lng": 118.69663
  },
  {
    "id": 2033301,
    "name": "Youhao",
    "lat": 47.85306,
    "lng": 128.83565
  },
  {
    "id": 1798634,
    "name": "Pingyi",
    "lat": 35.50056,
    "lng": 117.63083
  },
  {
    "id": 12110889,
    "name": "Wulong",
    "lat": 29.32431,
    "lng": 107.76056
  },
  {
    "id": 1803374,
    "name": "Linping",
    "lat": 30.4225,
    "lng": 120.29722
  },
  {
    "id": 1805175,
    "name": "Xixiang",
    "lat": 22.59306,
    "lng": 113.8889
  },
  {
    "id": 1807090,
    "name": "Huankou",
    "lat": 34.87,
    "lng": 116.66972
  },
  {
    "id": 2036066,
    "name": "Linkou",
    "lat": 45.2762,
    "lng": 130.27332
  },
  {
    "id": 1807339,
    "name": "Huangmei",
    "lat": 30.19235,
    "lng": 116.02496
  },
  {
    "id": 1789176,
    "name": "Feicheng",
    "lat": 36.24861,
    "lng": 116.76583
  },
  {
    "id": 1898494,
    "name": "Songling",
    "lat": 31.1933,
    "lng": 120.71758
  },
  {
    "id": 1805267,
    "name": "Jishui",
    "lat": 33.73333,
    "lng": 115.4
  },
  {
    "id": 2034761,
    "name": "Shulan",
    "lat": 44.41134,
    "lng": 126.94827
  },
  {
    "id": 12324287,
    "name": "Baicheng",
    "lat": 36.32743,
    "lng": 119.77875
  },
  {
    "id": 1813927,
    "name": "Damiao",
    "lat": 34.26411,
    "lng": 117.36379
  },
  {
    "id": 1805833,
    "name": "Jiexiu",
    "lat": 37.02444,
    "lng": 111.9125
  },
  {
    "id": 2036653,
    "name": "Hunchun",
    "lat": 42.86736,
    "lng": 130.35689
  },
  {
    "id": 1914927,
    "name": "Sandu",
    "lat": 19.7894,
    "lng": 109.215
  },
  {
    "id": 1803948,
    "name": "Liangxiang",
    "lat": 39.73598,
    "lng": 116.13295
  },
  {
    "id": 1784939,
    "name": "Zhaodun",
    "lat": 34.3027,
    "lng": 117.85699
  },
  {
    "id": 1813658,
    "name": "Fenghua",
    "lat": 29.65628,
    "lng": 121.4064
  },
  {
    "id": 1783554,
    "name": "Yaxing",
    "lat": 19.44778,
    "lng": 109.26273
  },
  {
    "id": 1787437,
    "name": "Yangliuqing",
    "lat": 39.1375,
    "lng": 116.99972
  },
  {
    "id": 1797471,
    "name": "Qiuji",
    "lat": 33.8,
    "lng": 118.0
  },
  {
    "id": 1797793,
    "name": "Qingquan",
    "lat": 30.45113,
    "lng": 115.25593
  },
  {
    "id": 1794782,
    "name": "Shouxian",
    "lat": 34.84648,
    "lng": 116.45884
  },
  {
    "id": 1803266,
    "name": "Lintong",
    "lat": 34.37803,
    "lng": 109.20892
  },
  {
    "id": 12258245,
    "name": "Kageleke",
    "lat": 37.30096,
    "lng": 79.60128
  },
  {
    "id": 12324299,
    "name": "Kanjia",
    "lat": 36.37227,
    "lng": 119.58208
  },
  {
    "id": 1792087,
    "name": "Yinzhu",
    "lat": 35.87861,
    "lng": 119.97528
  },
  {
    "id": 2038118,
    "name": "Chaoyang",
    "lat": 42.66223,
    "lng": 126.0263
  },
  {
    "id": 1788869,
    "name": "Shangmei",
    "lat": 27.74278,
    "lng": 111.29556
  },
  {
    "id": 2037334,
    "name": "Fuyu",
    "lat": 47.79494,
    "lng": 124.45773
  },
  {
    "id": 6958502,
    "name": "Maozhou",
    "lat": 22.76361,
    "lng": 113.81288
  },
  {
    "id": 1806840,
    "name": "Huilong",
    "lat": 31.81111,
    "lng": 121.655
  },
  {
    "id": 1816751,
    "name": "Beidao",
    "lat": 34.56861,
    "lng": 105.89333
  },
  {
    "id": 1787601,
    "name": "Yanggu",
    "lat": 36.11056,
    "lng": 115.77528
  },
  {
    "id": 1802651,
    "name": "Longgang",
    "lat": 29.69744,
    "lng": 105.71369
  },
  {
    "id": 1795919,
    "name": "Shancheng",
    "lat": 34.79528,
    "lng": 116.08167
  },
  {
    "id": 1785022,
    "name": "Zhangzhai",
    "lat": 34.61667,
    "lng": 116.95
  },
  {
    "id": 1799897,
    "name": "Nanma",
    "lat": 36.18478,
    "lng": 118.15486
  },
  {
    "id": 1806880,
    "name": "Huicheng",
    "lat": 29.86925,
    "lng": 118.43364
  },
  {
    "id": 1786043,
    "name": "Yuanshang",
    "lat": 36.76833,
    "lng": 120.34556
  },
  {
    "id": 1793889,
    "name": "Suixi",
    "lat": 33.89067,
    "lng": 116.77473
  },
  {
    "id": 2033675,
    "name": "Xinmin",
    "lat": 41.99083,
    "lng": 122.82528
  },
  {
    "id": 1549743,
    "name": "Zhangzhuang",
    "lat": 34.51944,
    "lng": 117.00556
  },
  {
    "id": 1809610,
    "name": "Gucheng Chengguanzhen",
    "lat": 32.26604,
    "lng": 111.63476
  },
  {
    "id": 1790379,
    "name": "Xianshuigu",
    "lat": 38.985,
    "lng": 117.38278
  },
  {
    "id": 1785655,
    "name": "Yunyang",
    "lat": 33.44743,
    "lng": 112.71422
  },
  {
    "id": 1788406,
    "name": "Huayuan",
    "lat": 28.28635,
    "lng": 117.20656
  },
  {
    "id": 1804442,
    "name": "Lanxi",
    "lat": 29.21588,
    "lng": 119.47156
  },
  {
    "id": 2037252,
    "name": "Genhe",
    "lat": 50.78333,
    "lng": 121.51667
  },
  {
    "id": 1801983,
    "name": "Luocheng",
    "lat": 29.38481,
    "lng": 104.02862
  },
  {
    "id": 12324304,
    "name": "Heguan",
    "lat": 36.88998,
    "lng": 118.57379
  },
  {
    "id": 1804979,
    "name": "Juegang",
    "lat": 32.31737,
    "lng": 121.18552
  },
  {
    "id": 7290013,
    "name": "Shixing",
    "lat": 24.94824,
    "lng": 114.06572
  },
  {
    "id": 1812597,
    "name": "Dongdu",
    "lat": 35.85,
    "lng": 117.7
  },
  {
    "id": 1787188,
    "name": "Yanjia",
    "lat": 29.82758,
    "lng": 106.99734
  },
  {
    "id": 1812427,
    "name": "Dongkan",
    "lat": 33.99972,
    "lng": 119.83083
  },
  {
    "id": 1807553,
    "name": "Dingcheng",
    "lat": 32.12722,
    "lng": 115.03944
  },
  {
    "id": 1529099,
    "name": "Wusu",
    "lat": 44.43105,
    "lng": 84.67623
  },
  {
    "id": 2036226,
    "name": "Lanxi",
    "lat": 46.25773,
    "lng": 126.28065
  },
  {
    "id": 1800430,
    "name": "Miyang",
    "lat": 24.40417,
    "lng": 103.44278
  },
  {
    "id": 1806188,
    "name": "Jiangzhuang",
    "lat": 36.49444,
    "lng": 119.79417
  },
  {
    "id": 2037391,
    "name": "Beichengqu",
    "lat": 40.43944,
    "lng": 113.15361
  },
  {
    "id": 1788462,
    "name": "Xinzhi",
    "lat": 36.49889,
    "lng": 111.70472
  },
  {
    "id": 1802788,
    "name": "Licheng",
    "lat": 31.42813,
    "lng": 119.48353
  },
  {
    "id": 1920772,
    "name": "Zhoucheng",
    "lat": 35.91222,
    "lng": 116.31167
  },
  {
    "id": 1816176,
    "name": "Caidian",
    "lat": 30.58333,
    "lng": 114.03333
  },
  {
    "id": 2033602,
    "name": "Xiuyan",
    "lat": 40.29278,
    "lng": 123.27444
  },
  {
    "id": 1801926,
    "name": "Luohuang",
    "lat": 29.34662,
    "lng": 106.43514
  },
  {
    "id": 1794103,
    "name": "Shangsi",
    "lat": 22.15627,
    "lng": 107.97953
  },
  {
    "id": 2038139,
    "name": "Changtu",
    "lat": 42.77884,
    "lng": 124.09545
  },
  {
    "id": 1807035,
    "name": "Huashan",
    "lat": 34.63,
    "lng": 116.73583
  },
  {
    "id": 1818016,
    "name": "Anlu",
    "lat": 31.2575,
    "lng": 113.67833
  },
  {
    "id": 2033403,
    "name": "Yilan",
    "lat": 46.3223,
    "lng": 129.56081
  },
  {
    "id": 1803397,
    "name": "Linjiang",
    "lat": 31.09956,
    "lng": 108.21964
  },
  {
    "id": 1809486,
    "name": "Guiping",
    "lat": 23.39483,
    "lng": 110.07434
  },
  {
    "id": 2036283,
    "name": "Kuandian",
    "lat": 40.72861,
    "lng": 124.78472
  },
  {
    "id": 13308625,
    "name": "Shenzhen City Centre",
    "lat": 22.53589,
    "lng": 114.0771
  },
  {
    "id": 1798548,
    "name": "Poyang",
    "lat": 28.99242,
    "lng": 116.66754
  },
  {
    "id": 1786357,
    "name": "Yongfeng",
    "lat": 27.45493,
    "lng": 112.16943
  },
  {
    "id": 2037240,
    "name": "Gongchangling",
    "lat": 41.11667,
    "lng": 123.45
  },
  {
    "id": 1805757,
    "name": "Jimo",
    "lat": 36.38972,
    "lng": 120.46222
  },
  {
    "id": 2038541,
    "name": "Baiquan",
    "lat": 47.60659,
    "lng": 126.08231
  },
  {
    "id": 1806218,
    "name": "Jiangyan",
    "lat": 32.50611,
    "lng": 120.14278
  },
  {
    "id": 2034918,
    "name": "Shiguai",
    "lat": 40.70583,
    "lng": 110.28556
  },
  {
    "id": 1810846,
    "name": "Fuyang",
    "lat": 30.05333,
    "lng": 119.95194
  },
  {
    "id": 1789799,
    "name": "Haining",
    "lat": 30.53629,
    "lng": 120.68638
  },
  {
    "id": 1795986,
    "name": "Shankou",
    "lat": 21.6,
    "lng": 109.71667
  },
  {
    "id": 1799100,
    "name": "Pan’an",
    "lat": 34.75472,
    "lng": 105.11167
  },
  {
    "id": 1800764,
    "name": "Mengcheng Chengguanzhen",
    "lat": 33.26611,
    "lng": 116.56605
  },
  {
    "id": 1788887,
    "name": "Xinhe",
    "lat": 36.925,
    "lng": 119.59306
  },
  {
    "id": 1909053,
    "name": "Shima",
    "lat": 28.98773,
    "lng": 105.92441
  },
  {
    "id": 12358513,
    "name": "Fengping",
    "lat": 24.39735,
    "lng": 98.5177
  },
  {
    "id": 1815188,
    "name": "Chengxian Chengguanzhen",
    "lat": 33.74775,
    "lng": 105.73294
  },
  {
    "id": 1529528,
    "name": "Xininglu",
    "lat": 44.33957,
    "lng": 84.90425
  },
  {
    "id": 1788061,
    "name": "Xuantan",
    "lat": 29.20856,
    "lng": 105.56974
  },
  {
    "id": 1805884,
    "name": "Jiehu",
    "lat": 35.54278,
    "lng": 118.455
  },
  {
    "id": 2036069,
    "name": "Linjiang",
    "lat": 41.80694,
    "lng": 126.90778
  },
  {
    "id": 1793230,
    "name": "Tantou",
    "lat": 26.03033,
    "lng": 119.59739
  },
  {
    "id": 2033934,
    "name": "Xiaoshi",
    "lat": 41.29711,
    "lng": 124.12092
  },
  {
    "id": 1805505,
    "name": "Jinjiang",
    "lat": 19.72878,
    "lng": 110.00851
  },
  {
    "id": 1785699,
    "name": "Yunmen",
    "lat": 30.08274,
    "lng": 106.32376
  },
  {
    "id": 1791007,
    "name": "Wushan",
    "lat": 34.72083,
    "lng": 104.88583
  },
  {
    "id": 2036959,
    "name": "Heishan",
    "lat": 41.68917,
    "lng": 122.11278
  },
  {
    "id": 1798946,
    "name": "Pengcheng",
    "lat": 36.43111,
    "lng": 114.17
  },
  {
    "id": 1791484,
    "name": "Wenjiang",
    "lat": 28.38812,
    "lng": 104.56339
  },
  {
    "id": 1795166,
    "name": "Shima",
    "lat": 24.44647,
    "lng": 117.81216
  },
  {
    "id": 1800519,
    "name": "Mingguang",
    "lat": 32.78017,
    "lng": 117.96378
  },
  {
    "id": 1799384,
    "name": "Ninghai",
    "lat": 29.28917,
    "lng": 121.42472
  },
  {
    "id": 2038198,
    "name": "Chaihe",
    "lat": 44.7598,
    "lng": 129.67826
  },
  {
    "id": 1800521,
    "name": "Minggang",
    "lat": 32.45861,
    "lng": 114.04861
  },
  {
    "id": 1793286,
    "name": "Tangzhai",
    "lat": 34.43278,
    "lng": 116.59111
  },
  {
    "id": 1787873,
    "name": "Xunyang",
    "lat": 32.82389,
    "lng": 109.36528
  },
  {
    "id": 1787587,
    "name": "Yanghe",
    "lat": 38.27852,
    "lng": 106.24776
  },
  {
    "id": 2037658,
    "name": "Dongfeng",
    "lat": 42.67387,
    "lng": 125.52885
  },
  {
    "id": 1806422,
    "name": "Jiang’an",
    "lat": 28.73335,
    "lng": 105.0683
  },
  {
    "id": 2033128,
    "name": "Zhenlai",
    "lat": 45.84963,
    "lng": 123.19791
  },
  {
    "id": 8416931,
    "name": "Shuangfengqiao",
    "lat": 29.71859,
    "lng": 106.62712
  },
  {
    "id": 2034691,
    "name": "Songjianghe",
    "lat": 42.1859,
    "lng": 127.47895
  },
  {
    "id": 1801850,
    "name": "Luorong",
    "lat": 24.40583,
    "lng": 109.60861
  },
  {
    "id": 1802136,
    "name": "Lüeyang Chengguanzhen",
    "lat": 33.33205,
    "lng": 106.15496
  },
  {
    "id": 1791464,
    "name": "Wenling",
    "lat": 28.37524,
    "lng": 121.38416
  },
  {
    "id": 1797120,
    "name": "Fuqing",
    "lat": 25.7294,
    "lng": 119.37469
  },
  {
    "id": 1816026,
    "name": "Caohe",
    "lat": 30.2297,
    "lng": 115.43346
  },
  {
    "id": 1810472,
    "name": "Gaoliu",
    "lat": 36.8,
    "lng": 118.5
  },
  {
    "id": 1788461,
    "name": "Xinzhou",
    "lat": 19.71446,
    "lng": 109.31146
  },
  {
    "id": 2035453,
    "name": "Pingzhuang",
    "lat": 42.03722,
    "lng": 119.28889
  },
  {
    "id": 1792936,
    "name": "Tianliu",
    "lat": 37.0,
    "lng": 118.78333
  },
  {
    "id": 1801734,
    "name": "Lushar",
    "lat": 36.48416,
    "lng": 101.56328
  },
  {
    "id": 12279164,
    "name": "Wanggou",
    "lat": 34.67147,
    "lng": 116.49213
  },
  {
    "id": 1811305,
    "name": "Fengkou",
    "lat": 30.08268,
    "lng": 113.33346
  },
  {
    "id": 13308594,
    "name": "Shajing Town",
    "lat": 22.73846,
    "lng": 113.80755
  },
  {
    "id": 2036033,
    "name": "Liuhe",
    "lat": 42.28473,
    "lng": 125.74544
  },
  {
    "id": 1808863,
    "name": "Hanyin Chengguanzhen",
    "lat": 32.89139,
    "lng": 108.50472
  },
  {
    "id": 1789427,
    "name": "Wacheng Neighborhood",
    "lat": 33.78333,
    "lng": 114.51667
  },
  {
    "id": 1811970,
    "name": "Duoba",
    "lat": 36.65795,
    "lng": 101.53374
  },
  {
    "id": 12324473,
    "name": "Shaozhuang",
    "lat": 36.74701,
    "lng": 118.31655
  },
  {
    "id": 2034599,
    "name": "Tailai",
    "lat": 46.39004,
    "lng": 123.40849
  },
  {
    "id": 1803257,
    "name": "Lishi",
    "lat": 29.07888,
    "lng": 106.262
  },
  {
    "id": 1815184,
    "name": "Chengyang",
    "lat": 35.57944,
    "lng": 118.83278
  },
  {
    "id": 2035182,
    "name": "Sanchazi",
    "lat": 42.08167,
    "lng": 126.60028
  },
  {
    "id": 12277246,
    "name": "Daxu",
    "lat": 34.28239,
    "lng": 117.55266
  },
  {
    "id": 1280541,
    "name": "Qaraqash",
    "lat": 37.27246,
    "lng": 79.73438
  },
  {
    "id": 1793685,
    "name": "Taihe",
    "lat": 30.09949,
    "lng": 106.0489
  },
  {
    "id": 1804451,
    "name": "Lianyuan",
    "lat": 27.68833,
    "lng": 111.66417
  },
  {
    "id": 1797417,
    "name": "Wuxi",
    "lat": 26.5844,
    "lng": 111.859
  },
  {
    "id": 11530931,
    "name": "Qipan",
    "lat": 34.24469,
    "lng": 118.22113
  },
  {
    "id": 8418585,
    "name": "Tangxiang",
    "lat": 29.70226,
    "lng": 105.72363
  },
  {
    "id": 2036685,
    "name": "Huinan",
    "lat": 42.6225,
    "lng": 126.26139
  },
  {
    "id": 1816620,
    "name": "Beimeng",
    "lat": 36.60444,
    "lng": 119.49556
  },
  {
    "id": 1801797,
    "name": "Luoyang",
    "lat": 24.95938,
    "lng": 118.683
  },
  {
    "id": 2038482,
    "name": "Muling",
    "lat": 44.91647,
    "lng": 130.51707
  },
  {
    "id": 2036713,
    "name": "Huanren",
    "lat": 41.26472,
    "lng": 125.36667
  },
  {
    "id": 1797543,
    "name": "Qionghu",
    "lat": 28.84122,
    "lng": 112.35505
  },
  {
    "id": 2036753,
    "name": "Huanan",
    "lat": 46.23624,
    "lng": 130.54642
  },
  {
    "id": 1790100,
    "name": "Xiaolingwei",
    "lat": 32.03244,
    "lng": 118.854
  },
  {
    "id": 1810677,
    "name": "Ganshui",
    "lat": 28.74222,
    "lng": 106.71111
  },
  {
    "id": 1786969,
    "name": "Yaoji",
    "lat": 34.06667,
    "lng": 117.81667
  },
  {
    "id": 8417598,
    "name": "Qiantang",
    "lat": 30.18424,
    "lng": 106.3165
  },
  {
    "id": 1800675,
    "name": "Mengyin",
    "lat": 35.70694,
    "lng": 117.92639
  },
  {
    "id": 1280951,
    "name": "Jietou",
    "lat": 25.4274,
    "lng": 98.65324
  },
  {
    "id": 1790601,
    "name": "Xiangcheng Chengguanzhen",
    "lat": 33.84703,
    "lng": 113.4778
  },
  {
    "id": 1816813,
    "name": "Bayiji",
    "lat": 34.26667,
    "lng": 117.68333
  },
  {
    "id": 1796186,
    "name": "Shangkou",
    "lat": 36.96556,
    "lng": 118.88306
  },
  {
    "id": 1803728,
    "name": "Ligezhuang",
    "lat": 36.35778,
    "lng": 120.14278
  },
  {
    "id": 2037820,
    "name": "Dashitou",
    "lat": 43.30667,
    "lng": 128.51139
  },
  {
    "id": 1807467,
    "name": "Huanghua",
    "lat": 35.88917,
    "lng": 119.45778
  },
  {
    "id": 1810920,
    "name": "Qingyang",
    "lat": 37.49583,
    "lng": 121.25806
  },
  {
    "id": 1817858,
    "name": "Babu",
    "lat": 24.41667,
    "lng": 111.51667
  },
  {
    "id": 2033423,
    "name": "Yebaishou",
    "lat": 41.3975,
    "lng": 119.64083
  },
  {
    "id": 1807645,
    "name": "Huaiyuan Chengguanzhen",
    "lat": 32.95893,
    "lng": 117.16566
  },
  {
    "id": 1813892,
    "name": "Xincheng",
    "lat": 33.63333,
    "lng": 115.18333
  },
  {
    "id": 1816406,
    "name": "Bianzhuang",
    "lat": 34.84861,
    "lng": 118.04472
  },
  {
    "id": 1793747,
    "name": "Suyangshan",
    "lat": 34.39278,
    "lng": 117.75556
  },
  {
    "id": 2034226,
    "name": "Hepingjie",
    "lat": 42.05972,
    "lng": 126.91583
  },
  {
    "id": 1802880,
    "name": "Liuxin",
    "lat": 34.36861,
    "lng": 117.115
  },
  {
    "id": 1815971,
    "name": "Caoqiao",
    "lat": 34.3405,
    "lng": 118.11038
  },
  {
    "id": 1811260,
    "name": "Fengrun",
    "lat": 39.82664,
    "lng": 118.13822
  },
  {
    "id": 1804645,
    "name": "Kunyang",
    "lat": 27.66583,
    "lng": 120.56583
  },
  {
    "id": 1792834,
    "name": "Tianzhuang",
    "lat": 36.79583,
    "lng": 119.73667
  },
  {
    "id": 1803560,
    "name": "Lingao",
    "lat": 19.90873,
    "lng": 109.68717
  },
  {
    "id": 1795241,
    "name": "Shikang",
    "lat": 21.76667,
    "lng": 109.31667
  },
  {
    "id": 1811378,
    "name": "Fenggang",
    "lat": 27.54566,
    "lng": 116.21456
  },
  {
    "id": 1798973,
    "name": "Picheng",
    "lat": 34.46667,
    "lng": 117.96667
  },
  {
    "id": 1797158,
    "name": "Renzhao",
    "lat": 36.63861,
    "lng": 120.20361
  },
  {
    "id": 1815656,
    "name": "Changli",
    "lat": 39.70647,
    "lng": 119.1603
  },
  {
    "id": 1804874,
    "name": "Kaihua",
    "lat": 23.3695,
    "lng": 104.27721
  },
  {
    "id": 1785698,
    "name": "Yunmeng Chengguanzhen",
    "lat": 31.06251,
    "lng": 113.76545
  },
  {
    "id": 1787266,
    "name": "Yangzhou",
    "lat": 33.22192,
    "lng": 107.54267
  },
  {
    "id": 2035325,
    "name": "Qinggang",
    "lat": 46.69833,
    "lng": 126.0921
  },
  {
    "id": 7328899,
    "name": "Dengbu",
    "lat": 28.2084,
    "lng": 116.81717
  },
  {
    "id": 1787646,
    "name": "Yangcun",
    "lat": 39.36389,
    "lng": 117.06028
  },
  {
    "id": 1784553,
    "name": "Zhicheng",
    "lat": 31.00751,
    "lng": 119.90851
  },
  {
    "id": 1802020,
    "name": "Lulou",
    "lat": 34.71667,
    "lng": 116.76667
  },
  {
    "id": 1817701,
    "name": "Baihecun",
    "lat": 22.11321,
    "lng": 107.23592
  },
  {
    "id": 1809677,
    "name": "Guanyin",
    "lat": 29.09926,
    "lng": 104.39416
  },
  {
    "id": 1818004,
    "name": "Mabai",
    "lat": 23.01279,
    "lng": 104.45081
  },
  {
    "id": 1799908,
    "name": "Nanlong",
    "lat": 31.35333,
    "lng": 106.06309
  },
  {
    "id": 1786145,
    "name": "Youxi",
    "lat": 29.20936,
    "lng": 106.14428
  },
  {
    "id": 1789693,
    "name": "Xiazhuang",
    "lat": 34.91611,
    "lng": 118.63889
  },
  {
    "id": 1815779,
    "name": "Changcheng",
    "lat": 36.09056,
    "lng": 119.45167
  },
  {
    "id": 9123882,
    "name": "Shanwang",
    "lat": 36.5454,
    "lng": 118.711
  },
  {
    "id": 1816256,
    "name": "Botou",
    "lat": 38.07366,
    "lng": 116.56667
  },
  {
    "id": 1280703,
    "name": "Liuku",
    "lat": 25.8505,
    "lng": 98.85567
  },
  {
    "id": 2038446,
    "name": "Baoqing",
    "lat": 46.32452,
    "lng": 132.1897
  },
  {
    "id": 1549819,
    "name": "Shizhai",
    "lat": 34.80556,
    "lng": 116.63889
  },
  {
    "id": 12324298,
    "name": "Jinggou",
    "lat": 36.28176,
    "lng": 119.55185
  },
  {
    "id": 1549756,
    "name": "Fanlou",
    "lat": 34.48091,
    "lng": 116.85248
  },
  {
    "id": 1815678,
    "name": "Changle",
    "lat": 21.83333,
    "lng": 109.41667
  },
  {
    "id": 12358566,
    "name": "Miaojie",
    "lat": 25.31232,
    "lng": 100.27983
  },
  {
    "id": 2036338,
    "name": "Kaitong",
    "lat": 44.80913,
    "lng": 123.08108
  },
  {
    "id": 1785212,
    "name": "Zhangjiachuan",
    "lat": 34.98756,
    "lng": 106.20902
  },
  {
    "id": 1798733,
    "name": "Pingnan",
    "lat": 23.5418,
    "lng": 110.38929
  },
  {
    "id": 1281368,
    "name": "Dêqên",
    "lat": 29.96178,
    "lng": 90.71875
  },
  {
    "id": 1813016,
    "name": "Songyang",
    "lat": 34.45549,
    "lng": 113.03194
  },
  {
    "id": 1785980,
    "name": "Yucheng",
    "lat": 34.92889,
    "lng": 116.46528
  },
  {
    "id": 1794465,
    "name": "Shuikou",
    "lat": 23.98372,
    "lng": 115.89581
  },
  {
    "id": 2034791,
    "name": "Shuangyang",
    "lat": 43.52259,
    "lng": 125.65948
  },
  {
    "id": 2035593,
    "name": "Nianzishan",
    "lat": 47.51344,
    "lng": 122.88788
  },
  {
    "id": 1798632,
    "name": "Pingyin",
    "lat": 36.28306,
    "lng": 116.44528
  },
  {
    "id": 2038283,
    "name": "Bin Xian",
    "lat": 45.74274,
    "lng": 127.46053
  },
  {
    "id": 1797715,
    "name": "Qingshuping",
    "lat": 27.38083,
    "lng": 112.02056
  },
  {
    "id": 2036619,
    "name": "Hushitai",
    "lat": 41.94175,
    "lng": 123.50266
  },
  {
    "id": 1784647,
    "name": "Zhaobaoshan",
    "lat": 29.9695,
    "lng": 121.68753
  },
  {
    "id": 1785222,
    "name": "Zhangji",
    "lat": 34.1375,
    "lng": 117.37556
  },
  {
    "id": 1806651,
    "name": "Huoqiu Chengguanzhen",
    "lat": 32.35473,
    "lng": 116.2939
  },
  {
    "id": 1898359,
    "name": "Mudu",
    "lat": 31.25597,
    "lng": 120.51857
  },
  {
    "id": 1811184,
    "name": "Fengyi",
    "lat": 25.58399,
    "lng": 100.31181
  },
  {
    "id": 1800101,
    "name": "Nandu",
    "lat": 22.8525,
    "lng": 110.82333
  },
  {
    "id": 1802659,
    "name": "Longfeng",
    "lat": 30.38793,
    "lng": 109.50706
  },
  {
    "id": 1793139,
    "name": "Taoluo",
    "lat": 35.27389,
    "lng": 119.37028
  },
  {
    "id": 1786587,
    "name": "Yingshang Chengguanzhen",
    "lat": 32.62945,
    "lng": 116.27013
  },
  {
    "id": 1790434,
    "name": "Xiangzhou",
    "lat": 36.16444,
    "lng": 119.41889
  },
  {
    "id": 1798480,
    "name": "Yongning",
    "lat": 22.76101,
    "lng": 108.48359
  },
  {
    "id": 1788522,
    "name": "Hancheng",
    "lat": 32.51861,
    "lng": 112.35222
  },
  {
    "id": 2036055,
    "name": "Lishu",
    "lat": 43.30727,
    "lng": 124.33371
  },
  {
    "id": 2038665,
    "name": "Oroqen Zizhiqi",
    "lat": 50.56667,
    "lng": 123.71667
  },
  {
    "id": 1790413,
    "name": "Xianju",
    "lat": 28.8547,
    "lng": 120.73168
  },
  {
    "id": 1806248,
    "name": "Jianguang",
    "lat": 28.19377,
    "lng": 115.7836
  },
  {
    "id": 2037611,
    "name": "Dongning",
    "lat": 44.08436,
    "lng": 131.11841
  },
  {
    "id": 8417599,
    "name": "Dashi",
    "lat": 30.09372,
    "lng": 106.22227
  },
  {
    "id": 1805563,
    "name": "Tianchang",
    "lat": 37.99806,
    "lng": 114.01556
  },
  {
    "id": 2033866,
    "name": "Xifeng",
    "lat": 42.73722,
    "lng": 124.72222
  },
  {
    "id": 1813451,
    "name": "Datong",
    "lat": 32.62082,
    "lng": 117.06319
  },
  {
    "id": 1800006,
    "name": "Nanhu",
    "lat": 35.48778,
    "lng": 119.34583
  },
  {
    "id": 1786759,
    "name": "Yicheng",
    "lat": 31.70472,
    "lng": 112.25611
  },
  {
    "id": 1789546,
    "name": "Xiema",
    "lat": 29.77415,
    "lng": 106.3688
  },
  {
    "id": 1787144,
    "name": "Yanliang",
    "lat": 34.65918,
    "lng": 109.22921
  },
  {
    "id": 2034615,
    "name": "Tahe",
    "lat": 52.32148,
    "lng": 124.69761
  },
  {
    "id": 2037494,
    "name": "Erdaojiang",
    "lat": 41.77639,
    "lng": 126.03194
  },
  {
    "id": 1792916,
    "name": "Tianpeng",
    "lat": 30.98664,
    "lng": 103.93933
  },
  {
    "id": 1788206,
    "name": "Xixiang",
    "lat": 35.16278,
    "lng": 112.865
  },
  {
    "id": 1786910,
    "name": "Yaowan",
    "lat": 34.18333,
    "lng": 118.06667
  },
  {
    "id": 2035707,
    "name": "Mujiayingzi",
    "lat": 42.11667,
    "lng": 118.78333
  },
  {
    "id": 1812792,
    "name": "Dingjia",
    "lat": 29.409,
    "lng": 106.14228
  },
  {
    "id": 1816924,
    "name": "Langzhong",
    "lat": 31.55037,
    "lng": 105.99381
  },
  {
    "id": 1804106,
    "name": "Liancheng",
    "lat": 25.71826,
    "lng": 116.74892
  },
  {
    "id": 1803998,
    "name": "Jiangbei",
    "lat": 29.7283,
    "lng": 106.63506
  },
  {
    "id": 1802550,
    "name": "Longgang",
    "lat": 37.65181,
    "lng": 120.33063
  },
  {
    "id": 12324508,
    "name": "Taitou",
    "lat": 37.02733,
    "lng": 118.63392
  },
  {
    "id": 1813851,
    "name": "Gushu",
    "lat": 31.56055,
    "lng": 118.48147
  },
  {
    "id": 1811140,
    "name": "Fenshui",
    "lat": 30.7197,
    "lng": 108.08333
  },
  {
    "id": 1791161,
    "name": "Wujing",
    "lat": 36.45,
    "lng": 118.4
  },
  {
    "id": 1791347,
    "name": "Wucheng",
    "lat": 29.60077,
    "lng": 118.17495
  },
  {
    "id": 1785572,
    "name": "Yuxia",
    "lat": 34.06153,
    "lng": 108.62905
  },
  {
    "id": 1797038,
    "name": "Runing",
    "lat": 33.00111,
    "lng": 114.35417
  },
  {
    "id": 1801455,
    "name": "Zhijiang",
    "lat": 30.42139,
    "lng": 111.75333
  },
  {
    "id": 12324486,
    "name": "Gucheng",
    "lat": 36.95347,
    "lng": 118.76246
  },
  {
    "id": 1793089,
    "name": "Taozhuang",
    "lat": 34.85,
    "lng": 117.33333
  },
  {
    "id": 1529239,
    "name": "Sandaohezi",
    "lat": 44.32597,
    "lng": 85.62009
  },
  {
    "id": 1786382,
    "name": "Yongbei",
    "lat": 26.64623,
    "lng": 100.78073
  },
  {
    "id": 12450879,
    "name": "Dazeshan",
    "lat": 36.98874,
    "lng": 119.92224
  },
  {
    "id": 1790848,
    "name": "Wuzhen",
    "lat": 30.74536,
    "lng": 120.4851
  },
  {
    "id": 1783920,
    "name": "Zhujiajiao",
    "lat": 31.10757,
    "lng": 121.05696
  },
  {
    "id": 1806327,
    "name": "Jiangkou",
    "lat": 25.48694,
    "lng": 119.19834
  },
  {
    "id": 7931312,
    "name": "Maqin County",
    "lat": 34.47442,
    "lng": 100.24496
  },
  {
    "id": 1799832,
    "name": "Pucheng",
    "lat": 27.92333,
    "lng": 118.53333
  },
  {
    "id": 1817543,
    "name": "Baimajing",
    "lat": 19.71195,
    "lng": 109.21801
  },
  {
    "id": 8516975,
    "name": "Tuanbao",
    "lat": 30.33675,
    "lng": 109.13465
  },
  {
    "id": 1791428,
    "name": "Wenshang",
    "lat": 35.7275,
    "lng": 116.49611
  },