[
  {
    "id": 3688689,
    "name": "Bogotá",
    "lat": 4.60971,
    "lon": -74.08175
  },
  {
    "id": 3687925,
    "name": "Cali",
    "lat": 3.43054,
    "lon": -76.5199
  },
  {
    "id": 3674962,
    "name": "Medellín",
    "lat": 6.245,
    "lon": -75.57151
  },
  {
    "id": 3689147,
    "name": "Barranquilla",
    "lat": 10.96854,
    "lon": -74.78132
  },
  {
    "id": 3687238,
    "name": "Cartagena",
    "lat": 10.39817,
    "lon": -75.49328
  },
  {
    "id": 3685533,
    "name": "Cúcuta",
    "lat": 7.90745,
    "lon": -72.5049
  },
  {
    "id": 3667905,
    "name": "Soacha",
    "lat": 4.57937,
    "lon": -74.21682
  },
  {
    "id": 3688465,
    "name": "Bucaramanga",
    "lat": 7.125,
    "lon": -73.11895
  },
  {
    "id": 3680656,
    "name": "Ibagué",
    "lat": 4.43573,
    "lon": -75.20289
  },
  {
    "id": 3668605,
    "name": "Santa Marta",
    "lat": 11.23855,
    "lon": -74.19427
  },
  {
    "id": 3674453,
    "name": "Montería",
    "lat": 8.75081,
    "lon": -75.87823
  },
  {
    "id": 3666304,
    "name": "Valledupar",
    "lat": 10.46538,
    "lon": -73.2531
  },
  {
    "id": 3672486,
    "name": "Pereira",
    "lat": 4.81428,
    "lon": -75.69488
  },
  {
    "id": 3675443,
    "name": "Manizales",
    "lat": 5.0668,
    "lon": -75.50684
  },
  {
    "id": 3688452,
    "name": "Buenaventura",
    "lat": 3.58333,
    "lon": -77.0
  },
  {
    "id": 3688928,
    "name": "Bello",
    "lat": 6.33732,
    "lon": -75.55795
  },
  {
    "id": 3672778,
    "name": "Pasto",
    "lat": 1.21456,
    "lon": -77.27846
  },
  {
    "id": 3673899,
    "name": "Neiva",
    "lat": 2.93001,
    "lon": -75.27973
  },
  {
    "id": 3667849,
    "name": "Soledad",
    "lat": 10.91843,
    "lon": -74.76459
  },
  {
    "id": 3665900,
    "name": "Villavicencio",
    "lat": 4.13238,
    "lon": -73.62564
  },
  {
    "id": 3671916,
    "name": "Popayán",
    "lat": 2.43823,
    "lon": -76.61316
  },
  {
    "id": 3673164,
    "name": "Palmira",
    "lat": 3.53944,
    "lon": -76.30361
  },
  {
    "id": 3689560,
    "name": "Armenia",
    "lat": 4.53656,
    "lon": -75.67263
  },
  {
    "id": 3680450,
    "name": "Itagüí",
    "lat": 6.18461,
    "lon": -75.59913
  },
  {
    "id": 3667983,
    "name": "Sincelejo",
    "lat": 9.3045,
    "lon": -75.3905
  },
  {
    "id": 3682385,
    "name": "Floridablanca",
    "lat": 7.06222,
    "lon": -73.08644
  },
  {
    "id": 3688451,
    "name": "Buenaventura",
    "lat": 3.8801,
    "lon": -77.03116
  },
  {
    "id": 3666645,
    "name": "Tuluá",
    "lat": 4.08466,
    "lon": -76.19536
  },
  {
    "id": 3685095,
    "name": "Dosquebradas",
    "lat": 4.83916,
    "lon": -75.66727
  },
  {
    "id": 3689169,
    "name": "Barrancabermeja",
    "lat": 7.06528,
    "lon": -73.85472
  },
  {
    "id": 3670745,
    "name": "Riohacha",
    "lat": 11.54444,
    "lon": -72.90722
  },
  {
    "id": 3666608,
    "name": "Tunja",
    "lat": 5.54481,
    "lon": -73.35756
  },
  {
    "id": 3665688,
    "name": "Yopal",
    "lat": 5.33573,
    "lon": -72.3939
  },
  {
    "id": 3682426,
    "name": "Florencia",
    "lat": 1.61549,
    "lon": -75.60412
  },
  {
    "id": 3675657,
    "name": "Maicao",
    "lat": 11.37837,
    "lon": -72.2395
  },
  {
    "id": 3672328,
    "name": "Piedecuesta",
    "lat": 6.98789,
    "lon": -73.04953
  },
  {
    "id": 3682631,
    "name": "Envigado",
    "lat": 6.17591,
    "lon": -75.59174
  },
  {
    "id": 3682516,
    "name": "Facatativá",
    "lat": 4.81367,
    "lon": -74.35453
  },
  {
    "id": 3672110,
    "name": "Pitalito",
    "lat": 1.85371,
    "lon": -76.05071
  },
  {
    "id": 3675707,
    "name": "Madrid",
    "lat": 4.73245,
    "lon": -74.26419
  },
  {
    "id": 3687230,
    "name": "Cartago",
    "lat": 4.74639,
    "lon": -75.91167
  },
  {
    "id": 3665542,
    "name": "Zipaquirá",
    "lat": 5.02208,
    "lon": -74.00481
  },
  {
    "id": 3671116,
    "name": "Quibdó",
    "lat": 5.69188,
    "lon": -76.65835
  },
  {
    "id": 3675595,
    "name": "Malambo",
    "lat": 10.85953,
    "lon": -74.77386
  },
  {
    "id": 3670730,
    "name": "Rionegro",
    "lat": 6.15515,
    "lon": -75.37371
  },
  {
    "id": 3674292,
    "name": "Mosquera",
    "lat": 4.70592,
    "lon": -74.23021
  },
  {
    "id": 3686675,
    "name": "Chía",
    "lat": 4.85876,
    "lon": -74.05866
  },
  {
    "id": 3675692,
    "name": "Magangué",
    "lat": 9.24202,
    "lon": -74.75467
  },
  {
    "id": 3682281,
    "name": "Funza",
    "lat": 4.71638,
    "lon": -74.21195
  },
  {
    "id": 3688256,
    "name": "Guadalajara de Buga",
    "lat": 3.90089,
    "lon": -76.29783
  },
  {
    "id": 3667873,
    "name": "Sogamoso",
    "lat": 5.71434,
    "lon": -72.93391
  },
  {
    "id": 3682018,
    "name": "Girón",
    "lat": 7.0682,
    "lon": -73.16981
  },
  {
    "id": 3682028,
    "name": "Girardot City",
    "lat": 4.30079,
    "lon": -74.80754
  },
  {
    "id": 3670502,
    "name": "Sabanalarga",
    "lat": 10.63072,
    "lon": -74.92214
  },
  {
    "id": 3673662,
    "name": "Ocaña",
    "lat": 8.23773,
    "lon": -73.35604
  },
  {
    "id": 3668572,
    "name": "Santander de Quilichao",
    "lat": 3.00945,
    "lon": -76.48494
  },
  {
    "id": 3690465,
    "name": "Aguachica",
    "lat": 8.30844,
    "lon": -73.6166
  },
  {
    "id": 3686922,
    "name": "Cereté",
    "lat": 8.88479,
    "lon": -75.79052
  },
  {
    "id": 3685084,
    "name": "Duitama",
    "lat": 5.8245,
    "lon": -73.03408
  },
  {
    "id": 3674470,
    "name": "Montelíbano",
    "lat": 7.97917,
    "lon": -75.4202
  },
  {
    "id": 3682274,
    "name": "Fusagasugá",
    "lat": 4.33646,
    "lon": -74.36378
  },
  {
    "id": 3686279,
    "name": "Ciénaga",
    "lat": 11.00703,
    "lon": -74.24765
  },
  {
    "id": 3666640,
    "name": "Tumaco",
    "lat": 1.79112,
    "lon": -78.79275
  },
  {
    "id": 3689798,
    "name": "Apartadó",
    "lat": 7.88299,
    "lon": -76.62587
  },
  {
    "id": 3686636,
    "name": "Chigorodó",
    "lat": 7.66638,
    "lon": -76.68106
  },
  {
    "id": 3689718,
    "name": "Arauca",
    "lat": 7.08471,
    "lon": -70.75908
  },
  {
    "id": 3687952,
    "name": "Caldas",
    "lat": 6.09106,
    "lon": -75.63569
  },
  {
    "id": 3679277,
    "name": "La Dorada",
    "lat": 5.44783,
    "lon": -74.66311
  },
  {
    "id": 3687964,
    "name": "Calarcá",
    "lat": 4.52949,
    "lon": -75.64091
  },
  {
    "id": 3680539,
    "name": "Ipiales",
    "lat": 0.82501,
    "lon": -77.63966
  },
  {
    "id": 3665657,
    "name": "Yumbo",
    "lat": 3.58234,
    "lon": -76.49146
  },
  {
    "id": 3672068,
    "name": "Planeta Rica",
    "lat": 8.4115,
    "lon": -75.58508
  },
  {
    "id": 3681957,
    "name": "Granada",
    "lat": 3.54625,
    "lon": -73.70687
  },
  {
    "id": 3686561,
    "name": "Chinchiná",
    "lat": 4.9825,
    "lon": -75.60361
  },
  {
    "id": 3689235,
    "name": "Baranoa",
    "lat": 10.79408,
    "lon": -74.9164
  },
  {
    "id": 3665913,
    "name": "Villa del Rosario",
    "lat": 7.83389,
    "lon": -72.47417
  },
  {
    "id": 3669346,
    "name": "San Marcos",
    "lat": 8.65972,
    "lon": -75.12809
  },
  {
    "id": 3670419,
    "name": "Sahagún",
    "lat": 8.94617,
    "lon": -75.44275
  },
  {
    "id": 3682292,
    "name": "Fundación",
    "lat": 10.52066,
    "lon": -74.18504
  },
  {
    "id": 3675975,
    "name": "Los Patios",
    "lat": 7.83793,
    "lon": -72.5037
  },
  {
    "id": 3670218,
    "name": "San Andrés",
    "lat": 12.57858,
    "lon": -81.69973
  },
  {
    "id": 3687025,
    "name": "Caucasia",
    "lat": 7.98654,
    "lon": -75.19349
  },
  {
    "id": 3668454,
    "name": "Santa Rosa de Cabal",
    "lat": 4.86806,
    "lon": -75.62139
  },
  {
    "id": 3829343,
    "name": "Orito",
    "lat": 0.66749,
    "lon": -76.87297
  },
  {
    "id": 3675263,
    "name": "Marinilla",
    "lat": 6.17358,
    "lon": -75.33621
  },
  {
    "id": 3674654,
    "name": "Mocoa",
    "lat": 1.15284,
    "lon": -76.65208
  },
  {
    "id": 3682573,
    "name": "Espinal",
    "lat": 4.14924,
    "lon": -74.88429
  },
  {
    "id": 3666577,
    "name": "Turbaco",
    "lat": 10.32944,
    "lon": -75.41137
  },
  {
    "id": 3689381,
    "name": "Ayapel",
    "lat": 8.31372,
    "lon": -75.13982
  },
  {
    "id": 3684917,
    "name": "El Banco",
    "lat": 9.00114,
    "lon": -73.97581
  },
  {
    "id": 3688006,
    "name": "Cajicá",
    "lat": 4.91857,
    "lon": -74.02799
  },
  {
    "id": 3689205,
    "name": "Barbosa",
    "lat": 6.43809,
    "lon": -75.33136
  },
  {
    "id": 3673045,
    "name": "Pamplona",
    "lat": 7.37565,
    "lon": -72.64795
  },
  {
    "id": 3828545,
    "name": "San José del Guaviare",
    "lat": 2.56799,
    "lon": -72.63972
  },
  {
    "id": 3792383,
    "name": "Agustín Codazzi",
    "lat": 10.03672,
    "lon": -73.23558
  },
  {
    "id": 3684945,
    "name": "El Bagre",
    "lat": 7.60347,
    "lon": -74.80951
  },
  {
    "id": 3671540,
    "name": "Puerto Berrío",
    "lat": 6.49156,
    "lon": -74.40326
  },
  {
    "id": 3686255,
    "name": "Cimitarra",
    "lat": 6.31419,
    "lon": -73.94968
  },
  {
    "id": 3686540,
    "name": "Chinú",
    "lat": 9.10569,
    "lon": -75.39812
  },
  {
    "id": 3666570,
    "name": "Turbo",
    "lat": 8.09263,
    "lon": -76.72822
  },
  {
    "id": 3689570,
    "name": "Arjona",
    "lat": 10.25444,
    "lon": -75.34389
  },
  {
    "id": 3687318,
    "name": "Carmen de Viboral",
    "lat": 6.08236,
    "lon": -75.33509
  },
  {
    "id": 3679065,
    "name": "La Estrella",
    "lat": 6.15769,
    "lon": -75.64317
  },
  {
    "id": 3685949,
    "name": "Copacabana",
    "lat": 6.34633,
    "lon": -75.50888
  },
  {
    "id": 3670293,
    "name": "Samaniego",
    "lat": 1.33849,
    "lon": -77.5957
  },
  {
    "id": 3792392,
    "name": "Plato",
    "lat": 9.79029,
    "lon": -74.78244
  },
  {
    "id": 3676623,
    "name": "Leticia",
    "lat": -4.21079,
    "lon": -69.93944
  },
  {
    "id": 3684666,
    "name": "El Carmen de Bolívar",
    "lat": 9.7174,
    "lon": -75.12023
  },
  {
    "id": 3682393,
    "name": "Florida",
    "lat": 3.3223,
    "lon": -76.2348
  },
  {
    "id": 3671315,
    "name": "Puerto Tejada",
    "lat": 3.23114,
    "lon": -76.41668
  },
  {
    "id": 3669808,
    "name": "San Gil",
    "lat": 6.55952,
    "lon": -73.13637
  },
  {
    "id": 3686513,
    "name": "Chiquinquirá",
    "lat": 5.61637,
    "lon": -73.81748
  },
  {
    "id": 3680387,
    "name": "Jamundí",
    "lat": 3.26074,
    "lon": -76.53499
  },
  {
    "id": 3671772,
    "name": "Pradera",
    "lat": 3.42111,
    "lon": -76.24472
  },
  {
    "id": 8633918,
    "name": "Piendamo",
    "lat": 2.63918,
    "lon": -76.53055
  },
  {
    "id": 3668132,
    "name": "Sevilla",
    "lat": 4.26425,
    "lon": -75.93085
  },
  {
    "id": 3674702,
    "name": "Miranda",
    "lat": 3.25283,
    "lon": -76.22924
  },
  {
    "id": 3674463,
    "name": "Montenegro",
    "lat": 4.56639,
    "lon": -75.75111
  },
  {
    "id": 3689759,
    "name": "Aracataca",
    "lat": 10.59181,
    "lon": -74.18983
  },
  {
    "id": 3681702,
    "name": "Guaduas",
    "lat": 5.06692,
    "lon": -74.59499
  },
  {
    "id": 3676928,
    "name": "La Unión",
    "lat": 4.53282,
    "lon": -76.10318
  },
  {
    "id": 3690577,
    "name": "Acacías",
    "lat": 3.98695,
    "lon": -73.75797
  },
  {
    "id": 3676397,
    "name": "Lorica",
    "lat": 9.23648,
    "lon": -75.8135
  },
  {
    "id": 3688566,
    "name": "Bosconia",
    "lat": 9.97106,
    "lon": -73.88817
  },
  {
    "id": 3669469,
    "name": "San Juan del Cesar",
    "lat": 10.77107,
    "lon": -73.00314
  },
  {
    "id": 3666582,
    "name": "Túquerres",
    "lat": 1.08647,
    "lon": -77.61858
  },
  {
    "id": 3668175,
    "name": "Segovia",
    "lat": 7.07993,
    "lon": -74.6989
  },
  {
    "id": 3685823,
    "name": "Corozal",
    "lat": 9.31847,
    "lon": -75.2933
  },
  {
    "id": 3676604,
    "name": "Líbano",
    "lat": 4.9218,
    "lon": -75.06232
  },
  {
    "id": 3684615,
    "name": "El Cerrito",
    "lat": 3.68549,
    "lon": -76.31372
  },
  {
    "id": 3689162,
    "name": "Barrancas",
    "lat": 10.95672,
    "lon": -72.79456
  },
  {
    "id": 3668451,
    "name": "Santa Rosa de Osos",
    "lat": 6.64738,
    "lon": -75.46031
  },
  {
    "id": 3672761,
    "name": "Patía",
    "lat": 2.06895,
    "lon": -77.05273
  },
  {
    "id": 3781636,
    "name": "Bosconia",
    "lat": 4.85583,
    "lon": -73.98167
  },
  {
    "id": 3672664,
    "name": "Payandé",
    "lat": 4.2975,
    "lon": -75.09667
  },
  {
    "id": 3669188,
    "name": "San Pablo",
    "lat": 10.05154,
    "lon": -75.26775
  },
  {
    "id": 3673398,
    "name": "Belalcázar",
    "lat": 2.64644,
    "lon": -75.97269
  },
  {
    "id": 3679554,
    "name": "La Ceja",
    "lat": 6.03131,
    "lon": -75.43333
  },
  {
    "id": 3682047,
    "name": "Gigante",
    "lat": 2.38678,
    "lon": -75.54736
  },
  {
    "id": 3671098,
    "name": "Quimbaya",
    "lat": 4.62306,
    "lon": -75.76278
  },
  {
    "id": 3665973,
    "name": "Villamaría",
    "lat": 5.04565,
    "lon": -75.51474
  },
  {
    "id": 3670513,
    "name": "Sabanagrande",
    "lat": 10.79115,
    "lon": -74.76059
  },
  {
    "id": 3685335,
    "name": "Curumaní",
    "lat": 9.19992,
    "lon": -73.54274
  },
  {
    "id": 3672653,
    "name": "Paz de Ariporo",
    "lat": 5.88148,
    "lon": -71.89167
  },
  {
    "id": 3670199,
    "name": "San Antero",
    "lat": 9.3741,
    "lon": -75.75891
  },
  {
    "id": 3669454,
    "name": "San Juan Nepomuceno",
    "lat": 9.95157,
    "lon": -75.08198
  },
  {
    "id": 3671091,
    "name": "Quinchía",
    "lat": 5.33957,
    "lon": -75.73018
  },
  {
    "id": 3685871,
    "name": "Corinto",
    "lat": 3.17301,
    "lon": -76.26275
  },
  {
    "id": 3671348,
    "name": "Puerto Rico",
    "lat": 1.90999,
    "lon": -75.15931
  },
  {
    "id": 3671615,
    "name": "Puebloviejo",
    "lat": 10.99376,
    "lon": -74.28439
  },
  {
    "id": 3667820,
    "name": "Sonsón",
    "lat": 5.71062,
    "lon": -75.31069
  },
  {
    "id": 3667918,
    "name": "Sitionuevo",
    "lat": 10.77737,
    "lon": -74.72049
  },
  {
    "id": 3675252,
    "name": "San Sebastián de Mariquita",
    "lat": 5.19889,
    "lon": -74.89295
  },
  {
    "id": 3689833,
    "name": "Anserma",
    "lat": 5.33278,
    "lon": -75.79111
  },
  {
    "id": 3672093,
    "name": "Pivijay",
    "lat": 10.46167,
    "lon": -74.61621
  },
  {
    "id": 3669218,
    "name": "San Onofre",
    "lat": 9.73586,
    "lon": -75.52626
  },
  {
    "id": 3688071,
    "name": "Caicedonia",
    "lat": 4.3324,
    "lon": -75.82665
  },
  {
    "id": 3682374,
    "name": "Fonseca",
    "lat": 10.88606,
    "lon": -72.8487
  },
  {
    "id": 3665951,
    "name": "Villanueva",
    "lat": 5.28333,
    "lon": -71.96667
  },
  {
    "id": 3671287,
    "name": "Puerto Wilches",
    "lat": 7.34828,
    "lon": -73.89601
  },
  {
    "id": 3674597,
    "name": "Mompós",
    "lat": 9.24194,
    "lon": -74.42667
  },
  {
    "id": 3667991,
    "name": "San Luis de Sincé",
    "lat": 9.24391,
    "lon": -75.14675
  },
  {
    "id": 3669087,
    "name": "San Pedro de Urabá",
    "lat": 8.27515,
    "lon": -76.37641
  },
  {
    "id": 3681563,
    "name": "Guamo",
    "lat": 4.03078,
    "lon": -74.9701
  },
  {
    "id": 3686585,
    "name": "Chimichagua",
    "lat": 9.25778,
    "lon": -73.81228
  },
  {
    "id": 3667887,
    "name": "Socorro",
    "lat": 6.46838,
    "lon": -73.26022
  },
  {
    "id": 3674676,
    "name": "Mitú",
    "lat": 1.25744,
    "lon": -70.23551
  },
  {
    "id": 3671549,
    "name": "Puerto Asís",
    "lat": 0.50514,
    "lon": -76.49571
  },
  {
    "id": 3770718,
    "name": "Morales",
    "lat": 2.75446,
    "lon": -76.62791
  },
  {
    "id": 3671208,
    "name": "Purificación",
    "lat": 3.85871,
    "lon": -74.93129
  },
  {
    "id": 3682108,
    "name": "Garzón",
    "lat": 2.19593,
    "lon": -75.62777
  },
  {
    "id": 3682458,
    "name": "Flandes",
    "lat": 4.29005,
    "lon": -74.81612
  },
  {
    "id": 3667478,
    "name": "Tame",
    "lat": 6.46065,
    "lon": -71.73618
  },
  {
    "id": 3665559,
    "name": "Zarzal",
    "lat": 4.39462,
    "lon": -76.0715
  },
  {
    "id": 3668332,
    "name": "Santo Tomás",
    "lat": 10.75773,
    "lon": -74.75451
  },
  {
    "id": 3684579,
    "name": "El Charco",
    "lat": 2.48075,
    "lon": -78.10972
  },
  {
    "id": 3684452,
    "name": "El Copey",
    "lat": 10.15031,
    "lon": -73.9614
  },
  {
    "id": 3680840,
    "name": "Honda",
    "lat": 5.20856,
    "lon": -74.73584
  },
  {
    "id": 3670520,
    "name": "Sabana de Torres",
    "lat": 7.3915,
    "lon": -73.49574
  },
  {
    "id": 3675826,
    "name": "Luruaco",
    "lat": 10.61712,
    "lon": -75.15146
  },
  {
    "id": 3670644,
    "name": "Roldanillo",
    "lat": 4.41256,
    "lon": -76.15457
  },
  {
    "id": 3666939,
    "name": "Santiago de Tolú",
    "lat": 9.52392,
    "lon": -75.58139
  },
  {
    "id": 3671531,
    "name": "Puerto Boyacá",
    "lat": 5.976,
    "lon": -74.58516
  },
  {
    "id": 3686233,
    "name": "Circasia",
    "lat": 4.61889,
    "lon": -75.63583
  },
  {
    "id": 3677010,
    "name": "La Tebaida",
    "lat": 4.45265,
    "lon": -75.78746
  },
  {
    "id": 3673220,
    "name": "Palmar de Varela",
    "lat": 10.74055,
    "lon": -74.75443
  },
  {
    "id": 3686479,
    "name": "Chiriguaná",
    "lat": 9.36238,
    "lon": -73.60313
  },
  {
    "id": 3690250,
    "name": "Albania",
    "lat": 11.16099,
    "lon": -72.59238
  },
  {
    "id": 3678405,
    "name": "La Mesa",
    "lat": 5.26667,
    "lon": -73.91667
  },
  {
    "id": 3667697,
    "name": "Supía",
    "lat": 5.45303,
    "lon": -75.65072
  },
  {
    "id": 3689589,
    "name": "Ariguaní",
    "lat": 10.25,
    "lon": -74.0
  },
  {
    "id": 3667158,
    "name": "Tierralta",
    "lat": 8.17361,
    "lon": -76.05917
  },
  {
    "id": 3671497,
    "name": "Puerto Colombia",
    "lat": 10.98778,
    "lon": -74.95472
  },
  {
    "id": 3675668,
    "name": "Mahates",
    "lat": 10.23293,
    "lon": -75.18985
  },
  {
    "id": 3682682,
    "name": "El Zulia",
    "lat": 7.93248,
    "lon": -72.60125
  },
  {
    "id": 3674885,
    "name": "Melgar",
    "lat": 4.20475,
    "lon": -74.64075
  },
  {
    "id": 3676720,
    "name": "La Virginia",
    "lat": 4.89972,
    "lon": -75.8825
  },
  {
    "id": 3689952,
    "name": "Anaime",
    "lat": 4.39639,
    "lon": -75.445
  },
  {
    "id": 3670874,
    "name": "Repelón",
    "lat": 10.4952,
    "lon": -75.12448
  },
  {
    "id": 3681596,
    "name": "Guamal",
    "lat": 9.14334,
    "lon": -74.22384
  },
  {
    "id": 3792389,
    "name": "Isnos",
    "lat": 1.93556,
    "lon": -76.24056
  },
  {
    "id": 3665566,
    "name": "Zaragoza",
    "lat": 7.48971,
    "lon": -74.86919
  },
  {
    "id": 3673976,
    "name": "Nechí",
    "lat": 8.09419,
    "lon": -74.77573
  },
  {
    "id": 3685435,
    "name": "Cumaribo",
    "lat": 4.44552,
    "lon": -69.79897
  },
  {
    "id": 3687644,
    "name": "Candelaria",
    "lat": 3.40671,
    "lon": -76.34819
  },
  {
    "id": 3680434,
    "name": "Ituango",
    "lat": 7.17117,
    "lon": -75.76404
  },
  {
    "id": 3669736,
    "name": "San Jacinto",
    "lat": 9.82767,
    "lon": -75.1217
  },
  {
    "id": 3669997,
    "name": "San Carlos",
    "lat": 8.79577,
    "lon": -75.69947
  },
  {
    "id": 3671936,
    "name": "Ponedera",
    "lat": 10.64297,
    "lon": -74.75393
  },
  {
    "id": 3675287,
    "name": "María la Baja",
    "lat": 9.9832,
    "lon": -75.30155
  },
  {
    "id": 3792376,
    "name": "Ciudad Bolívar",
    "lat": 5.85389,
    "lon": -76.02528
  },
  {
    "id": 3672197,
    "name": "Pinillos",
    "lat": 8.91925,
    "lon": -74.46771
  },
  {
    "id": 3689816,
    "name": "Santa Fe de Antioquia",
    "lat": 6.55687,
    "lon": -75.82806
  },
  {
    "id": 3667728,
    "name": "Sucre",
    "lat": 8.81136,
    "lon": -74.72084
  },
  {
    "id": 3668087,
    "name": "Sibaté",
    "lat": 4.49154,
    "lon": -74.25957
  },
  {
    "id": 3670692,
    "name": "Rivera",
    "lat": 2.77717,
    "lon": -75.25642
  },
  {
    "id": 3687758,
    "name": "Campo de la Cruz",
    "lat": 10.37808,
    "lon": -74.88356
  },
  {
    "id": 3685295,
    "name": "Dabeiba",
    "lat": 7.00017,
    "lon": -76.26915
  },
  {
    "id": 3687806,
    "name": "Campoalegre",
    "lat": 2.68489,
    "lon": -75.32311
  },
  {
    "id": 3674010,
    "name": "Natagaima",
    "lat": 3.62057,
    "lon": -75.09415
  },
  {
    "id": 3665741,
    "name": "Yarumal",
    "lat": 6.96321,
    "lon": -75.41738
  },
  {
    "id": 3669332,
    "name": "San Martín",
    "lat": 3.69637,
    "lon": -73.69957
  },
  {
    "id": 3667355,
    "name": "Tauramena",
    "lat": 5.01789,
    "lon": -72.74675
  },
  {
    "id": 3667070,
    "name": "Timbiquí",
    "lat": 2.7717,
    "lon": -77.66536
  },
  {
    "id": 3672077,
    "name": "Planadas",
    "lat": 3.19698,
    "lon": -75.64506
  },
  {
    "id": 3688989,
    "name": "Belén de Umbría",
    "lat": 5.20087,
    "lon": -75.86865
  },
  {
    "id": 3678674,
    "name": "La Jagua de Ibirico",
    "lat": 9.56228,
    "lon": -73.33405
  },
  {
    "id": 3670280,
    "name": "Sampués",
    "lat": 9.18361,
    "lon": -75.38167
  },
  {
    "id": 3671519,
    "name": "Puerto Carreño",
    "lat": 6.19041,
    "lon": -67.48391
  },
  {
    "id": 3674572,
    "name": "Moniquirá",
    "lat": 5.87638,
    "lon": -73.57284
  },
  {
    "id": 3676923,
    "name": "La Unión",
    "lat": 5.97431,
    "lon": -75.36195
  },
  {
    "id": 3690431,
    "name": "Aguadas",
    "lat": 5.61161,
    "lon": -75.45624
  },
  {
    "id": 3670849,
    "name": "Retiro",
    "lat": 6.05861,
    "lon": -75.50306
  },
  {
    "id": 3665895,
    "name": "Villeta",
    "lat": 5.00886,
    "lon": -74.47226
  },
  {
    "id": 3792375,
    "name": "Carepa",
    "lat": 7.75849,
    "lon": -76.65255
  },
  {
    "id": 3668028,
    "name": "Silvania",
    "lat": 4.40367,
    "lon": -74.3867
  },
  {
    "id": 3673902,
    "name": "Neira",
    "lat": 5.1665,
    "lon": -75.52001
  },
  {
    "id": 3666519,
    "name": "Villa de San Diego de Ubaté",
    "lat": 5.30933,
    "lon": -73.81575
  },
  {
    "id": 3689026,
    "name": "Becerril",
    "lat": 9.70413,
    "lon": -73.2793
  },
  {
    "id": 3685733,
    "name": "Cota",
    "lat": 4.80938,
    "lon": -74.098
  },
  {
    "id": 3792385,
    "name": "San Martín",
    "lat": 8.00181,
    "lon": -73.51143
  },
  {
    "id": 3670587,
    "name": "Rovira",
    "lat": 4.23922,
    "lon": -75.23996
  },
  {
    "id": 3689206,
    "name": "Barbosa",
    "lat": 5.93168,
    "lon": -73.61507
  },
  {
    "id": 3682232,
    "name": "Galeras",
    "lat": 9.16095,
    "lon": -75.04811
  },
  {
    "id": 3682313,
    "name": "Frontino",
    "lat": 6.77133,
    "lon": -76.13324
  },
  {
    "id": 3671437,
    "name": "Puerto Leguízamo",
    "lat": -0.19337,
    "lon": -74.78189
  },
  {
    "id": 3666936,
    "name": "Tolú Viejo",
    "lat": 9.45082,
    "lon": -75.43864
  },
  {
    "id": 3669461,
    "name": "San Juan de Urabá",
    "lat": 8.75924,
    "lon": -76.52969
  },
  {
    "id": 3686793,
    "name": "Chaparral",
    "lat": 3.72315,
    "lon": -75.48316
  },
  {
    "id": 3688266,
    "name": "Buesaco",
    "lat": 1.38364,
    "lon": -77.15622
  },
  {
    "id": 3675605,
    "name": "Málaga",
    "lat": 6.69903,
    "lon": -72.73233
  },
  {
    "id": 3682238,
    "name": "Galapa",
    "lat": 10.89686,
    "lon": -74.886
  },
  {
    "id": 3667773,
    "name": "Suárez",
    "lat": 2.95395,
    "lon": -76.69644
  },
  {
    "id": 3681797,
    "name": "Guacarí",
    "lat": 3.76383,
    "lon": -76.33292
  },
  {
    "id": 3671950,
    "name": "Polonuevo",
    "lat": 10.77697,
    "lon": -74.85344
  },
  {
    "id": 3666232,
    "name": "Vélez",
    "lat": 6.01335,
    "lon": -73.67352
  },
  {
    "id": 3683233,
    "name": "El Retén",
    "lat": 10.61135,
    "lon": -74.26824
  },
  {
    "id": 3673404,
    "name": "Padua",
    "lat": 5.13429,
    "lon": -75.14001
  },
  {
    "id": 3678097,
    "name": "La Plata",
    "lat": 2.39341,
    "lon": -75.89232
  },
  {
    "id": 3675512,
    "name": "Manatí",
    "lat": 10.44589,
    "lon": -74.95869
  },
  {
    "id": 3670764,
    "name": "Rioblanco",
    "lat": 3.52973,
    "lon": -75.64525
  },
  {
    "id": 3670719,
    "name": "Riosucio",
    "lat": 5.42164,
    "lon": -75.70318
  },
  {
    "id": 3689292,
    "name": "Balboa",
    "lat": 2.04183,
    "lon": -77.21646
  },
  {
    "id": 3666395,
    "name": "Urrao",
    "lat": 6.31696,
    "lon": -76.1342
  },
  {
    "id": 3680176,
    "name": "Juan de Acosta",
    "lat": 10.8293,
    "lon": -75.03346
  },
  {
    "id": 3780602,
    "name": "Fredonia",
    "lat": 5.92583,
    "lon": -75.67056
  },
  {
    "id": 3770955,
    "name": "Villa Rica",
    "lat": 2.5142,
    "lon": -76.84939
  },
  {
    "id": 3665934,
    "name": "Villanueva",
    "lat": 10.60768,
    "lon": -72.97901
  },
  {
    "id": 3674412,
    "name": "Morales",
    "lat": 8.27621,
    "lon": -73.86803
  },
  {
    "id": 3672086,
    "name": "Pizarro",
    "lat": 4.95334,
    "lon": -77.36598
  },
  {
    "id": 3669947,
    "name": "San Diego",
    "lat": 10.33384,
    "lon": -73.18048
  },
  {
    "id": 3689458,
    "name": "Astrea",
    "lat": 9.49828,
    "lon": -73.97591
  },
  {
    "id": 3668472,
    "name": "Santa Rosa",
    "lat": 10.44472,
    "lon": -75.36972
  },
  {
    "id": 3686445,
    "name": "Chivolo",
    "lat": 10.02502,
    "lon": -74.62279
  },
  {
    "id": 3670038,
    "name": "San Benito Abad",
    "lat": 8.92901,
    "lon": -75.02709
  },
  {
    "id": 3689905,
    "name": "Andalucía",
    "lat": 4.17061,
    "lon": -76.16641
  },
  {
    "id": 3670370,
    "name": "Salamina",
    "lat": 5.40733,
    "lon": -75.48749
  },
  {
    "id": 3668302,
    "name": "San Vicente",
    "lat": 6.28535,
    "lon": -75.33385
  },
  {
    "id": 3792380,
    "name": "Tiquisio",
    "lat": 8.55666,
    "lon": -74.26355
  },
  {
    "id": 3684276,
    "name": "El Doncello",
    "lat": 1.67817,
    "lon": -75.28466
  },
  {
    "id": 3668323,
    "name": "Santuario",
    "lat": 6.13833,
    "lon": -75.26417
  },
  {
    "id": 3682330,
    "name": "Fresno",
    "lat": 5.15264,
    "lon": -75.03624
  },
  {
    "id": 3684689,
    "name": "El Carmen de Chucurí",
    "lat": 6.69736,
    "lon": -73.51117
  },
  {
    "id": 3686272,
    "name": "Ciénaga de Oro",
    "lat": 8.87443,
    "lon": -75.62028
  },
  {
    "id": 3670855,
    "name": "Restrepo",
    "lat": 4.25833,
    "lon": -73.56142
  },
  {
    "id": 3690592,
    "name": "Abejorral",
    "lat": 5.78928,
    "lon": -75.42725
  },
  {
    "id": 3665691,
    "name": "Yondó",
    "lat": 7.00621,
    "lon": -73.90972
  },
  {
    "id": 3673756,
    "name": "Nueva Granada",
    "lat": 9.80168,
    "lon": -74.39304
  },
  {
    "id": 3671308,
    "name": "Puerto Triunfo",
    "lat": 5.87259,
    "lon": -74.6405
  },
  {
    "id": 3676626,
    "name": "Lérida",
    "lat": 4.86242,
    "lon": -74.90977
  },
  {
    "id": 3667579,
    "name": "Tadó",
    "lat": 5.26598,
    "lon": -76.56487
  },
  {
    "id": 3673379,
    "name": "Pailitas",
    "lat": 8.95671,
    "lon": -73.62378
  },
  {
    "id": 3673424,
    "name": "Pacho",
    "lat": 5.13278,
    "lon": -74.15977
  },
  {
    "id": 3671418,
    "name": "Puerto López",
    "lat": 4.09912,
    "lon": -72.95647
  },
  {
    "id": 3669440,
    "name": "San Lorenzo",
    "lat": 1.50294,
    "lon": -77.21537
  },
  {
    "id": 3675409,
    "name": "Manzanares",
    "lat": 5.25397,
    "lon": -75.15403
  },
  {
    "id": 3669929,
    "name": "San Estanislao",
    "lat": 10.39833,
    "lon": -75.15111
  },
  {
    "id": 3671228,
    "name": "Pupiales",
    "lat": 0.87136,
    "lon": -77.64027
  },
  {
    "id": 3689899,
    "name": "Andes",
    "lat": 5.6561,
    "lon": -75.87877
  },
  {
    "id": 3671325,
    "name": "Puerto Santander",
    "lat": 8.36361,
    "lon": -72.4063
  },
  {
    "id": 3674603,
    "name": "Momil",
    "lat": 9.23767,
    "lon": -75.67489
  },
  {
    "id": 3685724,
    "name": "Cotorra",
    "lat": 9.03886,
    "lon": -75.78969
  },
  {
    "id": 3667386,
    "name": "Tarqui",
    "lat": 2.11248,
    "lon": -75.82419
  },
  {
    "id": 3686013,
    "name": "Concordia",
    "lat": 6.04639,
    "lon": -75.90705
  },
  {
    "id": 3681733,
    "name": "Guadalupe",
    "lat": 2.0248,
    "lon": -75.75589
  },
  {
    "id": 3670350,
    "name": "Salgar",
    "lat": 5.96502,
    "lon": -75.96541
  },
  {
    "id": 3685273,
    "name": "Darien",
    "lat": 3.93135,
    "lon": -76.48481
  },
  {
    "id": 3668655,
    "name": "Santa Lucía",
    "lat": 10.3242,
    "lon": -74.96017
  },
  {
    "id": 3690316,
    "name": "Aguazul",
    "lat": 5.17282,
    "lon": -72.54706
  },
  {
    "id": 3687634,
    "name": "Candelaria",
    "lat": 10.45912,
    "lon": -74.8797
  },
  {
    "id": 3675212,
    "name": "Marsella",
    "lat": 4.93722,
    "lon": -75.73778
  },
  {
    "id": 3666997,
    "name": "Tocancipá",
    "lat": 4.96531,
    "lon": -73.91301
  },
  {
    "id": 3668012,
    "name": "Simití",
    "lat": 7.9579,
    "lon": -73.9436
  },
  {
    "id": 3688840,
    "name": "Betulia",
    "lat": 6.11284,
    "lon": -75.98378
  },
  {
    "id": 3676934,
    "name": "La Unión",
    "lat": 1.6045,
    "lon": -77.13152
  },
  {
    "id": 3671330,
    "name": "Puerto Salgar",
    "lat": 5.46304,
    "lon": -74.65436
  },
  {
    "id": 3678907,
    "name": "La Gloria",
    "lat": 8.61954,
    "lon": -73.80212
  },
  {
    "id": 3779399,
    "name": "Canalete",
    "lat": 8.67611,
    "lon": -76.20417
  },
  {
    "id": 3769932,
    "name": "Monterrey",
    "lat": 4.87802,
    "lon": -72.89575
  },
  {
    "id": 3674851,
    "name": "Mercaderes",
    "lat": 1.80175,
    "lon": -77.17032
  },
  {
    "id": 3686158,
    "name": "Cocorná",
    "lat": 6.0573,
    "lon": -75.18524
  },
  {
    "id": 3671203,
    "name": "Purísima de la Concepción",
    "lat": 9.23657,
    "lon": -75.72191
  },
  {
    "id": 3686644,
    "name": "Chicoral",
    "lat": 4.21536,
    "lon": -74.98189
  },
  {
    "id": 3669998,
    "name": "San Carlos",
    "lat": 7.79177,
    "lon": -74.77316
  },
  {
    "id": 3671633,
    "name": "Pueblo Rico",
    "lat": 5.22263,
    "lon": -76.03026
  },
  {
    "id": 3670756,
    "name": "Río de Oro",
    "lat": 8.29223,
    "lon": -73.3849
  },
  {
    "id": 3675987,
    "name": "Los Palmitos",
    "lat": 9.37899,
    "lon": -75.26769
  },
  {
    "id": 3681429,
    "name": "Guarne",
    "lat": 6.28046,
    "lon": -75.44354
  },
  {
    "id": 3685126,
    "name": "Donmatías",
    "lat": 6.48569,
    "lon": -75.39496
  },
  {
    "id": 3668861,
    "name": "Santa Catalina",
    "lat": 10.60361,
    "lon": -75.28824
  },
  {
    "id": 3668937,
    "name": "Santa Ana",
    "lat": 9.32125,
    "lon": -74.56848
  },
  {
    "id": 3681605,
    "name": "Guamal",
    "lat": 3.88043,
    "lon": -73.76566
  },
  {
    "id": 3681505,
    "name": "Guapí",
    "lat": 2.57082,
    "lon": -77.88542
  },
  {
    "id": 3686196,
    "name": "Clemencia",
    "lat": 10.56645,
    "lon": -75.32499
  },
  {
    "id": 3680453,
    "name": "Istmina",
    "lat": 5.16054,
    "lon": -76.68397
  },
  {
    "id": 3666881,
    "name": "Toro",
    "lat": 4.61167,
    "lon": -76.08139
  },
  {
    "id": 3667003,
    "name": "Tocaima",
    "lat": 4.4582,
    "lon": -74.63434
  },
  {
    "id": 3687677,
    "name": "Cañasgordas",
    "lat": 6.74989,
    "lon": -76.02539
  },
  {
    "id": 3667202,
    "name": "Tibú",
    "lat": 8.63895,
    "lon": -72.73583
  },
  {
    "id": 3673269,
    "name": "Palestina",
    "lat": 5.0161,
    "lon": -75.62854
  },
  {
    "id": 3673369,
    "name": "Paipa",
    "lat": 5.78013,
    "lon": -73.11708
  },
  {
    "id": 3686605,
    "name": "Chimá",
    "lat": 9.14893,
    "lon": -75.62841
  },
  {
    "id": 3689450,
    "name": "Ataco",
    "lat": 3.59147,
    "lon": -75.38178
  },
  {
    "id": 3674499,
    "name": "Montecristo",
    "lat": 8.2971,
    "lon": -74.4733
  },
  {
    "id": 3675452,
    "name": "Maní",
    "lat": 4.81638,
    "lon": -72.27946
  },
  {
    "id": 3673455,
    "name": "Ovejas",
    "lat": 9.52716,
    "lon": -75.22873
  },
  {
    "id": 3678186,
    "name": "La Paz",
    "lat": 10.38439,
    "lon": -73.17332
  },
  {
    "id": 3673413,
    "name": "Pácora",
    "lat": 5.52708,
    "lon": -75.4593
  },
  {
    "id": 3669718,
    "name": "San Jerónimo",
    "lat": 6.44344,
    "lon": -75.72815
  },
  {
    "id": 3792399,
    "name": "El Playón",
    "lat": 7.47131,
    "lon": -73.2031
  },
  {
    "id": 3665935,
    "name": "Villanueva",
    "lat": 10.44361,
    "lon": -75.27306
  },
  {
    "id": 3668895,
    "name": "Santa Bárbara",
    "lat": 5.87458,
    "lon": -75.56706
  },
  {
    "id": 3674130,
    "name": "Mutatá",
    "lat": 7.24407,
    "lon": -76.43564
  },
  {
    "id": 3665881,
    "name": "Viotá",
    "lat": 4.43713,
    "lon": -74.52157
  },
  {
    "id": 3671591,
    "name": "Puente Nacional",
    "lat": 5.87739,
    "lon": -73.6781
  },
  {
    "id": 3669056,
    "name": "San Rafael",
    "lat": 6.29436,
    "lon": -75.02589
  },
  {
    "id": 3682965,
    "name": "El Tambo",
    "lat": 1.40785,
    "lon": -77.39218
  },
  {
    "id": 3682182,
    "name": "Gamarra",
    "lat": 8.32292,
    "lon": -73.74233
  },
  {
    "id": 3665851,
    "name": "Viterbo",
    "lat": 5.06242,
    "lon": -75.87159
  },
  {
    "id": 3688254,
    "name": "Bugalagrande",
    "lat": 4.21207,
    "lon": -76.15564
  },
  {
    "id": 3668373,
    "name": "Santo Domingo",
    "lat": 6.47282,
    "lon": -75.16547
  },
  {
    "id": 3689831,
    "name": "Ansermanuevo",
    "lat": 4.79722,
    "lon": -75.995
  },
  {
    "id": 3685292,
    "name": "Dagua",
    "lat": 3.65685,
    "lon": -76.68859
  },
  {
    "id": 3672123,
    "name": "Pital",
    "lat": 2.2665,
    "lon": -75.80442
  },
  {
    "id": 3689841,
    "name": "Anolaima",
    "lat": 4.76333,
    "lon": -74.46472
  },
  {
    "id": 3666475,
    "name": "Unguía",
    "lat": 8.04364,
    "lon": -77.09137
  },
  {
    "id": 3690019,
    "name": "Amagá",
    "lat": 6.04001,
    "lon": -75.70315
  },
  {
    "id": 3675234,
    "name": "Marquetalia",
    "lat": 5.29659,
    "lon": -75.05496
  },
  {
    "id": 3684860,
    "name": "El Bordo",
    "lat": 2.11696,
    "lon": -76.98214
  },
  {
    "id": 3684683,
    "name": "El Carmen",
    "lat": 8.51116,
    "lon": -73.44761
  },
  {
    "id": 3685200,
    "name": "Distracción",
    "lat": 10.89784,
    "lon": -72.88666
  },
  {
    "id": 3668324,
    "name": "Santuario",
    "lat": 5.07415,
    "lon": -75.96423
  },
  {
    "id": 3666719,
    "name": "Trinidad",
    "lat": 5.40849,
    "lon": -71.66196
  },
  {
    "id": 9179918,
    "name": "Armero-Guyabal",
    "lat": 4.96701,
    "lon": -74.90294
  },
  {
    "id": 3685345,
    "name": "Curití",
    "lat": 6.60519,
    "lon": -73.06809
  },
  {
    "id": 3669987,
    "name": "San Carlos de Guaroa",
    "lat": 3.71161,
    "lon": -73.24344
  },
  {
    "id": 3666333,
    "name": "Valdivia",
    "lat": 7.29382,
    "lon": -75.3919
  },
  {
    "id": 3669128,
    "name": "San Pedro",
    "lat": 9.3956,
    "lon": -75.06476
  },
  {
    "id": 3681008,
    "name": "Municipio Hato Corozal",
    "lat": 6.15676,
    "lon": -71.76372
  },
  {
    "id": 3792387,
    "name": "El Retorno",
    "lat": 2.33022,
    "lon": -72.62765
  },
  {
    "id": 3668447,
    "name": "Santa Rosa de Viterbo",
    "lat": 5.87401,
    "lon": -72.98217
  },
  {
    "id": 3666226,
    "name": "Venadillo",
    "lat": 4.71929,
    "lon": -74.92918
  },
  {
    "id": 3672599,
    "name": "Pelaya",
    "lat": 8.68819,
    "lon": -73.66451
  },
  {
    "id": 3668292,
    "name": "San Vicente de Chucurí",
    "lat": 6.881,
    "lon": -73.40977
  },
  {
    "id": 3685442,
    "name": "Cumaral",
    "lat": 4.2708,
    "lon": -73.48669
  },
  {
    "id": 3682262,
    "name": "Gachancipá",
    "lat": 4.99111,
    "lon": -73.87154
  },
  {
    "id": 3680112,
    "name": "Junín",
    "lat": 4.78333,
    "lon": -75.01667
  },
  {
    "id": 3675637,
    "name": "Majagual",
    "lat": 8.54119,
    "lon": -74.62942
  },
  {
    "id": 3673578,
    "name": "Oporapa",
    "lat": 2.02378,
    "lon": -75.99588
  },
  {
    "id": 3682160,
    "name": "Garagoa",
    "lat": 5.08236,
    "lon": -73.36334
  },
  {
    "id": 3672249,
    "name": "Pijiño del Carmen",
    "lat": 9.32908,
    "lon": -74.45302
  },
  {
    "id": 3676791,
    "name": "La Victoria",
    "lat": 4.52483,
    "lon": -76.03921
  },
  {
    "id": 3682245,
    "name": "Gaitania",
    "lat": 3.15,
    "lon": -75.81667
  },
  {
    "id": 3673676,
    "name": "Obando",
    "lat": 4.57583,
    "lon": -75.97389
  },
  {
    "id": 3667901,
    "name": "Soatá",
    "lat": 6.33369,
    "lon": -72.68283
  },
  {
    "id": 3665813,
    "name": "Yacopí",
    "lat": 5.45948,
    "lon": -74.33823
  },
  {
    "id": 3673974,
    "name": "Necoclí",
    "lat": 8.42627,
    "lon": -76.78926
  },
  {
    "id": 3690584,
    "name": "Abrego",
    "lat": 8.08202,
    "lon": -73.22135
  },
  {
    "id": 3680641,
    "name": "Icononzo",
    "lat": 4.17698,
    "lon": -74.53254
  },
  {
    "id": 3690160,
    "name": "Algeciras",
    "lat": 2.52385,
    "lon": -75.31733
  },
  {
    "id": 3670812,
    "name": "Ricaurte",
    "lat": 4.28075,
    "lon": -74.76469
  },
  {
    "id": 3690429,
    "name": "Agua de Dios",
    "lat": 4.37648,
    "lon": -74.66995
  },
  {
    "id": 3666326,
    "name": "Valencia",
    "lat": 8.25801,
    "lon": -76.14928
  },
  {
    "id": 3670242,
    "name": "San Alberto",
    "lat": 7.76107,
    "lon": -73.3922
  },
  {
    "id": 3665811,
    "name": "Yacuanquer",
    "lat": 1.11577,
    "lon": -77.40169
  },
  {
    "id": 3732964,
    "name": "Lejanías",
    "lat": 3.52762,
    "lon": -74.02335
  },
  {
    "id": 3673849,
    "name": "Nilo",
    "lat": 4.30604,
    "lon": -74.62083
  },
  {
    "id": 3673275,
    "name": "Palestina",
    "lat": 1.72362,
    "lon": -76.13403
  },
  {
    "id": 3669938,
    "name": "Sandoná",
    "lat": 1.28626,
    "lon": -77.46921
  },
  {
    "id": 3667780,
    "name": "Suan",
    "lat": 10.33347,
    "lon": -74.88016
  },
  {
    "id": 3685058,
    "name": "Ebéjico",
    "lat": 6.32598,
    "lon": -75.76835
  },
  {
    "id": 3667868,
    "name": "Solano",
    "lat": 0.69937,
    "lon": -75.25353
  },
  {
    "id": 3687505,
    "name": "Caparrapí",
    "lat": 5.34644,
    "lon": -74.49147
  },
  {
    "id": 3666193,
    "name": "Venecia",
    "lat": 5.96278,
    "lon": -75.73806
  },
  {
    "id": 3667323,
    "name": "Tello",
    "lat": 3.06694,
    "lon": -75.13778
  },
  {
    "id": 3666575,
    "name": "Turbaná",
    "lat": 10.27169,
    "lon": -75.44222
  },
  {
    "id": 3674293,
    "name": "Mosquera",
    "lat": 2.50861,
    "lon": -78.4511
  },
  {
    "id": 3671848,
    "name": "Potosí",
    "lat": 0.80739,
    "lon": -77.57216
  },
  {
    "id": 3679660,
    "name": "La Calera",
    "lat": 4.72069,
    "lon": -73.96926
  },
  {
    "id": 3674640,
    "name": "Mogotes",
    "lat": 6.47559,
    "lon": -72.97046
  },
  {
    "id": 3670383,
    "name": "Saladoblanco",
    "lat": 1.99244,
    "lon": -76.04335
  },
  {
    "id": 3690172,
    "name": "Algarrobo",
    "lat": 10.18694,
    "lon": -74.57528
  },
  {
    "id": 3827723,
    "name": "Valle del Guamuez",
    "lat": 0.4525,
    "lon": -76.91917
  },
  {
    "id": 3689714,
    "name": "Arauquita",
    "lat": 7.02917,
    "lon": -71.42806
  },
  {
    "id": 3677457,
    "name": "La Sierra",
    "lat": 2.17835,
    "lon": -76.76265
  },
  {
    "id": 3686002,
    "name": "Condoto",
    "lat": 5.09351,
    "lon": -76.64973
  },
  {
    "id": 3673286,
    "name": "Palermo",
    "lat": 2.89167,
    "lon": -75.4375
  },
  {
    "id": 3686141,
    "name": "Coello",
    "lat": 4.40306,
    "lon": -75.29417
  },
  {
    "id": 3689740,
    "name": "Aranzazu",
    "lat": 5.27123,
    "lon": -75.49044
  },
  {
    "id": 3673609,
    "name": "Olaya Herrera",
    "lat": 1.24803,
    "lon": -77.49085
  },
  {
    "id": 3668228,
    "name": "Sasaima",
    "lat": 4.96705,
    "lon": -74.43512
  },
  {
    "id": 3763578,
    "name": "Mesetas",
    "lat": 3.38463,
    "lon": -74.04424
  },
  {
    "id": 3681168,
    "name": "Hacarí",
    "lat": 8.32097,
    "lon": -73.14576
  },
  {
    "id": 3690010,
    "name": "Amalfi",
    "lat": 6.91016,
    "lon": -75.07764
  },
  {
    "id": 3675305,
    "name": "Margarita",
    "lat": 9.15596,
    "lon": -74.26618
  },
  {
    "id": 3675504,
    "name": "Manaure",
    "lat": 11.77505,
    "lon": -72.44447
  },
  {
    "id": 3689012,
    "name": "Belalcázar",
    "lat": 4.99528,
    "lon": -75.81278
  },
  {
    "id": 3678000,
    "name": "La Primavera",
    "lat": 5.49056,
    "lon": -70.40917
  },
  {
    "id": 3686574,
    "name": "Chinácota",
    "lat": 7.60731,
    "lon": -72.60108
  },
  {
    "id": 3682481,
    "name": "Filadelfia",
    "lat": 5.29606,
    "lon": -75.5612
  },
  {
    "id": 3792377,
    "name": "Vegachí",
    "lat": 6.76141,
    "lon": -74.79473
  },
  {
    "id": 3688656,
    "name": "Bolívar",
    "lat": 5.9893,
    "lon": -73.77058
  },
  {
    "id": 3665616,
    "name": "Zambrano",
    "lat": 9.7474,
    "lon": -74.81572
  },
  {
    "id": 3670856,
    "name": "Restrepo",
    "lat": 3.82203,
    "lon": -76.52242
  },
  {
    "id": 3685418,
    "name": "Cunday",
    "lat": 4.06004,
    "lon": -74.69212
  },
  {
    "id": 3666370,
    "name": "Usiacurí",
    "lat": 10.74313,
    "lon": -74.97604
  },
  {
    "id": 3733861,
    "name": "Curillo",
    "lat": 1.03327,
    "lon": -75.91907
  },
  {
    "id": 3670260,
    "name": "San Agustín",
    "lat": 1.87884,
    "lon": -76.26722
  },
  {
    "id": 3668078,
    "name": "Sibundoy",
    "lat": 1.20296,
    "lon": -76.92275
  },
  {
    "id": 3689325,
    "name": "Bahía Solano",
    "lat": 6.22622,
    "lon": -77.40439
  },
  {
    "id": 3670595,
    "name": "Rosas",
    "lat": 2.26093,
    "lon": -76.73986
  },
  {
    "id": 3792384,
    "name": "Manaure Balcón del Cesar",
    "lat": 10.39278,
    "lon": -73.0325
  },
  {
    "id": 3688021,
    "name": "Cajamarca",
    "lat": 4.44234,
    "lon": -75.42874
  },
  {
    "id": 3678328,
    "name": "Landázuri",
    "lat": 6.21826,
    "lon": -73.81121
  },
  {
    "id": 3670357,
    "name": "Saldaña",
    "lat": 3.92923,
    "lon": -75.01517
  },
  {
    "id": 3670754,
    "name": "Riofrío",
    "lat": 4.1571,
    "lon": -76.28852
  },
  {
    "id": 3682510,
    "name": "Falan",
    "lat": 5.12383,
    "lon": -74.95181
  },
  {
    "id": 3681952,
    "name": "Granada",
    "lat": 6.14353,
    "lon": -75.18532
  },
  {
    "id": 3687972,
    "name": "Calamar",
    "lat": 10.25271,
    "lon": -74.91574
  },
  {
    "id": 3690237,
    "name": "Alcalá",
    "lat": 4.67472,
    "lon": -75.7825
  },
  {
    "id": 3673126,
    "name": "Palocabildo",
    "lat": 5.11705,
    "lon": -75.01732
  },
  {
    "id": 3669480,
    "name": "San Juan de Betulia",
    "lat": 9.27345,
    "lon": -75.24103
  },
  {
    "id": 3671655,
    "name": "Pueblo Nuevo",
    "lat": 8.2411,
    "lon": -74.95815
  },
  {
    "id": 3680531,
    "name": "Íquira",
    "lat": 2.64867,
    "lon": -75.63457
  },
  {
    "id": 3676540,
    "name": "Linares",
    "lat": 1.35078,
    "lon": -77.52339
  },
  {
    "id": 3670018,
    "name": "San Bernardo del Viento",
    "lat": 9.3533,
    "lon": -75.95244
  },
  {
    "id": 3676674,
    "name": "Lebrija",
    "lat": 7.11317,
    "lon": -73.2178
  },
  {
    "id": 3792379,
    "name": "Santa Rosa del Sur",
    "lat": 7.96444,
    "lon": -74.05444
  },
  {
    "id": 3682633,
    "name": "Entrerríos",
    "lat": 6.5654,
    "lon": -75.5169
  },
  {
    "id": 3669138,
    "name": "San Pedro",
    "lat": 6.46135,
    "lon": -75.55778
  },
  {
    "id": 3690030,
    "name": "Alvarado",
    "lat": 4.56826,
    "lon": -74.9523
  },
  {
    "id": 3679379,
    "name": "La Cruz",
    "lat": 1.60221,
    "lon": -76.9713
  },
  {
    "id": 3667791,
    "name": "Sotomayor",
    "lat": 1.49474,
    "lon": -77.52136
  },
  {
    "id": 3666381,
    "name": "Urumita",
    "lat": 10.56095,
    "lon": -73.0134
  },
  {
    "id": 3670107,
    "name": "San Antonio",
    "lat": 9.93303,
    "lon": -74.69346
  },
  {
    "id": 3690549,
    "name": "Achí",
    "lat": 8.5695,
    "lon": -74.55715
  },
  {
    "id": 3667807,
    "name": "Sopó",
    "lat": 4.9075,
    "lon": -73.9384
  },
  {
    "id": 3689693,
    "name": "Arboletes",
    "lat": 8.85051,
    "lon": -76.42694
  },
  {
    "id": 3665678,
    "name": "Yotoco",
    "lat": 3.86048,
    "lon": -76.38364
  },
  {
    "id": 3667023,
    "name": "Titiribí",
    "lat": 6.06276,
    "lon": -75.7937
  },
  {
    "id": 3670884,
    "name": "Remolino",
    "lat": 10.70199,
    "lon": -74.71602
  },
  {
    "id": 3674735,
    "name": "Miraflores",
    "lat": 5.19608,
    "lon": -73.14504
  },
  {
    "id": 3681997,
    "name": "Gómez Plata",
    "lat": 6.68178,
    "lon": -75.21907
  },
  {
    "id": 3686227,
    "name": "Cisneros",
    "lat": 6.53833,
    "lon": -75.08861
  },
  {
    "id": 3667082,
    "name": "Timaná",
    "lat": 1.97136,
    "lon": -75.93123
  },
  {
    "id": 3676661,
    "name": "Leiva",
    "lat": 1.93497,
    "lon": -77.30634
  },
  {
    "id": 3666673,
    "name": "Tubará",
    "lat": 10.87562,
    "lon": -74.97873
  },
  {
    "id": 3672521,
    "name": "Pensilvania",
    "lat": 5.38346,
    "lon": -75.16122
  },
  {
    "id": 3671961,
    "name": "Policarpa",
    "lat": 1.62843,
    "lon": -77.45956
  },
  {
    "id": 3670709,
    "name": "Río Viejo",
    "lat": 8.58863,
    "lon": -73.83972
  },
  {
    "id": 3792395,
    "name": "Puerto Concordia",
    "lat": 2.62206,
    "lon": -72.75724
  },
  {
    "id": 3667811,
    "name": "Soplaviento",
    "lat": 10.39306,
    "lon": -75.14083
  },
  {
    "id": 3674121,
    "name": "Muzo",
    "lat": 5.53528,
    "lon": -74.10778
  },
  {
    "id": 3690287,
    "name": "Aipe",
    "lat": 3.22222,
    "lon": -75.23667
  },
  {
    "id": 3687476,
    "name": "Cáqueza",
    "lat": 4.40569,
    "lon": -73.94683
  },
  {
    "id": 3684266,
    "name": "El Dovio",
    "lat": 4.5079,
    "lon": -76.23619
  },
  {
    "id": 3676591,
    "name": "Liborina",
    "lat": 6.6779,
    "lon": -75.81218
  },
  {
    "id": 3680880,
    "name": "Herveo",
    "lat": 5.08004,
    "lon": -75.17556
  },
  {
    "id": 3668245,
    "name": "Sardinata",
    "lat": 8.08289,
    "lon": -72.80071
  },
  {
    "id": 3680317,
    "name": "Jericó",
    "lat": 5.79211,
    "lon": -75.78601
  },
  {
    "id": 3680366,
    "name": "Jardín",
    "lat": 5.59902,
    "lon": -75.81976
  },
  {
    "id": 3670000,
    "name": "San Carlos",
    "lat": 6.18789,
    "lon": -74.99315
  },
  {
    "id": 3686288,
    "name": "Cicuco",
    "lat": 9.27756,
    "lon": -74.64312
  },
  {
    "id": 3689228,
    "name": "Barbacoas",
    "lat": 1.67154,
    "lon": -78.13978
  },
  {
    "id": 3683528,
    "name": "El Paujíl",
    "lat": 1.57006,
    "lon": -75.32863
  },
  {
    "id": 3671765,
    "name": "Prado",
    "lat": 3.75118,
    "lon": -74.93004
  },
  {
    "id": 3686422,
    "name": "Chocontá",
    "lat": 5.14468,
    "lon": -73.68578
  },
  {
    "id": 3792382,
    "name": "Cartagena del Chairá",
    "lat": 1.33488,
    "lon": -74.84289
  },
  {
    "id": 3685432,
    "name": "Cumbal",
    "lat": 0.90875,
    "lon": -77.79145
  },
  {
    "id": 3666409,
    "name": "Uribia",
    "lat": 11.71505,
    "lon": -72.26592
  },
  {
    "id": 3674784,
    "name": "Milán",
    "lat": 1.29034,
    "lon": -75.50757
  },
  {
    "id": 3683463,
    "name": "El Piñón",
    "lat": 10.40283,
    "lon": -74.82415
  },
  {
    "id": 3668025,
    "name": "Silvia",
    "lat": 2.61557,
    "lon": -76.38261
  },
  {
    "id": 3672087,
    "name": "Salahonda",
    "lat": 2.0406,
    "lon": -78.65877
  },
  {
    "id": 3685027,
    "name": "El Águila",
    "lat": 4.91345,
    "lon": -76.04004
  },
  {
    "id": 3671450,
    "name": "Inírida",
    "lat": 3.86528,
    "lon": -67.92389
  },
  {
    "id": 3674931,
    "name": "Medina",
    "lat": 4.51005,
    "lon": -73.34982
  },
  {
    "id": 3683497,
    "name": "El Peñón",
    "lat": 8.98885,
    "lon": -73.94898
  },
  {
    "id": 3669293,
    "name": "La Dorada",
    "lat": 0.34314,
    "lon": -76.91124
  },
  {
    "id": 3670718,
    "name": "Riosucio",
    "lat": 7.44348,
    "lon": -77.11964
  },
  {
    "id": 3672512,
    "name": "Peque",
    "lat": 7.02123,
    "lon": -75.90926
  },
  {
    "id": 3682068,
    "name": "Génova",
    "lat": 4.31667,
    "lon": -75.76667
  },
  {
    "id": 3679536,
    "name": "La Chamba",
    "lat": 4.02649,
    "lon": -74.86844
  },
  {
    "id": 3681356,
    "name": "Guateque",
    "lat": 5.00619,
    "lon": -73.47274
  },
  {
    "id": 3686894,
    "name": "Cerro de San Antonio",
    "lat": 10.32585,
    "lon": -74.86933
  },
  {
    "id": 3686120,
    "name": "Colombia",
    "lat": 3.37606,
    "lon": -74.8015
  },
  {
    "id": 3665992,
    "name": "Villagarzón",
    "lat": 1.0375,
    "lon": -76.62667
  },
  {
    "id": 3673475,
    "name": "Otanche",
    "lat": 5.65672,
    "lon": -74.18249
  },
  {
    "id": 3689793,
    "name": "Apía",
    "lat": 5.10658,
    "lon": -75.94244
  },
  {
    "id": 3687541,
    "name": "Cantagallo",
    "lat": 7.37926,
    "lon": -73.9155
  },
  {
    "id": 3673511,
    "name": "Ortega",
    "lat": 3.9361,
    "lon": -75.22169
  },
  {
    "id": 3682473,
    "name": "Filandia",
    "lat": 4.67472,
    "lon": -75.65833
  },
  {
    "id": 3668400,
    "name": "Santiago",
    "lat": 1.14844,
    "lon": -77.0045
  },
  {
    "id": 3689979,
    "name": "Ambalema",
    "lat": 4.78405,
    "lon": -74.76268
  },
  {
    "id": 3687213,
    "name": "Casabianca",
    "lat": 5.07959,
    "lon": -75.12059
  },
  {
    "id": 3686011,
    "name": "Concordia",
    "lat": 9.83545,
    "lon": -74.45548
  },
  {
    "id": 3685893,
    "name": "Córdoba",
    "lat": 9.58612,
    "lon": -74.82705
  },
  {
    "id": 3669214,
    "name": "San Pablo",
    "lat": 1.6725,
    "lon": -77.01389
  },
  {
    "id": 3668286,
    "name": "San Zenón",
    "lat": 9.24217,
    "lon": -74.50037
  },
  {
    "id": 3683149,
    "name": "El Rosario",
    "lat": 1.74404,
    "lon": -77.33481
  },
  {
    "id": 3687880,
    "name": "Caloto",
    "lat": 3.03586,
    "lon": -76.40788
  },
  {
    "id": 3670899,
    "name": "Remedios",
    "lat": 7.02835,
    "lon": -74.69379
  },
  {
    "id": 3667473,
    "name": "Támesis",
    "lat": 5.66462,
    "lon": -75.71339
  },
  {
    "id": 3828283,
    "name": "Santa Isabel",
    "lat": 3.34944,
    "lon": -74.98056
  },
  {
    "id": 3683538,
    "name": "El Paso",
    "lat": 9.65724,
    "lon": -73.74685
  },
  {
    "id": 3682963,
    "name": "El Tambo",
    "lat": 2.45199,
    "lon": -76.81029
  },
  {
    "id": 3672698,
    "name": "Pauna",
    "lat": 5.65861,
    "lon": -73.9825
  },
  {
    "id": 3670629,
    "name": "Roncesvalles",
    "lat": 4.0108,
    "lon": -75.60493
  },
  {
    "id": 3681644,
    "name": "Guaitarilla",
    "lat": 1.13103,
    "lon": -77.54815
  },
  {
    "id": 3674678,
    "name": "Mistrató",
    "lat": 5.29622,
    "lon": -75.8839
  },
  {
    "id": 3667547,
    "name": "Talaigua Viejo",
    "lat": 9.31206,
    "lon": -74.58544
  },
  {
    "id": 3670368,
    "name": "Salamina",
    "lat": 10.49027,
    "lon": -74.79463
  },
  {
    "id": 3682039,
    "name": "Ginebra",
    "lat": 3.72461,
    "lon": -76.26675
  },
  {
    "id": 3690226,
    "name": "Aldana",
    "lat": 0.88283,
    "lon": -77.70103
  },
  {
    "id": 3666291,
    "name": "Valparaíso",
    "lat": 1.19403,
    "lon": -75.70746
  },
  {
    "id": 3665587,
    "name": "Zapatoca",
    "lat": 6.81532,
    "lon": -73.26768
  },
  {
    "id": 3792394,
    "name": "Mapiripán",
    "lat": 2.89115,
    "lon": -72.13328
  },
  {
    "id": 3665693,
    "name": "Yolombó",
    "lat": 6.59841,
    "lon": -75.0114
  },
  {
    "id": 3673811,
    "name": "Norcasia",
    "lat": 5.57535,
    "lon": -74.88831
  },
  {
    "id": 3689157,
    "name": "Barranco de Loba",
    "lat": 8.94597,
    "lon": -74.10647
  },
  {
    "id": 3769976,
    "name": "Puerto Gaitán",
    "lat": 4.31328,
    "lon": -72.08157
  },
  {
    "id": 3666959,
    "name": "Toledo",
    "lat": 7.30984,
    "lon": -72.48295
  },
  {
    "id": 3666680,
    "name": "Trujillo",
    "lat": 4.21217,
    "lon": -76.31945
  },
  {
    "id": 3665924,
    "name": "Villapinzón",
    "lat": 5.21617,
    "lon": -73.5949
  },
  {
    "id": 3689915,
    "name": "Ancuya",
    "lat": 1.2633,
    "lon": -77.51376
  },
  {
    "id": 3792396,
    "name": "La Tola",
    "lat": 2.39949,
    "lon": -78.18923
  },
  {
    "id": 3669173,
    "name": "San Pablo de Borbur",
    "lat": 5.65138,
    "lon": -74.06991
  },
  {
    "id": 3665803,
    "name": "Yaguará",
    "lat": 2.66355,
    "lon": -75.51753
  },
  {
    "id": 3689771,
    "name": "Aquitania",
    "lat": 5.51858,
    "lon": -72.88387
  },
  {
    "id": 3676864,
    "name": "La Vega",
    "lat": 5.00177,
    "lon": -74.34174
  },
  {
    "id": 3672255,
    "name": "Pijao",
    "lat": 4.3335,
    "lon": -75.70463
  },
  {
    "id": 3672290,
    "name": "Piedras",
    "lat": 4.54261,
    "lon": -74.87823
  },
  {
    "id": 3687324,
    "name": "Carmen de Apicalá",
    "lat": 4.14725,
    "lon": -74.72014
  },
  {
    "id": 3669084,
    "name": "San Pelayo",
    "lat": 8.95833,
    "lon": -75.83627
  },
  {
    "id": 3681990,
    "name": "González",
    "lat": 8.39016,
    "lon": -73.38048
  },
  {
    "id": 3666042,
    "name": "Vigía del Fuerte",
    "lat": 6.58933,
    "lon": -76.89599
  },
  {
    "id": 3669011,
    "name": "San Roque",
    "lat": 6.48511,
    "lon": -75.0196
  },
  {
    "id": 3683155,
    "name": "El Rosal",
    "lat": 4.85314,
    "lon": -74.25996
  },
  {
    "id": 3669156,
    "name": "San Pedro",
    "lat": 3.99445,
    "lon": -76.22885
  },
  {
    "id": 3673887,
    "name": "Nemocón",
    "lat": 5.06767,
    "lon": -73.87769
  },
  {
    "id": 3670700,
    "name": "Risaralda",
    "lat": 5.16647,
    "lon": -75.76595
  },
  {
    "id": 3689003,
    "name": "Belén",
    "lat": 5.98892,
    "lon": -72.91254
  },
  {
    "id": 3682380,
    "name": "Fómeque",
    "lat": 4.48797,
    "lon": -73.89749
  },
  {
    "id": 3681368,
    "name": "Guatapé",
    "lat": 6.23429,
    "lon": -75.16335
  },
  {
    "id": 3674569,
    "name": "Moñitos",
    "lat": 8.25,
    "lon": -76.05
  },
  {
    "id": 3672012,
    "name": "Playarrica",
    "lat": 4.05694,
    "lon": -75.41028
  },
  {
    "id": 3689653,
    "name": "Arenal",
    "lat": 8.4589,
    "lon": -73.94162
  },
  {
    "id": 3673142,
    "name": "Palmito",
    "lat": 9.33189,
    "lon": -75.5417
  },
  {
    "id": 3678118,
    "name": "La Pintada",
    "lat": 5.74867,
    "lon": -75.60626
  },
  {
    "id": 3689551,
    "name": "Guayabal",
    "lat": 5.03103,
    "lon": -74.88683
  },
  {
    "id": 3670910,
    "name": "Regidor",
    "lat": 8.66633,
    "lon": -73.82221
  },
  {
    "id": 3671630,
    "name": "Pueblorrico",
    "lat": 5.79176,
    "lon": -75.84101
  },
  {
    "id": 3683778,
    "name": "El Molino",
    "lat": 10.65296,
    "lon": -72.92461
  },
  {
    "id": 3689709,
    "name": "Arbeláez",
    "lat": 4.27254,
    "lon": -74.41513
  },
  {
    "id": 3792378,
    "name": "Altos del Rosario",
    "lat": 8.79162,
    "lon": -74.16556
  },
  {
    "id": 3670162,
    "name": "San Antonio",
    "lat": 3.91423,
    "lon": -75.48009
  },
  {
    "id": 3672428,
    "name": "Pesca",
    "lat": 5.55,
    "lon": -73.05
  },
  {
    "id": 3666003,
    "name": "Villa de Leyva",
    "lat": 5.63413,
    "lon": -73.52438
  },
  {
    "id": 3685428,
    "name": "Cumbitara",
    "lat": 1.64786,
    "lon": -77.57819
  },
  {
    "id": 3671424,
    "name": "Puerto Lleras",
    "lat": 3.02225,
    "lon": -73.4044
  },
  {
    "id": 3688397,
    "name": "Buenavista",
    "lat": 9.04963,
    "lon": -76.0028
  },
  {
    "id": 3671002,
    "name": "Ramiriquí",
    "lat": 5.4002,
    "lon": -73.33544
  },
  {
    "id": 3671346,
    "name": "Puerto Yuca",
    "lat": 2.93833,
    "lon": -73.20833
  },
  {
    "id": 3674740,
    "name": "Miraflores",
    "lat": 1.33667,
    "lon": -71.95111
  },
  {
    "id": 3688128,
    "name": "Cáceres",
    "lat": 7.58078,
    "lon": -75.34842
  },
  {
    "id": 3667528,
    "name": "Tamalameque",
    "lat": 8.85221,
    "lon": -73.81229
  },
  {
    "id": 3689941,
    "name": "Anapoima",
    "lat": 4.55099,
    "lon": -74.53517
  },
  {
    "id": 3674337,
    "name": "Morroa",
    "lat": 9.33348,
    "lon": -75.30542
  },
  {
    "id": 3679542,
    "name": "La Celia",
    "lat": 5.00332,
    "lon": -76.00355
  },
  {
    "id": 3686867,
    "name": "Chachagüí",
    "lat": 1.35943,
    "lon": -77.28367
  },
  {
    "id": 3667717,
    "name": "Suesca",
    "lat": 5.10289,
    "lon": -73.79845
  },
  {
    "id": 3680491,
    "name": "Iscuandé",
    "lat": 2.45065,
    "lon": -77.97998
  },
  {
    "id": 3690572,
    "name": "Acandí",
    "lat": 8.51158,
    "lon": -77.27719
  },
  {
    "id": 3679852,
    "name": "La Argentina",
    "lat": 2.19762,
    "lon": -75.9799
  },
  {
    "id": 3685702,
    "name": "Cravo Norte",
    "lat": 6.30173,
    "lon": -70.20415
  },
  {
    "id": 3668017,
    "name": "Simijaca",
    "lat": 5.50291,
    "lon": -73.85227
  },
  {
    "id": 3685649,
    "name": "Cruces de Anorí",
    "lat": 7.18333,
    "lon": -75.06667
  },
  {
    "id": 3686134,
    "name": "Cogua",
    "lat": 5.06051,
    "lon": -73.97925
  },
  {
    "id": 3669956,
    "name": "San Cristóbal",
    "lat": 9.87809,
    "lon": -75.25248
  },
  {
    "id": 3684115,
    "name": "El Guamo",
    "lat": 10.03155,
    "lon": -74.97612
  },
  {
    "id": 3666075,
    "name": "Victoria",
    "lat": 5.31648,
    "lon": -74.91101
  },
  {
    "id": 3682361,
    "name": "Fortul",
    "lat": 6.79261,
    "lon": -71.77596
  },
  {
    "id": 3689336,
    "name": "Bagadó",
    "lat": 5.41164,
    "lon": -76.4152
  },
  {
    "id": 3690520,
    "name": "Agrado",
    "lat": 2.25725,
    "lon": -75.77142
  },
  {
    "id": 3673407,
    "name": "Padilla",
    "lat": 3.22038,
    "lon": -76.31385
  },
  {
    "id": 3690552,
    "name": "Acevedo",
    "lat": 1.80464,
    "lon": -75.89036
  },
  {
    "id": 3680854,
    "name": "Hobo",
    "lat": 2.58333,
    "lon": -75.45
  },
  {
    "id": 3676912,
    "name": "La Unión",
    "lat": 8.84965,
    "lon": -75.27942
  },
  {
    "id": 3689232,
    "name": "Baraya",
    "lat": 3.15333,
    "lon": -75.05306
  },
  {
    "id": 3685223,
    "name": "Dibulla",
    "lat": 11.27251,
    "lon": -73.30911
  },
  {
    "id": 3688673,
    "name": "Bojacá",
    "lat": 4.73176,
    "lon": -74.34129
  },
  {
    "id": 3681353,
    "name": "Guática",
    "lat": 5.31569,
    "lon": -75.79826
  },
  {
    "id": 3669881,
    "name": "San Francisco",
    "lat": 1.17644,
    "lon": -76.87838
  },
  {
    "id": 3688396,
    "name": "Buenavista",
    "lat": 9.21433,
    "lon": -74.31363
  },
  {
    "id": 3665860,
    "name": "Vistahermosa",
    "lat": 3.12428,
    "lon": -73.75156
  },
  {
    "id": 3686441,
    "name": "Choachí",
    "lat": 4.52897,
    "lon": -73.92273
  },
  {
    "id": 3689615,
    "name": "Argelia",
    "lat": 2.25563,
    "lon": -77.24876
  },
  {
    "id": 3688112,
    "name": "Cachipay",
    "lat": 5.26667,
    "lon": -74.56667
  },
  {
    "id": 3681767,
    "name": "Guachetá",
    "lat": 5.38425,
    "lon": -73.68617
  },
  {
    "id": 3669399,
    "name": "San Luis",
    "lat": 4.13258,
    "lon": -75.09499
  },
  {
    "id": 3667629,
    "name": "Tabio",
    "lat": 4.91726,
    "lon": -74.09364
  },
  {
    "id": 3688659,
    "name": "Bolívar",
    "lat": 4.3387,
    "lon": -76.18342
  },
  {
    "id": 3690262,
    "name": "Albania",
    "lat": 1.32866,
    "lon": -75.87824
  },
  {
    "id": 3665986,
    "name": "Villahermosa",
    "lat": 5.03067,
    "lon": -75.11607
  },
  {
    "id": 3689187,
    "name": "Barichara",
    "lat": 6.63572,
    "lon": -73.22282
  },
  {
    "id": 3670352,
    "name": "Salento",
    "lat": 4.6375,
    "lon": -75.57028
  },
  {
    "id": 3671901,
    "name": "Pore",
    "lat": 5.72792,
    "lon": -71.99266
  },
  {
    "id": 3792398,
    "name": "Puerto Guzmán",
    "lat": 0.97028,
    "lon": -76.58583
  },
  {
    "id": 3781883,
    "name": "Gachetá",
    "lat": 4.81854,
    "lon": -73.63659
  },
  {
    "id": 3667760,
    "name": "Subachoque",
    "lat": 4.92614,
    "lon": -74.17299
  },
  {
    "id": 3671020,
    "name": "Apulo",
    "lat": 4.51952,
    "lon": -74.59293
  },
  {
    "id": 3666025,
    "name": "Vijes",
    "lat": 3.69934,
    "lon": -76.4423
  },
  {
    "id": 3685900,
    "name": "Córdoba",
    "lat": 4.39158,
    "lon": -75.68723
  },
  {
    "id": 3681756,
    "name": "Guachucal",
    "lat": 0.96093,
    "lon": -77.73161
  },
  {
    "id": 3667244,
    "name": "Tesalia",
    "lat": 2.48587,
    "lon": -75.72921
  },
  {
    "id": 3673637,
    "name": "Oiba",
    "lat": 6.26387,
    "lon": -73.29876
  },
  {
    "id": 3667007,
    "name": "Toca",
    "lat": 5.56393,
    "lon": -73.18398
  },
  {
    "id": 3688991,
    "name": "Belén de los Andaquíes",
    "lat": 1.41828,
    "lon": -75.87753
  },
  {
    "id": 3667247,
    "name": "Teruel",
    "lat": 2.74193,
    "lon": -75.56738
  },
  {
    "id": 3666887,
    "name": "Toribío",
    "lat": 2.95481,
    "lon": -76.26839
  },
  {
    "id": 3665792,
    "name": "Yalí",
    "lat": 6.67457,
    "lon": -74.8343
  },
  {
    "id": 3685708,
    "name": "Coyaima",
    "lat": 3.79936,
    "lon": -75.19467
  },
  {
    "id": 3686460,
    "name": "Chitagá",
    "lat": 7.13781,
    "lon": -72.66456
  },
  {
    "id": 3667290,
    "name": "Tenjo",
    "lat": 4.8727,
    "lon": -74.14435
  },
  {
    "id": 3678415,
    "name": "La Merced",
    "lat": 5.40194,
    "lon": -75.88472
  },
  {
    "id": 3671576,
    "name": "Puerres",
    "lat": 1.19374,
    "lon": -77.26661
  },
  {
    "id": 3688855,
    "name": "Betania",
    "lat": 5.74601,
    "lon": -75.97765
  },
  {
    "id": 3687490,
    "name": "Capitanejo",
    "lat": 6.52881,
    "lon": -72.69595
  },
  {
    "id": 3685903,
    "name": "Córdoba",
    "lat": 0.85362,
    "lon": -77.51817
  },
  {
    "id": 3688775,
    "name": "Boavita",
    "lat": 6.33031,
    "lon": -72.58505
  },
  {
    "id": 3686065,
    "name": "Colosó",
    "lat": 9.49477,
    "lon": -75.35271
  },
  {
    "id": 3687975,
    "name": "Calamar",
    "lat": 1.9596,
    "lon": -72.65315
  },
  {
    "id": 3671337,
    "name": "Puerto Rondón",
    "lat": 6.28048,
    "lon": -71.1
  },
  {
    "id": 3665949,
    "name": "Villanueva",
    "lat": 6.67169,
    "lon": -73.17421
  },
  {
    "id": 3676417,
    "name": "López",
    "lat": 2.43333,
    "lon": -76.8
  },
  {
    "id": 3670303,
    "name": "Samacá",
    "lat": 5.49273,
    "lon": -73.48537
  },
  {
    "id": 3672633,
    "name": "Pedraza",
    "lat": 10.18739,
    "lon": -74.91504
  },
  {
    "id": 3689870,
    "name": "Angostura",
    "lat": 6.88508,
    "lon": -75.33467
  },
  {
    "id": 3681029,
    "name": "Hatillo de Loba",
    "lat": 8.95635,
    "lon": -74.07819
  },
  {
    "id": 3666287,
    "name": "Valparaíso",
    "lat": 5.615,
    "lon": -75.62422
  },
  {
    "id": 3689507,
    "name": "Arroyohondo",
    "lat": 10.2522,
    "lon": -75.0198
  },
  {
    "id": 3682299,
    "name": "Fuente de Oro",
    "lat": 3.46263,
    "lon": -73.62162
  },
  {
    "id": 3681966,
    "name": "Gramalote",
    "lat": 7.88752,
    "lon": -72.79749
  },
  {
    "id": 3775262,
    "name": "Quípama",
    "lat": 5.5194,
    "lon": -74.17765
  },
  {
    "id": 3671018,
    "name": "Ragonvalia",
    "lat": 7.57749,
    "lon": -72.47574
  },
  {
    "id": 3666102,
    "name": "Versalles",
    "lat": 4.57544,
    "lon": -76.19814
  },
  {
    "id": 3681404,
    "name": "Guasca",
    "lat": 4.86601,
    "lon": -73.87748
  },
  {
    "id": 3667211,
    "name": "Tibasosa",
    "lat": 5.75,
    "lon": -73.0
  },
  {
    "id": 3687933,
    "name": "Caldono",
    "lat": 2.79739,
    "lon": -76.48316
  },
  {
    "id": 3685961,
    "name": "Contratación",
    "lat": 6.29005,
    "lon": -73.47354
  },
  {
    "id": 3689611,
    "name": "Argelia",
    "lat": 5.73127,
    "lon": -75.14257
  },
  {
    "id": 3685069,
    "name": "Durania",
    "lat": 7.71307,
    "lon": -72.65759
  },
  {
    "id": 3676868,
    "name": "La Vega",
    "lat": 2.00187,
    "lon": -76.7789
  },
  {
    "id": 3827693,
    "name": "La Macarena",
    "lat": 2.18266,
    "lon": -73.7871
  },
  {
    "id": 3783663,
    "name": "San Carlos",
    "lat": 8.74372,
    "lon": -75.71331
  },
  {
    "id": 3689613,
    "name": "Argelia",
    "lat": 4.72342,
    "lon": -76.11909
  },
  {
    "id": 3672176,
    "name": "Piojó",
    "lat": 10.74846,
    "lon": -75.10776
  },
  {
    "id": 3688009,
    "name": "Cajibío",
    "lat": 2.62271,
    "lon": -76.57039
  },
  {
    "id": 3673829,
    "name": "Nobsa",
    "lat": 5.76978,
    "lon": -72.94099
  },
  {
    "id": 3667892,
    "name": "Socha Viejo",
    "lat": 5.9817,
    "lon": -72.71503
  },
  {
    "id": 3667447,
    "name": "Tangua",
    "lat": 1.09473,
    "lon": -77.39482
  },
  {
    "id": 3738301,
    "name": "El Tarra",
    "lat": 8.57506,
    "lon": -73.09607
  },
  {
    "id": 3671714,
    "name": "Providencia",
    "lat": 1.56976,
    "lon": -77.464
  },
  {
    "id": 3683180,
    "name": "El Roble",
    "lat": 9.10193,
    "lon": -75.19508
  },
  {
    "id": 3678363,
    "name": "La Montañita",
    "lat": 1.48016,
    "lon": -75.43664
  },
  {
    "id": 3792386,
    "name": "El Cantón de San Pablo",
    "lat": 5.33889,
    "lon": -76.73139
  },
  {
    "id": 3686107,
    "name": "Colón",
    "lat": 1.19034,
    "lon": -76.97369
  },
  {
    "id": 3684785,
    "name": "El Cairo",
    "lat": 4.76279,
    "lon": -76.221
  },
  {
    "id": 3672327,
    "name": "Pie de Pató",
    "lat": 5.51604,
    "lon": -76.97449
  },
  {
    "id": 3666481,
    "name": "Une",
    "lat": 4.40306,
    "lon": -74.02528
  },
  {
    "id": 3674027,
    "name": "Nariño",
    "lat": 5.60893,
    "lon": -75.17656
  },
  {
    "id": 3672813,
    "name": "Pasca",
    "lat": 4.30722,
    "lon": -74.30056
  },
  {
    "id": 3687310,
    "name": "Carolina",
    "lat": 6.72439,
    "lon": -75.28168
  },
  {
    "id": 3787727,
    "name": "San Andrés",
    "lat": 6.90333,
    "lon": -75.6825
  },
  {
    "id": 3689006,
    "name": "Belén",
    "lat": 1.59477,
    "lon": -77.05408
  },
  {
    "id": 3690136,
    "name": "Almaguer",
    "lat": 1.91472,
    "lon": -76.85482
  },
  {
    "id": 3687451,
    "name": "Caracolí",
    "lat": 6.4092,
    "lon": -74.75715
  },
  {
    "id": 3737057,
    "name": "Santiago Pérez",
    "lat": 3.39806,
    "lon": -75.605
  },
  {
    "id": 3675768,
    "name": "Maceo",
    "lat": 6.55196,
    "lon": -74.78741
  },
  {
    "id": 3667410,
    "name": "Tarapacá",
    "lat": -2.892,
    "lon": -69.742
  },
  {
    "id": 3665910,
    "name": "Villarrica",
    "lat": 3.93502,
    "lon": -74.60036
  },
  {
    "id": 3687426,
    "name": "Caramanta",
    "lat": 5.54782,
    "lon": -75.64368
  },
  {
    "id": 3670224,
    "name": "San Andrés",
    "lat": 6.81148,
    "lon": -72.84929
  },
  {
    "id": 3671470,
    "name": "Puerto Escondido",
    "lat": 9.01811,
    "lon": -76.26413
  },
  {
    "id": 3670034,
    "name": "San Bernardo",
    "lat": 1.51525,
    "lon": -77.04679
  },
  {
    "id": 3680554,
    "name": "Inzá",
    "lat": 2.55452,
    "lon": -76.06722
  },
  {
    "id": 3666363,
    "name": "Útica",
    "lat": 5.18727,
    "lon": -74.48105
  },
  {
    "id": 3674031,
    "name": "Nariño",
    "lat": 1.28995,
    "lon": -77.35721
  },
  {
    "id": 3688030,
    "name": "Caimito",
    "lat": 8.78962,
    "lon": -75.11686
  },
  {
    "id": 3667471,
    "name": "Taminango",
    "lat": 1.57032,
    "lon": -77.28043
  },
  {
    "id": 3686464,
    "name": "Chita",
    "lat": 6.19053,
    "lon": -72.47588
  },
  {
    "id": 3666562,
    "name": "Turmequé",
    "lat": 5.3236,
    "lon": -73.49067
  },
  {
    "id": 3686835,
    "name": "Chalán",
    "lat": 9.54765,
    "lon": -75.31128
  },
  {
    "id": 3672665,
    "name": "Payán",
    "lat": 1.76645,
    "lon": -78.18326
  },
  {
    "id": 3679007,
    "name": "La Florida",
    "lat": 1.29851,
    "lon": -77.40614
  },
  {
    "id": 3681255,
    "name": "Guayatá",
    "lat": 4.96417,
    "lon": -73.4875
  },
  {
    "id": 3686883,
    "name": "Cértegui",
    "lat": 5.37073,
    "lon": -76.6044
  },
  {
    "id": 3673536,
    "name": "Orocué",
    "lat": 4.79035,
    "lon": -71.33917
  },
  {
    "id": 3669557,
    "name": "San José de la Montaña",
    "lat": 6.85028,
    "lon": -75.68333
  },
  {
    "id": 3685184,
    "name": "Doima",
    "lat": 4.42692,
    "lon": -74.97548
  },
  {
    "id": 3669860,
    "name": "San Francisco",
    "lat": 4.97876,
    "lon": -74.2927
  },
  {
    "id": 3669857,
    "name": "San Francisco",
    "lat": 6.11667,
    "lon": -75.98333
  },
  {
    "id": 3668635,
    "name": "Santa María",
    "lat": 2.95,
    "lon": -75.65
  },
  {
    "id": 3678575,
    "name": "La Llanada",
    "lat": 1.4731,
    "lon": -77.58024
  },
  {
    "id": 3673482,
    "name": "Ospina",
    "lat": 1.0595,
    "lon": -77.56554
  },
  {
    "id": 3673690,
    "name": "Nuquí",
    "lat": 5.7125,
    "lon": -77.27083
  },
  {
    "id": 3665898,
    "name": "Villavieja",
    "lat": 3.22052,
    "lon": -75.21864
  },
  {
    "id": 3679130,
    "name": "La Esperanza",
    "lat": 8.21043,
    "lon": -72.46399
  },
  {
    "id": 3686532,
    "name": "Chipaque",
    "lat": 4.4425,
    "lon": -74.04417
  },
  {
    "id": 3684510,
    "name": "El Cocuy",
    "lat": 6.41151,
    "lon": -72.44876
  },
  {
    "id": 3689697,
    "name": "Arboledas",
    "lat": 7.64233,
    "lon": -72.79944
  },
  {
    "id": 3667380,
    "name": "Tarso",
    "lat": 5.86467,
    "lon": -75.82192
  },
  {
    "id": 3667783,
    "name": "Suaita",
    "lat": 6.1014,
    "lon": -73.44041
  },
  {
    "id": 3676477,
    "name": "Lloró",
    "lat": 5.49605,
    "lon": -76.54945
  },
  {
    "id": 3669482,
    "name": "San Juan de Arama",
    "lat": 3.36985,
    "lon": -73.87267
  },
  {
    "id": 3668268,
    "name": "Sapuyes",
    "lat": 1.03728,
    "lon": -77.62094
  },
  {
    "id": 3666502,
    "name": "Ulloa",
    "lat": 4.70444,
    "lon": -75.74028
  },
  {
    "id": 3670816,
    "name": "Ricaurte",
    "lat": 1.21474,
    "lon": -77.99801
  },
  {
    "id": 3684662,
    "name": "El Castillo",
    "lat": 3.56363,
    "lon": -73.79488
  },
  {
    "id": 3669355,
    "name": "San Luis de Gaceno",
    "lat": 4.82052,
    "lon": -73.16851
  },
  {
    "id": 3676644,
    "name": "Lenguazaque",
    "lat": 5.30711,
    "lon": -73.71152
  },
  {
    "id": 3667732,
    "name": "Sucre",
    "lat": 2.03805,
    "lon": -76.92446
  },
  {
    "id": 3666311,
    "name": "Valle de San José",
    "lat": 6.4475,
    "lon": -73.14361
  },
  {
    "id": 3686027,
    "name": "Concepción",
    "lat": 6.76619,
    "lon": -72.694
  },
  {
    "id": 3670506,
    "name": "Sabanalarga",
    "lat": 6.84893,
    "lon": -75.81711
  },
  {
    "id": 3688705,
    "name": "Bochalema",
    "lat": 7.61095,
    "lon": -72.64773
  },
  {
    "id": 3681619,
    "name": "Gualmatán",
    "lat": 0.91992,
    "lon": -77.56738
  },
  {
    "id": 3682283,
    "name": "Funes",
    "lat": 1.00075,
    "lon": -77.44918
  },
  {
    "id": 3667764,
    "name": "Suaza",
    "lat": 1.97611,
    "lon": -75.79454
  },
  {
    "id": 3673826,
    "name": "Nocaima",
    "lat": 5.06696,
    "lon": -74.38439
  },
  {
    "id": 3681234,
    "name": "Güepsa",
    "lat": 6.02505,
    "lon": -73.57313
  },
  {
    "id": 3735680,
    "name": "Santacruz",
    "lat": 1.5209,
    "lon": -77.26206
  },
  {
    "id": 3680857,
    "name": "Hispania",
    "lat": 5.79925,
    "lon": -75.90718
  },
  {
    "id": 3686907,
    "name": "Cerrito",
    "lat": 6.84315,
    "lon": -72.69404
  },
  {
    "id": 3778835,
    "name": "La Cumbre",
    "lat": 3.7225,
    "lon": -76.02083
  },
  {
    "id": 3674272,
    "name": "Mountain",
    "lat": 13.36667,
    "lon": -81.36667
  },
  {
    "id": 3680902,
    "name": "Heliconia",
    "lat": 6.20831,
    "lon": -75.73565
  },
  {
    "id": 3669549,
    "name": "San José del Palmar",
    "lat": 4.89616,
    "lon": -76.23422
  },
  {
    "id": 3792374,
    "name": "Buriticá",
    "lat": 6.71873,
    "lon": -75.90734
  },
  {
    "id": 3682981,
    "name": "El Tablón",
    "lat": 1.42717,
    "lon": -77.09693
  },
  {
    "id": 3674161,
    "name": "Murindó",
    "lat": 6.98057,
    "lon": -76.82119
  },
  {
    "id": 3680090,
    "name": "Juradó",
    "lat": 7.10421,
    "lon": -77.762
  },
  {
    "id": 3674580,
    "name": "Mongua",
    "lat": 5.75084,
    "lon": -72.80339
  },
  {
    "id": 3689291,
    "name": "Balboa",
    "lat": 4.94985,
    "lon": -75.95826
  },
  {
    "id": 3674576,
    "name": "Monguí",
    "lat": 5.72151,
    "lon": -72.84908
  },
  {
    "id": 3683508,
    "name": "El Peñol",
    "lat": 1.45365,
    "lon": -77.44017
  },
  {
    "id": 3666436,
    "name": "Uramita",
    "lat": 6.89944,
    "lon": -76.17417
  },
  {
    "id": 3669358,
    "name": "Cubarral",
    "lat": 3.79536,
    "lon": -73.84063
  },
  {
    "id": 3666111,
    "name": "Vergara",
    "lat": 5.11841,
    "lon": -74.34549
  },
  {
    "id": 3684692,
    "name": "El Carmen",
    "lat": 5.88778,
    "lon": -75.16417
  },
  {
    "id": 3674393,
    "name": "Morelia",
    "lat": 1.48747,
    "lon": -75.72581
  },
  {
    "id": 3685984,
    "name": "Consacá",
    "lat": 1.20805,
    "lon": -77.46548
  },
  {
    "id": 3668631,
    "name": "Santa María",
    "lat": 4.86048,
    "lon": -73.26234
  },
  {
    "id": 3674012,
    "name": "Nátaga",
    "lat": 2.54359,
    "lon": -75.80852
  },
  {
    "id": 3689802,
    "name": "Anzoátegui",
    "lat": 4.63087,
    "lon": -75.0946
  },
  {
    "id": 3688499,
    "name": "Briceño",
    "lat": 7.11096,
    "lon": -75.55152
  },
  {
    "id": 3667880,
    "name": "Socotá",
    "lat": 6.04028,
    "lon": -72.63509
  },
  {
    "id": 3681732,
    "name": "Guadalupe",
    "lat": 6.2464,
    "lon": -73.41833
  },
  {
    "id": 3668023,
    "name": "Simacota",
    "lat": 6.4429,
    "lon": -73.33688
  },
  {
    "id": 3688357,
    "name": "Buenos Aires",
    "lat": 3.01397,
    "lon": -76.64612
  },
  {
    "id": 3682465,
    "name": "Firavitoba",
    "lat": 5.66885,
    "lon": -72.99289
  },
  {
    "id": 3690102,
    "name": "Altamira",
    "lat": 2.06278,
    "lon": -75.78722
  },
  {
    "id": 3670966,
    "name": "Ráquira",
    "lat": 5.53793,
    "lon": -73.63201
  },
  {
    "id": 3671387,
    "name": "Puerto Nariño",
    "lat": -3.78889,
    "lon": -70.35584
  },
  {
    "id": 3689723,
    "name": "Aratoca",
    "lat": 6.69432,
    "lon": -73.01868
  },
  {
    "id": 3681222,
    "name": "Güicán",
    "lat": 6.46554,
    "lon": -72.41539
  },
  {
    "id": 3688106,
    "name": "Cáchira",
    "lat": 7.74104,
    "lon": -73.0483
  },
  {
    "id": 3668594,
    "name": "Santana",
    "lat": 6.0575,
    "lon": -73.48112
  },
  {
    "id": 3688433,
    "name": "Buenavista",
    "lat": 4.35969,
    "lon": -75.73888
  },
  {
    "id": 3670011,
    "name": "San Calixto",
    "lat": 8.4028,
    "lon": -73.2076
  },
  {
    "id": 3689559,
    "name": "Armenia",
    "lat": 6.15639,
    "lon": -75.78722
  },
  {
    "id": 3669352,
    "name": "San Luis de Palenque",
    "lat": 5.42139,
    "lon": -71.73167
  },
  {
    "id": 3769960,
    "name": "Paratebueno",
    "lat": 4.37575,
    "lon": -73.21547
  },
  {
    "id": 3681303,
    "name": "Guayabetal",
    "lat": 4.21472,
    "lon": -73.81719
  },
  {
    "id": 3687335,
    "name": "Carlosama",
    "lat": 0.86292,
    "lon": -77.72734
  },
  {
    "id": 3676205,
    "name": "Los Córdobas",
    "lat": 8.89403,
    "lon": -76.35455
  },
  {
    "id": 3674519,
    "name": "Montebello",
    "lat": 5.94806,
    "lon": -75.5275
  },
  {
    "id": 3667516,
    "name": "Támara",
    "lat": 5.82998,
    "lon": -72.16286
  },
  {
    "id": 9031040,
    "name": "Barrio San Luis",
    "lat": 4.66779,
    "lon": -74.0215
  },
  {
    "id": 3680393,
    "name": "Jambaló",
    "lat": 2.77762,
    "lon": -76.32444
  },
  {
    "id": 3685529,
    "name": "Cucutilla",
    "lat": 7.53941,
    "lon": -72.77238
  },
  {
    "id": 3687321,
    "name": "Carmen de Carupa",
    "lat": 5.34862,
    "lon": -73.90168
  },
  {
    "id": 3681360,
    "name": "Guatavita",
    "lat": 4.93658,
    "lon": -73.83314
  },
  {
    "id": 3689877,
    "name": "Angelópolis",
    "lat": 6.11072,
    "lon": -75.70923
  },
  {
    "id": 3734732,
    "name": "Laureles",
    "lat": 4.25917,
    "lon": -75.3225
  },
  {
    "id": 3667701,
    "name": "Supatá",
    "lat": 5.06097,
    "lon": -74.23721
  },
  {
    "id": 3673783,
    "name": "Nóvita",
    "lat": 4.95511,
    "lon": -76.60526
  },
  {
    "id": 3671072,
    "name": "Quipile",
    "lat": 4.74517,
    "lon": -74.53378
  },
  {
    "id": 3666834,
    "name": "Totoró",
    "lat": 2.51111,
    "lon": -76.40178
  },
  {
    "id": 3666526,
    "name": "Ubalá",
    "lat": 4.74778,
    "lon": -72.53694
  },
  {
    "id": 3680616,
    "name": "Iles",
    "lat": 0.9704,
    "lon": -77.52146
  },
  {
    "id": 3668138,
    "name": "Sesquilé",
    "lat": 5.04463,
    "lon": -73.79724
  },
  {
    "id": 3687835,
    "name": "Campamento",
    "lat": 6.9792,
    "lon": -75.29724
  },
  {
    "id": 3674166,
    "name": "Murillo",
    "lat": 4.87393,
    "lon": -75.17151
  },
  {
    "id": 3667373,
    "name": "Tasco",
    "lat": 5.91044,
    "lon": -72.78001
  },
  {
    "id": 3667218,
    "name": "Tibaná",
    "lat": 5.31728,
    "lon": -73.39655
  },
  {
    "id": 3672295,
    "name": "Piedrancha",
    "lat": 1.14109,
    "lon": -77.86479
  },
  {
    "id": 3687480,
    "name": "Capurganá",
    "lat": 8.63805,
    "lon": -77.34609
  },
  {
    "id": 3670431,
    "name": "Sáchica",
    "lat": 5.58453,
    "lon": -73.54184
  },
  {
    "id": 3669654,
    "name": "San José",
    "lat": 1.69659,
    "lon": -78.24482
  },
  {
    "id": 3675757,
    "name": "Machetá",
    "lat": 5.08154,
    "lon": -73.60761
  },
  {
    "id": 3688875,
    "name": "Arboleda",
    "lat": 1.49766,
    "lon": -77.13587
  },
  {
    "id": 3680601,
    "name": "Imués",
    "lat": 1.05516,
    "lon": -77.49669
  },
  {
    "id": 3681731,
    "name": "Guadalupe",
    "lat": 6.81449,
    "lon": -75.24063
  },
  {
    "id": 3669623,
    "name": "San José",
    "lat": 5.08221,
    "lon": -75.79107
  },
  {
    "id": 3688839,
    "name": "Betulia",
    "lat": 6.90069,
    "lon": -73.28347
  },
  {
    "id": 3676884,
    "name": "La Uvita",
    "lat": 6.32064,
    "lon": -72.56281
  },
  {
    "id": 3685540,
    "name": "Cucunubá",
    "lat": 5.24958,
    "lon": -73.7661
  },
  {
    "id": 3682172,
    "name": "Gámeza",
    "lat": 5.80263,
    "lon": -72.80586
  },
  {
    "id": 3690264,
    "name": "Albán",
    "lat": 4.87661,
    "lon": -74.43768
  },
  {
    "id": 3673386,
    "name": "Paicol",
    "lat": 2.44962,
    "lon": -75.775
  },
  {
    "id": 3666163,
    "name": "Ventaquemada",
    "lat": 5.36753,
    "lon": -73.52075
  },
  {
    "id": 3675118,
    "name": "Matanza",
    "lat": 7.32233,
    "lon": -73.01516
  },
  {
    "id": 3678167,
    "name": "La Peña",
    "lat": 5.19847,
    "lon": -74.39368
  },
  {
    "id": 3682266,
    "name": "Gachalá",
    "lat": 4.69244,
    "lon": -73.52042
  },
  {
    "id": 3679776,
    "name": "La Belleza",
    "lat": 5.86371,
    "lon": -73.96167
  },
  {
    "id": 3680886,
    "name": "Herrán",
    "lat": 7.50611,
    "lon": -72.48332
  },
  {
    "id": 3666550,
    "name": "Tuta",
    "lat": 5.68966,
    "lon": -73.22779
  },
  {
    "id": 3681832,
    "name": "Guaca",
    "lat": 6.87621,
    "lon": -72.85594
  },
  {
    "id": 3669310,
    "name": "San Mateo",
    "lat": 6.40195,
    "lon": -72.55314
  },
  {
    "id": 3769623,
    "name": "Chivor",
    "lat": 4.88556,
    "lon": -73.36889
  },
  {
    "id": 3688072,
    "name": "Caicedo",
    "lat": 6.40511,
    "lon": -75.98255
  },
  {
    "id": 3669895,
    "name": "San Fernando",
    "lat": 9.27972,
    "lon": -74.53389
  },
  {
    "id": 3667665,
    "name": "Susa",
    "lat": 5.4519,
    "lon": -73.81436
  },
  {
    "id": 3685974,
    "name": "Contadero",
    "lat": 0.90841,
    "lon": -77.5477
  },
  {
    "id": 3666087,
    "name": "Vianí",
    "lat": 4.87384,
    "lon": -74.56244
  },
  {
    "id": 3689689,
    "name": "Arcabuco",
    "lat": 5.75463,
    "lon": -73.43669
  },
  {
    "id": 3685794,
    "name": "Corrales",
    "lat": 5.82968,
    "lon": -72.84332
  },
  {
    "id": 3687084,
    "name": "Castilla La Nueva",
    "lat": 3.82722,
    "lon": -73.68831
  },
  {
    "id": 3687231,
    "name": "Cartago",
    "lat": 1.55151,
    "lon": -77.11948
  },
  {
    "id": 3686028,
    "name": "Concepción",
    "lat": 6.39408,
    "lon": -75.2583
  },
  {
    "id": 3675857,
    "name": "Lourdes",
    "lat": 7.94411,
    "lon": -72.83253
  },
  {
    "id": 3686918,
    "name": "Cerinza",
    "lat": 5.95568,
    "lon": -72.94783
  },
  {
    "id": 3680113,
    "name": "Junín",
    "lat": 4.79027,
    "lon": -73.66011
  },
  {
    "id": 3666309,
    "name": "Valle de San Juan",
    "lat": 4.19869,
    "lon": -75.11733
  },
  {
    "id": 3665544,
    "name": "Zipacón",
    "lat": 4.75881,
    "lon": -74.38017
  },
  {
    "id": 3682425,
    "name": "Florencia",
    "lat": 1.68318,
    "lon": -77.07331
  },
  {
    "id": 3685571,
    "name": "Cubará",
    "lat": 7.00578,
    "lon": -72.10568
  },
  {
    "id": 3682030,
    "name": "Giraldo",
    "lat": 6.68013,
    "lon": -75.95259
  },
  {
    "id": 3675242,
    "name": "Marmato",
    "lat": 5.47501,
    "lon": -75.6004
  },
  {
    "id": 3682358,
    "name": "Fosca",
    "lat": 4.33916,
    "lon": -73.93852
  },
  {
    "id": 3792408,
    "name": "Santa Genoveva de Docordó",
    "lat": 4.25875,
    "lon": -77.36516
  },
  {
    "id": 3671371,
    "name": "Puerto Parra",
    "lat": 6.65149,
    "lon": -74.05734
  },
  {
    "id": 3667651,
    "name": "Sutamarchán",
    "lat": 5.61538,
    "lon": -73.61701
  },
  {
    "id": 3669977,
    "name": "San Cayetano",
    "lat": 7.87707,
    "lon": -72.6243
  },
  {
    "id": 3769988,
    "name": "Sabanalarga",
    "lat": 4.8543,
    "lon": -73.04003
  },
  {
    "id": 3685569,
    "name": "Cucaita",
    "lat": 5.54373,
    "lon": -73.45433
  },
  {
    "id": 3688087,
    "name": "Cácota",
    "lat": 7.26787,
    "lon": -72.64197
  },
  {
    "id": 3675432,
    "name": "Manta",
    "lat": 5.00864,
    "lon": -73.54115
  },
  {
    "id": 3688170,
    "name": "Cabrera",
    "lat": 3.98598,
    "lon": -74.48283
  },
  {
    "id": 3766939,
    "name": "Bellavista",
    "lat": 6.55645,
    "lon": -76.88389
  },
  {
    "id": 3673590,
    "name": "Onzaga",
    "lat": 6.34434,
    "lon": -72.81726
  },
  {
    "id": 3673368,
    "name": "Paispamba",
    "lat": 2.25462,
    "lon": -76.61086
  },
  {
    "id": 3688923,
    "name": "Belmira",
    "lat": 6.60508,
    "lon": -75.66619
  },
  {
    "id": 3679622,
    "name": "La Capilla",
    "lat": 5.70493,
    "lon": -73.47527
  },
  {
    "id": 3670447,
    "name": "Saboyá",
    "lat": 5.69636,
    "lon": -73.76932
  },
  {
    "id": 3668096,
    "name": "Siachoque",
    "lat": 5.51238,
    "lon": -73.24436
  },
  {
    "id": 3671119,
    "name": "Quetame",
    "lat": 4.33234,
    "lon": -73.86141
  },
  {
    "id": 3668446,
    "name": "Santa Rosalia",
    "lat": 5.13356,
    "lon": -70.86233
  },
  {
    "id": 3686471,
    "name": "Chiscas",
    "lat": 6.55642,
    "lon": -72.50378
  },
  {
    "id": 3667796,
    "name": "Sotaquirá",
    "lat": 5.76483,
    "lon": -73.24758
  },
  {
    "id": 3682070,
    "name": "Génova",
    "lat": 1.64367,
    "lon": -77.01924
  },
  {
    "id": 3672997,
    "name": "Pandi",
    "lat": 4.19111,
    "lon": -74.4875
  },
  {
    "id": 3667649,
    "name": "Sutatausa",
    "lat": 5.24779,
    "lon": -73.85238
  },
  {
    "id": 3684189,
    "name": "El Espino",
    "lat": 6.48277,
    "lon": -72.49718
  },
  {
    "id": 3667288,
    "name": "Tenza",
    "lat": 5.07664,
    "lon": -73.42077
  },
  {
    "id": 3732273,
    "name": "Los Santos",
    "lat": 7.17,
    "lon": -73.09306
  },
  {
    "id": 3666203,
    "name": "Venecia",
    "lat": 4.08808,
    "lon": -74.47746
  },
  {
    "id": 3668033,
    "name": "Silos",
    "lat": 7.20524,
    "lon": -72.75639
  },
  {
    "id": 3666493,
    "name": "Úmbita",
    "lat": 5.22041,
    "lon": -73.45695
  },
  {
    "id": 3673695,
    "name": "Nunchía",
    "lat": 5.63589,
    "lon": -72.19543
  },
  {
    "id": 3690582,
    "name": "Abriaquí",
    "lat": 6.63148,
    "lon": -76.06444
  },
  {
    "id": 3673352,
    "name": "Pajarito",
    "lat": 5.2929,
    "lon": -72.70277
  },
  {
    "id": 3675191,
    "name": "Marulanda",
    "lat": 5.28393,
    "lon": -75.26016
  },
  {
    "id": 12253454,
    "name": "Santa Cruz del Islote",
    "lat": 9.78594,
    "lon": -75.85899
  },
  {
    "id": 3667772,
    "name": "Suárez",
    "lat": 4.04906,
    "lon": -74.83198
  },
  {
    "id": 3682395,
    "name": "Florián",
    "lat": 5.80487,
    "lon": -73.97029
  },
  {
    "id": 3673397,
    "name": "Páez",
    "lat": 5.10112,
    "lon": -73.05123
  },
  {
    "id": 3682329,
    "name": "Frías",
    "lat": 5.02973,
    "lon": -75.0086
  },
  {
    "id": 3678083,
    "name": "La Playa",
    "lat": 8.21327,
    "lon": -73.23823
  },
  {
    "id": 3674029,
    "name": "Nariño",
    "lat": 4.39781,
    "lon": -74.82731
  },
  {
    "id": 3666092,
    "name": "Vetas",
    "lat": 7.30911,
    "lon": -72.87122
  },
  {
    "id": 3667660,
    "name": "Susacón",
    "lat": 6.22978,
    "lon": -72.6901
  },
  {
    "id": 3674618,
    "name": "Molagavita",
    "lat": 6.67315,
    "lon": -72.80875
  },
  {
    "id": 3680335,
    "name": "Jenesano",
    "lat": 5.38541,
    "lon": -73.36364
  },
  {
    "id": 3671538,
    "name": "Puerto Bogotá",
    "lat": 5.19994,
    "lon": -74.72733
  },
  {
    "id": 3666760,
    "name": "Tres Esquinas",
    "lat": 3.86512,
    "lon": -74.70906
  },
  {
    "id": 3689167,
    "name": "Barranca de Upía",
    "lat": 4.56963,
    "lon": -72.96676
  },
  {
    "id": 3686262,
    "name": "Ciénega",
    "lat": 5.40867,
    "lon": -73.29572
  },
  {
    "id": 3690258,
    "name": "Albania",
    "lat": 5.76667,
    "lon": -73.23333
  },
  {
    "id": 3675255,
    "name": "Maripí",
    "lat": 5.55194,
    "lon": -74.00861
  },
  {
    "id": 3688151,
    "name": "Cabuyaro",
    "lat": 4.2817,
    "lon": -72.79399
  },
  {
    "id": 3681364,
    "name": "Guataquí",
    "lat": 4.51573,
    "lon": -74.78935
  },
  {
    "id": 3678190,
    "name": "La Paz",
    "lat": 6.17848,
    "lon": -73.58948
  },
  {
    "id": 3682400,
    "name": "Floresta",
    "lat": 5.85903,
    "lon": -72.91882
  },
  {
    "id": 3682243,
    "name": "Galán",
    "lat": 6.63781,
    "lon": -73.28878
  },
  {
    "id": 3684029,
    "name": "Elías",
    "lat": 2.0117,
    "lon": -75.93968
  },
  {
    "id": 3686569,
    "name": "Chinavita",
    "lat": 5.16723,
    "lon": -73.36823
  },
  {
    "id": 3686851,
    "name": "Chaguaní",
    "lat": 4.94829,
    "lon": -74.59392
  },
  {
    "id": 3681953,
    "name": "Granada",
    "lat": 5.06667,
    "lon": -74.56667
  },
  {
    "id": 3666903,
    "name": "Topaipí",
    "lat": 5.33457,
    "lon": -74.30292
  },
  {
    "id": 3669545,
    "name": "San José de Miranda",
    "lat": 6.6587,
    "lon": -72.73344
  },
  {
    "id": 3667731,
    "name": "Sucre",
    "lat": 5.91833,
    "lon": -73.79109
  },
  {
    "id": 3668434,
    "name": "Santa Sofía",
    "lat": 5.70908,
    "lon": -73.60404
  },
  {
    "id": 3737007,
    "name": "Campo Alegre",
    "lat": 3.18917,
    "lon": -75.70361
  },
  {
    "id": 3681306,
    "name": "Guayabal de Síquima",
    "lat": 4.87739,
    "lon": -74.46744
  },
  {
    "id": 3665547,
    "name": "Zetaquira",
    "lat": 5.28215,
    "lon": -73.16896
  },
  {
    "id": 3667044,
    "name": "Tipacoque",
    "lat": 6.42031,
    "lon": -72.69184
  },
  {
    "id": 3686051,
    "name": "Combita",
    "lat": 5.63333,
    "lon": -73.31667
  },
  {
    "id": 3668396,
    "name": "Santiago",
    "lat": 7.86432,
    "lon": -72.7162
  },
  {
    "id": 3667834,
    "name": "Somondoco",
    "lat": 4.98495,
    "lon": -73.43238
  },
  {
    "id": 3792406,
    "name": "Tibacuy",
    "lat": 4.35111,
    "lon": -72.45639
  },
  {
    "id": 3670058,
    "name": "San Antonio del Tequendama",
    "lat": 4.61617,
    "lon": -74.352
  },
  {
    "id": 3666905,
    "name": "Tópaga",
    "lat": 5.75979,
    "lon": -72.82583
  },
  {
    "id": 3733434,
    "name": "El Dorado",
    "lat": 2.77411,
    "lon": -72.86834
  },
  {
    "id": 3685840,
    "name": "Coromoro",
    "lat": 6.29461,
    "lon": -73.04022
  },
  {
    "id": 3666522,
    "name": "Ubaque",
    "lat": 4.48667,
    "lon": -73.93748
  },
  {
    "id": 3669922,
    "name": "San Felipe",
    "lat": 1.91408,
    "lon": -67.06996
  },
  {
    "id": 3673431,
    "name": "Pachavita",
    "lat": 5.13969,
    "lon": -73.39739
  },
  {
    "id": 3686819,
    "name": "Chámeza",
    "lat": 5.21421,
    "lon": -72.86948
  },
  {
    "id": 3681346,
    "name": "Guavatá",
    "lat": 5.95502,
    "lon": -73.70018
  },
  {
    "id": 3673041,
    "name": "Pamplonita",
    "lat": 7.43637,
    "lon": -72.63808
  },
  {
    "id": 3669541,
    "name": "San José de Pare",
    "lat": 6.01746,
    "lon": -73.54703
  },
  {
    "id": 3668990,
    "name": "San Sebastián",
    "lat": 1.83861,
    "lon": -76.77189
  },
  {
    "id": 3667205,
    "name": "Tibirita",
    "lat": 5.05227,
    "lon": -73.50459
  },
  {
    "id": 3674124,
    "name": "Mutiscua",
    "lat": 7.30061,
    "lon": -72.74667
  },
  {
    "id": 3678176,
    "name": "La Pedrera",
    "lat": -1.32391,
    "lon": -69.57436
  },
  {
    "id": 3679716,
    "name": "Labranzagrande",
    "lat": 5.56223,
    "lon": -72.57499
  },
  {
    "id": 3667351,
    "name": "Tausa",
    "lat": 5.19903,
    "lon": -73.89128
  },
  {
    "id": 3678672,
    "name": "La Jagua del Pilar",
    "lat": 10.51023,
    "lon": -73.07176
  },
  {
    "id": 3673664,
    "name": "Ocamonte",
    "lat": 6.34001,
    "lon": -73.12205
  },
  {
    "id": 3686530,
    "name": "Chipatá",
    "lat": 6.06196,
    "lon": -73.63718
  },
  {
    "id": 3680316,
    "name": "Jericó",
    "lat": 6.14592,
    "lon": -72.5708
  },
  {
    "id": 3668749,
    "name": "Santa Helena",
    "lat": 6.3,
    "lon": -73.58333
  },
  {
    "id": 3673730,
    "name": "Nuevo Colón",
    "lat": 5.35368,
    "lon": -73.4566
  },
  {
    "id": 3687394,
    "name": "Carcasí",
    "lat": 6.62711,
    "lon": -72.62625
  },
  {
    "id": 3669693,
    "name": "San Joaquín",
    "lat": 6.43004,
    "lon": -72.86768
  },
  {
    "id": 3672895,
    "name": "Páramo",
    "lat": 6.41639,
    "lon": -73.17
  },
  {
    "id": 3683498,
    "name": "El Peñón",
    "lat": 6.55,
    "lon": -72.83333
  },
  {
    "id": 3666964,
    "name": "Togüí",
    "lat": 5.93462,
    "lon": -73.51297
  },
  {
    "id": 3667805,
    "name": "Soracá",
    "lat": 5.50055,
    "lon": -73.33299
  },
  {
    "id": 3667647,
    "name": "Sutatenza",
    "lat": 5.02311,
    "lon": -73.4523
  },
  {
    "id": 3680297,
    "name": "Jesús María",
    "lat": 5.87715,
    "lon": -73.78097
  },
  {
    "id": 3685943,
    "name": "Coper",
    "lat": 5.47681,
    "lon": -74.04416
  },
  {
    "id": 3690257,
    "name": "Albania",
    "lat": 5.75894,
    "lon": -73.91376
  },
  {
    "id": 3667685,
    "name": "Suratá",
    "lat": 7.36633,
    "lon": -72.98361
  },
  {
    "id": 3673372,
    "name": "Paime",
    "lat": 5.37054,
    "lon": -74.15219
  },
  {
    "id": 3668221,
    "name": "Sativanorte",
    "lat": 6.13156,
    "lon": -72.70895
  },
  {
    "id": 3686606,
    "name": "Chima",
    "lat": 6.34431,
    "lon": -73.37393
  },
  {
    "id": 3688462,
    "name": "Bucarasica",
    "lat": 8.04096,
    "lon": -72.86538
  },
  {
    "id": 3665991,
    "name": "Villagómez",
    "lat": 5.27372,
    "lon": -74.19614
  },
  {
    "id": 3666840,
    "name": "Tota",
    "lat": 5.55833,
    "lon": -72.98757
  },
  {
    "id": 3681812,
    "name": "Guacamayas",
    "lat": 6.46243,
    "lon": -72.50465
  },
  {
    "id": 3681175,
    "name": "Gutiérrez",
    "lat": 4.25472,
    "lon": -74.0025
  },
  {
    "id": 3686142,
    "name": "Coello",
    "lat": 4.28908,
    "lon": -74.89825
  },
  {
    "id": 3690134,
    "name": "Almeida",
    "lat": 4.97083,
    "lon": -73.37972
  },
  {
    "id": 3671161,
    "name": "Quebradanegra",
    "lat": 5.11737,
    "lon": -74.47944
  },
  {
    "id": 3680426,
    "name": "Iza",
    "lat": 5.61203,
    "lon": -72.9793
  },
  {
    "id": 3670443,
    "name": "Sácama",
    "lat": 6.09908,
    "lon": -72.2488
  },
  {
    "id": 3682178,
    "name": "Gámbita",
    "lat": 5.94597,
    "lon": -73.34435
  },
  {
    "id": 3675791,
    "name": "Macanal",
    "lat": 4.97214,
    "lon": -73.31959
  },
  {
    "id": 3688539,
    "name": "Boyacá",
    "lat": 5.45371,
    "lon": -73.3625
  },
  {
    "id": 3686495,
    "name": "Chíquiza",
    "lat": 5.60412,
    "lon": -73.48518
  },
  {
    "id": 3683501,
    "name": "El Peñón",
    "lat": 5.25264,
    "lon": -74.29069
  },
  {
    "id": 3673613,
    "name": "Olaya",
    "lat": 6.62773,
    "lon": -75.8127
  },
  {
    "id": 3669981,
    "name": "San Cayetano",
    "lat": 5.30153,
    "lon": -74.06954
  },
  {
    "id": 3682653,
    "name": "Enciso",
    "lat": 6.66808,
    "lon": -72.69986
  },
  {
    "id": 3680308,
    "name": "Jerusalén",
    "lat": 4.56309,
    "lon": -74.69519
  },
  {
    "id": 3667310,
    "name": "Tena",
    "lat": 4.66001,
    "lon": -74.39258
  },
  {
    "id": 3687751,
    "name": "Campohermoso",
    "lat": 5.03132,
    "lon": -73.10327
  },
  {
    "id": 3672204,
    "name": "Pinchote",
    "lat": 6.53226,
    "lon": -73.17309
  },
  {
    "id": 3672981,
    "name": "Panqueba",
    "lat": 6.44533,
    "lon": -72.46268
  },
  {
    "id": 3686453,
    "name": "Chivatá",
    "lat": 5.55823,
    "lon": -73.28198
  },
  {
    "id": 3673187,
    "name": "Palmas del Socorro",
    "lat": 6.40756,
    "lon": -73.28824
  },
  {
    "id": 3686712,
    "name": "Charta",
    "lat": 7.28025,
    "lon": -72.96782
  },
  {
    "id": 3669238,
    "name": "San Miguel de Sema",
    "lat": 5.51847,
    "lon": -73.72238
  },
  {
    "id": 3688500,
    "name": "Briceño",
    "lat": 5.68822,
    "lon": -73.91784
  },
  {
    "id": 3666921,
    "name": "Tona",
    "lat": 7.20221,
    "lon": -72.96502
  },
  {
    "id": 3669264,
    "name": "San Miguel",
    "lat": 6.57583,
    "lon": -72.64591
  },
  {
    "id": 3673845,
    "name": "Nimaima",
    "lat": 5.12614,
    "lon": -74.38495
  },
  {
    "id": 3681025,
    "name": "Hato",
    "lat": 6.54302,
    "lon": -73.30826
  },
  {
    "id": 3671279,
    "name": "Pulí",
    "lat": 4.68116,
    "lon": -74.71406
  },
  {
    "id": 3679509,
    "name": "La Chorrera",
    "lat": -1.44282,
    "lon": -72.78934
  },
  {
    "id": 3792381,
    "name": "Covarachía",
    "lat": 6.50563,
    "lon": -72.7331
  },
  {
    "id": 3682185,
    "name": "Gama",
    "lat": 4.76288,
    "lon": -73.61091
  },
  {
    "id": 3668219,
    "name": "Sativasur",
    "lat": 6.09334,
    "lon": -72.71235
  },
  {
    "id": 3687913,
    "name": "California",
    "lat": 7.34776,
    "lon": -72.9458
  },
  {
    "id": 3681491,
    "name": "Guapotá",
    "lat": 6.30798,
    "lon": -73.3202
  },
  {
    "id": 3682279,
    "name": "Fúquene",
    "lat": 5.40425,
    "lon": -73.7964
  },
  {
    "id": 3684770,
    "name": "El Calvario",
    "lat": 4.35342,
    "lon": -73.71147
  },
  {
    "id": 3756350,
    "name": "Pacoa",
    "lat": 0.05507,
    "lon": -71.22203
  },
  {
    "id": 3665879,
    "name": "Viracachá",
    "lat": 5.43637,
    "lon": -73.29606
  },
  {
    "id": 3675780,
    "name": "Macaravita",
    "lat": 6.50567,
    "lon": -72.59299
  },
  {
    "id": 3682260,
    "name": "Gachantivá",
    "lat": 5.75662,
    "lon": -73.5395
  },
  {
    "id": 3669936,
    "name": "San Eduardo",
    "lat": 5.22396,
    "lon": -73.07696
  },
  {
    "id": 3667806,
    "name": "Sora",
    "lat": 5.56514,
    "lon": -73.45017
  },
  {
    "id": 3670624,
    "name": "Rondón",
    "lat": 5.35642,
    "lon": -73.20918
  }
]