[
  {
    "id": 3374333,
    "name": "Praia",
    "lat": 14.93152,
    "lng": -23.51254
  },
  {
    "id": 3374462,
    "name": "Mindelo",
    "lat": 16.89014,
    "lng": -24.98042
  },
  {
    "id": 8521418,
    "name": "Espargos",
    "lat": 16.75524,
    "lng": -22.9446
  },
  {
    "id": 3374888,
    "name": "Assomada",
    "lat": 15.1,
    "lng": -23.68333
  },
  {
    "id": 3374166,
    "name": "Tarrafal",
    "lat": 15.27881,
    "lng": -23.75192
  },
  {
    "id": 3374336,
    "name": "Porto Novo",
    "lat": 17.01969,
    "lng": -25.06471
  },
  {
    "id": 3374235,
    "name": "Sal Rei",
    "lat": 16.17611,
    "lng": -22.91722
  },
  {
    "id": 3374210,
    "name": "São Filipe",
    "lat": 14.8961,
    "lng": -24.49556
  },
  {
    "id": 8441169,
    "name": "Pedra Badejo",
    "lat": 15.1375,
    "lng": -23.53083
  },
  {
    "id": 3374221,
    "name": "Santa Cruz",
    "lat": 15.13403,
    "lng": -23.55945
  },
  {
    "id": 3374218,
    "name": "Santa Maria",
    "lat": 16.59796,
    "lng": -22.90509
  },
  {
    "id": 3374794,
    "name": "Calheta",
    "lat": 15.18613,
    "lng": -23.59228
  },
  {
    "id": 3374120,
    "name": "Vila do Maio",
    "lat": 15.13823,
    "lng": -23.21158
  },
  {
    "id": 3374165,
    "name": "Tarrafal de São Nicolau",
    "lat": 16.56622,
    "lng": -24.35793
  },
  {
    "id": 3374555,
    "name": "Igreja",
    "lat": 15.03333,
    "lng": -24.33333
  },
  {
    "id": 3374725,
    "name": "Cidade Velha",
    "lat": 14.91531,
    "lng": -23.60527
  },
  {
    "id": 3374346,
    "name": "Ponta do Sol",
    "lat": 17.20171,
    "lng": -25.09217
  },
  {
    "id": 3374275,
    "name": "Ribeira Grande",
    "lat": 17.1825,
    "lng": -25.065
  },
  {
    "id": 3374211,
    "name": "São Domingos",
    "lat": 15.02438,
    "lng": -23.5625
  },
  {
    "id": 3374121,
    "name": "Ribeira Brava",
    "lat": 16.61583,
    "lng": -24.29833
  },
  {
    "id": 3374117,
    "name": "Nova Sintra",
    "lat": 14.87139,
    "lng": -24.69556
  },
  {
    "id": 3374360,
    "name": "Picos",
    "lat": 15.0836,
    "lng": -23.63236
  },
  {
    "id": 3374351,
    "name": "Pombas",
    "lat": 17.15026,
    "lng": -25.02007
  },
  {
    "id": 3374707,
    "name": "Cova Figueira",
    "lat": 14.89054,
    "lng": -24.29343
  },
  {
    "id": 8441167,
    "name": "João Teves",
    "lat": 15.06694,
    "lng": -23.58917
  }
]