[
  {
    "id": 8740209,
    "name": "Nasinu",
    "lat": -18.07051,
    "lng": 178.51313
  },
  {
    "id": 2198148,
    "name": "Suva",
    "lat": -18.13683,
    "lng": 178.42531
  },
  {
    "id": 2204506,
    "name": "Lautoka",
    "lat": -17.61686,
    "lng": 177.45049
  },
  {
    "id": 2202064,
    "name": "Nadi",
    "lat": -17.80309,
    "lng": 177.41617
  },
  {
    "id": 2204582,
    "name": "Labasa",
    "lat": -16.4332,
    "lng": 179.36451
  },
  {
    "id": 2204575,
    "name": "Lami",
    "lat": -18.11094,
    "lng": 178.40943
  },
  {
    "id": 2198365,
    "name": "Sigatoka",
    "lat": -18.14307,
    "lng": 177.50691
  },
  {
    "id": 8335413,
    "name": "Ba",
    "lat": -17.5343,
    "lng": 177.67407
  },
  {
    "id": 2197895,
    "name": "Tavua",
    "lat": -17.44221,
    "lng": 177.86221
  },
  {
    "id": 2204417,
    "name": "Levuka",
    "lat": -18.06667,
    "lng": 179.31667
  },
  {
    "id": 2198520,
    "name": "Savusavu",
    "lat": -16.77942,
    "lng": 179.33564
  },
  {
    "id": 2197277,
    "name": "Vaileka",
    "lat": -17.37894,
    "lng": 178.15329
  },
  {
    "id": 2200478,
    "name": "Navua",
    "lat": -18.22271,
    "lng": 178.17002
  },
  {
    "id": 2197035,
    "name": "Vatukoula",
    "lat": -17.50136,
    "lng": 177.84983
  }
]