[
  {
    "id": 2298890,
    "name": "Kumasi",
    "lat": 6.68848,
    "lon": -1.62443
  },
  {
    "id": 2306104,
    "name": "Accra",
    "lat": 5.55602,
    "lon": -0.1969
  },
  {
    "id": 2294877,
    "name": "Tamale",
    "lat": 9.40079,
    "lon": -0.8393
  },
  {
    "id": 2294915,
    "name": "Takoradi",
    "lat": 4.89816,
    "lon": -1.76029
  },
  {
    "id": 11808941,
    "name": "Sekondi",
    "lat": 4.93422,
    "lon": -1.71454
  },
  {
    "id": 2302357,
    "name": "Cape Coast",
    "lat": 5.10535,
    "lon": -1.2466
  },
  {
    "id": 2306079,
    "name": "Atsiaman",
    "lat": 5.69775,
    "lon": -0.32824
  },
  {
    "id": 2304121,
    "name": "Ashaiman",
    "lat": 5.69951,
    "lon": -0.03484
  },
  {
    "id": 2296606,
    "name": "Obuase",
    "lat": 6.20228,
    "lon": -1.66796
  },
  {
    "id": 2294700,
    "name": "Tema",
    "lat": 5.6698,
    "lon": -0.01657
  },
  {
    "id": 2299522,
    "name": "Koforidua",
    "lat": 6.09408,
    "lon": -0.25913
  },
  {
    "id": 2295458,
    "name": "Sekondi-Takoradi",
    "lat": 4.92678,
    "lon": -1.75773
  },
  {
    "id": 2300379,
    "name": "Ho",
    "lat": 6.60084,
    "lon": 0.4713
  },
  {
    "id": 2304848,
    "name": "Amanfrom",
    "lat": 5.53532,
    "lon": -0.39827
  },
  {
    "id": 2298330,
    "name": "Medina Estates",
    "lat": 5.6658,
    "lon": -0.16307
  },
  {
    "id": 2294308,
    "name": "Twifu Praso",
    "lat": 5.61411,
    "lon": -1.5502
  },
  {
    "id": 2300182,
    "name": "Japekrom",
    "lat": 7.5758,
    "lon": -2.78516
  },
  {
    "id": 11205476,
    "name": "Tema New Town",
    "lat": 5.65396,
    "lon": 0.0264
  },
  {
    "id": 2295021,
    "name": "Sunyani",
    "lat": 7.33991,
    "lon": -2.32676
  },
  {
    "id": 2300372,
    "name": "Hohoe",
    "lat": 7.15181,
    "lon": 0.47362
  },
  {
    "id": 2300068,
    "name": "Jirapa",
    "lat": 10.53689,
    "lon": -2.70155
  },
  {
    "id": 2296458,
    "name": "Kasoa",
    "lat": 5.53449,
    "lon": -0.41679
  },
  {
    "id": 2300721,
    "name": "Gbawe",
    "lat": 5.57692,
    "lon": -0.31038
  },
  {
    "id": 2294727,
    "name": "Techiman",
    "lat": 7.59054,
    "lon": -1.93947
  },
  {
    "id": 2302821,
    "name": "Bolgatanga",
    "lat": 10.78556,
    "lon": -0.85139
  },
  {
    "id": 2294206,
    "name": "Wa",
    "lat": 10.06069,
    "lon": -2.50192
  },
  {
    "id": 12640505,
    "name": "Mandela",
    "lat": 5.55221,
    "lon": -0.33912
  },
  {
    "id": 2303287,
    "name": "Bawku",
    "lat": 11.05926,
    "lon": -0.24249
  },
  {
    "id": 2294034,
    "name": "Winneba",
    "lat": 5.35113,
    "lon": -0.62313
  },
  {
    "id": 2301217,
    "name": "Ejura",
    "lat": 7.38558,
    "lon": -1.35617
  },
  {
    "id": 2303125,
    "name": "Berekum",
    "lat": 7.4534,
    "lon": -2.58404
  },
  {
    "id": 2305677,
    "name": "Aflao",
    "lat": 6.11982,
    "lon": 1.19012
  },
  {
    "id": 2293801,
    "name": "Yendi",
    "lat": 9.44272,
    "lon": -0.00991
  },
  {
    "id": 2302541,
    "name": "Buduburam",
    "lat": 5.52314,
    "lon": -0.47718
  },
  {
    "id": 2296564,
    "name": "Akim Oda",
    "lat": 5.92665,
    "lon": -0.98577
  },
  {
    "id": 2294962,
    "name": "Swedru",
    "lat": 5.53711,
    "lon": -0.69984
  },
  {
    "id": 2299625,
    "name": "Kintampo",
    "lat": 8.05627,
    "lon": -1.73058
  },
  {
    "id": 2298264,
    "name": "Mampong",
    "lat": 7.06273,
    "lon": -1.4001
  },
  {
    "id": 7648641,
    "name": "Adenta",
    "lat": 5.71417,
    "lon": -0.15418
  },
  {
    "id": 2295065,
    "name": "Suhum",
    "lat": 6.04089,
    "lon": -0.45004
  },
  {
    "id": 2294938,
    "name": "Tafo",
    "lat": 6.73156,
    "lon": -1.6137
  },
  {
    "id": 2294768,
    "name": "Tarkwa",
    "lat": 5.30383,
    "lon": -1.98956
  },
  {
    "id": 11428216,
    "name": "Lashibi",
    "lat": 5.68476,
    "lon": -0.04011
  },
  {
    "id": 2297141,
    "name": "Nsawam",
    "lat": 5.80893,
    "lon": -0.35026
  },
  {
    "id": 2301639,
    "name": "Dome",
    "lat": 5.65003,
    "lon": -0.2361
  },
  {
    "id": 12640506,
    "name": "Nkawkaw",
    "lat": 6.54584,
    "lon": -0.76264
  },
  {
    "id": 2305537,
    "name": "Agogo",
    "lat": 6.80004,
    "lon": -1.08193
  },
  {
    "id": 2304220,
    "name": "Asamankese",
    "lat": 5.86006,
    "lon": -0.6635
  },
  {
    "id": 2294086,
    "name": "Wankyi",
    "lat": 7.73855,
    "lon": -2.1036
  },
  {
    "id": 2299349,
    "name": "Konongo",
    "lat": 6.61667,
    "lon": -1.21667
  },
  {
    "id": 2301400,
    "name": "Dunkwa",
    "lat": 5.95996,
    "lon": -1.77792
  },
  {
    "id": 12640508,
    "name": "Taifa",
    "lat": 5.65825,
    "lon": -0.25223
  },
  {
    "id": 2298205,
    "name": "Mankesim",
    "lat": 5.2717,
    "lon": -1.0152
  },
  {
    "id": 2295517,
    "name": "Savelugu",
    "lat": 9.62376,
    "lon": -0.82705
  },
  {
    "id": 2301529,
    "name": "Domaa-Ahenkro",
    "lat": 7.27386,
    "lon": -2.87348
  },
  {
    "id": 11467879,
    "name": "Assin Foso",
    "lat": 5.7,
    "lon": -1.65
  },
  {
    "id": 2303060,
    "name": "Bibiani",
    "lat": 6.45196,
    "lon": -2.31635
  },
  {
    "id": 2298005,
    "name": "Mim",
    "lat": 6.90412,
    "lon": -2.56114
  },
  {
    "id": 2295840,
    "name": "Prestea",
    "lat": 5.43385,
    "lon": -2.14295
  },
  {
    "id": 2303611,
    "name": "Esim",
    "lat": 4.86641,
    "lon": -2.24181
  },
  {
    "id": 2297289,
    "name": "Nkoranza",
    "lat": 7.57127,
    "lon": -1.7087
  },
  {
    "id": 2301190,
    "name": "Elmina",
    "lat": 5.0847,
    "lon": -1.35093
  },
  {
    "id": 2303026,
    "name": "Bimbila",
    "lat": 8.85488,
    "lon": 0.05922
  },
  {
    "id": 2304548,
    "name": "Anloga",
    "lat": 5.79473,
    "lon": 0.89728
  },
  {
    "id": 2304931,
    "name": "Akwatia",
    "lat": 6.04024,
    "lon": -0.80876
  },
  {
    "id": 2295692,
    "name": "Sakumona",
    "lat": 5.62135,
    "lon": -0.05193
  },
  {
    "id": 2303878,
    "name": "Atebubu",
    "lat": 7.75537,
    "lon": -0.98085
  },
  {
    "id": 8457205,
    "name": "Awoshi",
    "lat": 5.58385,
    "lon": -0.27787
  },
  {
    "id": 2301245,
    "name": "Ahwiaa",
    "lat": 6.76051,
    "lon": -1.59402
  },
  {
    "id": 2303224,
    "name": "Bekwai",
    "lat": 6.45195,
    "lon": -1.57866
  },
  {
    "id": 2305191,
    "name": "Akatsi",
    "lat": 6.1316,
    "lon": 0.79853
  },
  {
    "id": 2301367,
    "name": "Dzodze",
    "lat": 6.23669,
    "lon": 0.99578
  },
  {
    "id": 2297126,
    "name": "Nsoatre",
    "lat": 7.40353,
    "lon": -2.46635
  },
  {
    "id": 7281088,
    "name": "Effiduase",
    "lat": 6.84684,
    "lon": -1.39612
  },
  {
    "id": 2297432,
    "name": "New Tafo",
    "lat": 6.71897,
    "lon": -1.61188
  },
  {
    "id": 2293805,
    "name": "Yegyi",
    "lat": 8.22542,
    "lon": -0.64889
  },
  {
    "id": 2299945,
    "name": "Kade",
    "lat": 6.09392,
    "lon": -0.83599
  },
  {
    "id": 2303236,
    "name": "Begoro",
    "lat": 6.38706,
    "lon": -0.37738
  },
  {
    "id": 2299233,
    "name": "Kpandu",
    "lat": 6.99536,
    "lon": 0.29306
  },
  {
    "id": 2295684,
    "name": "Salaga",
    "lat": 8.55083,
    "lon": -0.51875
  },
  {
    "id": 2297505,
    "name": "Navrongo",
    "lat": 10.89469,
    "lon": -1.09083
  },
  {
    "id": 2295672,
    "name": "Saltpond",
    "lat": 5.20913,
    "lon": -1.06058
  },
  {
    "id": 2301184,
    "name": "Elubo",
    "lat": 5.28515,
    "lon": -2.76658
  },
  {
    "id": 2302002,
    "name": "Damongo",
    "lat": 9.08296,
    "lon": -1.81884
  },
  {
    "id": 2301424,
    "name": "Dambai",
    "lat": 8.06616,
    "lon": 0.17947
  },
  {
    "id": 2300749,
    "name": "Goaso",
    "lat": 6.80355,
    "lon": -2.5172
  },
  {
    "id": 2295385,
    "name": "Shama Junction",
    "lat": 5.01806,
    "lon": -1.66437
  },
  {
    "id": 2304389,
    "name": "Apam",
    "lat": 5.285,
    "lon": -0.746
  },
  {
    "id": 2300883,
    "name": "Foso",
    "lat": 5.70119,
    "lon": -1.28657
  },
  {
    "id": 13275281,
    "name": "Ahwiaa",
    "lat": 6.90306,
    "lon": -1.65199
  },
  {
    "id": 2306119,
    "name": "Aburi",
    "lat": 5.84802,
    "lon": -0.17449
  },
  {
    "id": 2299645,
    "name": "Keta",
    "lat": 5.91793,
    "lon": 0.98789
  },
  {
    "id": 2297661,
    "name": "Nalerigu",
    "lat": 10.52726,
    "lon": -0.36982
  },
  {
    "id": 2303258,
    "name": "Bechem",
    "lat": 7.09034,
    "lon": -2.02498
  },
  {
    "id": 2301464,
    "name": "Duayaw-Nkwanta",
    "lat": 7.17487,
    "lon": -2.09961
  },
  {
    "id": 2295468,
    "name": "Sefwi",
    "lat": 6.52306,
    "lon": -1.63596
  },
  {
    "id": 2297810,
    "name": "Mumford",
    "lat": 5.26176,
    "lon": -0.75897
  },
  {
    "id": 2305027,
    "name": "Akropong",
    "lat": 5.97462,
    "lon": -0.08542
  },
  {
    "id": 2299642,
    "name": "Kete Krachi",
    "lat": 7.79391,
    "lon": -0.0498
  },
  {
    "id": 2305164,
    "name": "Akim Swedru",
    "lat": 5.8938,
    "lon": -1.01636
  },
  {
    "id": 2299636,
    "name": "Kibi",
    "lat": 6.16494,
    "lon": -0.55376
  },
  {
    "id": 2297834,
    "name": "Mpraeso",
    "lat": 6.59321,
    "lon": -0.73462
  },
  {
    "id": 2306224,
    "name": "Aboso",
    "lat": 5.36073,
    "lon": -1.94856
  },
  {
    "id": 2299236,
    "name": "Kpandae",
    "lat": 8.46885,
    "lon": -0.01127
  },
  {
    "id": 12123477,
    "name": "Zonno",
    "lat": 10.78442,
    "lon": -0.78449
  },
  {
    "id": 11751265,
    "name": "Nyimbale",
    "lat": 10.16102,
    "lon": -2.60546
  }
]