[
  {
    "id": 2411989,
    "name": "Serekunda",
    "lat": 13.43833,
    "lon": -16.67806
  },
  {
    "id": 2413753,
    "name": "Brikama",
    "lat": 13.27136,
    "lon": -16.64944
  },
  {
    "id": 2411880,
    "name": "Sukuta",
    "lat": 13.41033,
    "lon": -16.70815
  },
  {
    "id": 12640502,
    "name": "Talinding",
    "lat": 13.42558,
    "lon": -16.67261
  },
  {
    "id": 2413525,
    "name": "Faji Kunda",
    "lat": 13.41778,
    "lon": -16.66667
  },
  {
    "id": 2413920,
    "name": "Bakau",
    "lat": 13.47806,
    "lon": -16.68194
  },
  {
    "id": 2413876,
    "name": "Banjul",
    "lat": 13.45274,
    "lon": -16.57803
  },
  {
    "id": 2412452,
    "name": "Nema Kunku",
    "lat": 13.25,
    "lon": -15.88333
  },
  {
    "id": 2413515,
    "name": "Farafenni",
    "lat": 13.56667,
    "lon": -15.6
  },
  {
    "id": 2413696,
    "name": "Busumbala",
    "lat": 13.33917,
    "lon": -16.6875
  },
  {
    "id": 2412749,
    "name": "Lamin",
    "lat": 13.35222,
    "lon": -16.43389
  },
  {
    "id": 2411700,
    "name": "Welingara",
    "lat": 13.40361,
    "lon": -16.67361
  },
  {
    "id": 2413745,
    "name": "Brufut",
    "lat": 13.38417,
    "lon": -16.75139
  },
  {
    "id": 2412186,
    "name": "Sanchaba",
    "lat": 13.42222,
    "lon": -16.70972
  },
  {
    "id": 2413419,
    "name": "Gunjur",
    "lat": 13.20194,
    "lon": -16.73389
  },
  {
    "id": 2412609,
    "name": "Manjai Kunda",
    "lat": 13.44528,
    "lon": -16.70278
  },
  {
    "id": 2413565,
    "name": "Dippa Kunda",
    "lat": 13.44028,
    "lon": -16.68694
  },
  {
    "id": 12640501,
    "name": "New Jeshwang",
    "lat": 13.44735,
    "lon": -16.665
  },
  {
    "id": 2413915,
    "name": "Bakoti",
    "lat": 13.43,
    "lon": -16.69833
  },
  {
    "id": 2412786,
    "name": "Kunkujang",
    "lat": 13.38972,
    "lon": -16.67278
  },
  {
    "id": 12640503,
    "name": "Sinchu Alagi",
    "lat": 13.37491,
    "lon": -16.67841
  },
  {
    "id": 2412833,
    "name": "Kotu",
    "lat": 13.45944,
    "lon": -16.70528
  },
  {
    "id": 2413990,
    "name": "Abuko",
    "lat": 13.40417,
    "lon": -16.65583
  },
  {
    "id": 2412737,
    "name": "Latri Sabiji",
    "lat": 13.41333,
    "lon": -16.67889
  },
  {
    "id": 2411805,
    "name": "Tanji",
    "lat": 13.34889,
    "lon": -16.79083
  },
  {
    "id": 2413106,
    "name": "Kanifing",
    "lat": 13.44639,
    "lon": -16.67444
  },
  {
    "id": 2411905,
    "name": "Soma",
    "lat": 13.43333,
    "lon": -15.53333
  },
  {
    "id": 2412141,
    "name": "Sanyang",
    "lat": 13.26667,
    "lon": -16.76056
  },
  {
    "id": 2413511,
    "name": "Farato",
    "lat": 13.4,
    "lon": -14.21667
  },
  {
    "id": 2413818,
    "name": "Basse Santa Su",
    "lat": 13.30995,
    "lon": -14.21373
  },
  {
    "id": 2413450,
    "name": "Gambissar",
    "lat": 13.31667,
    "lon": -13.95
  },
  {
    "id": 2411653,
    "name": "Yundum",
    "lat": 13.34556,
    "lon": -16.67278
  },
  {
    "id": 2411652,
    "name": "Old Yundum",
    "lat": 13.3625,
    "lon": -16.68611
  },
  {
    "id": 2413533,
    "name": "Essau",
    "lat": 13.48389,
    "lon": -16.53472
  },
  {
    "id": 7282416,
    "name": "Kerr Serign",
    "lat": 13.43247,
    "lon": -16.7203
  },
  {
    "id": 2413445,
    "name": "Garawol",
    "lat": 13.41667,
    "lon": -13.95
  },
  {
    "id": 2412625,
    "name": "Mandinari",
    "lat": 13.37278,
    "lon": -16.60278
  },
  {
    "id": 2413300,
    "name": "Jamisa",
    "lat": 13.41667,
    "lon": -16.71667
  },
  {
    "id": 2413866,
    "name": "Bansang",
    "lat": 13.43333,
    "lon": -14.65
  },
  {
    "id": 2413147,
    "name": "Kaimbujae NDing",
    "lat": 13.285,
    "lon": -16.62139
  },
  {
    "id": 2412331,
    "name": "Old Jeswang",
    "lat": 13.45861,
    "lon": -16.66333
  },
  {
    "id": 2411727,
    "name": "Tujering",
    "lat": 13.31889,
    "lon": -16.78548
  },
  {
    "id": 2412855,
    "name": "Kololi",
    "lat": 13.45,
    "lon": -16.71667
  },
  {
    "id": 2413788,
    "name": "Bijilo",
    "lat": 13.41806,
    "lon": -16.73
  },
  {
    "id": 2413564,
    "name": "Djalabango",
    "lat": 13.28056,
    "lon": -16.67861
  },
  {
    "id": 2411949,
    "name": "Sinchu Balla",
    "lat": 13.6,
    "lon": -15.03333
  },
  {
    "id": 2412248,
    "name": "Sabi",
    "lat": 13.23333,
    "lon": -14.2
  },
  {
    "id": 12640504,
    "name": "Sinchu Sorry",
    "lat": 13.38753,
    "lon": -16.6855
  },
  {
    "id": 2412868,
    "name": "Koina",
    "lat": 13.48333,
    "lon": -13.86667
  },
  {
    "id": 2413955,
    "name": "Badja Kunda",
    "lat": 13.46667,
    "lon": -14.05
  },
  {
    "id": 2412815,
    "name": "Kulari",
    "lat": 13.4,
    "lon": -14.08333
  },
  {
    "id": 2413874,
    "name": "Banjul NDing",
    "lat": 13.37333,
    "lon": -16.65722
  },
  {
    "id": 2413971,
    "name": "Alohungari",
    "lat": 13.31667,
    "lon": -14.23333
  },
  {
    "id": 2413304,
    "name": "Jambanjali",
    "lat": 13.28028,
    "lon": -16.72944
  },
  {
    "id": 2412703,
    "name": "Madiana",
    "lat": 13.51667,
    "lon": -14.53333
  },
  {
    "id": 2413827,
    "name": "Barra",
    "lat": 13.48278,
    "lon": -16.54556
  },
  {
    "id": 2411976,
    "name": "Sifoe",
    "lat": 13.18361,
    "lon": -16.6975
  },
  {
    "id": 2412992,
    "name": "Kerewan",
    "lat": 13.4898,
    "lon": -16.08879
  },
  {
    "id": 2413061,
    "name": "Kartung",
    "lat": 13.09472,
    "lon": -16.76222
  },
  {
    "id": 2413749,
    "name": "Brikama Ba",
    "lat": 13.53333,
    "lon": -14.93333
  },
  {
    "id": 2413598,
    "name": "Demba Kunda",
    "lat": 13.25,
    "lon": -14.26667
  },
  {
    "id": 2413437,
    "name": "Janjanbureh",
    "lat": 13.54039,
    "lon": -14.76374
  },
  {
    "id": 12640500,
    "name": "Bakau Wasulun",
    "lat": 13.48373,
    "lon": -16.66892
  },
  {
    "id": 2413580,
    "name": "Diabugu",
    "lat": 13.38333,
    "lon": -14.4
  },
  {
    "id": 2412229,
    "name": "Salikene",
    "lat": 13.48333,
    "lon": -15.96667
  },
  {
    "id": 2412199,
    "name": "Sami",
    "lat": 13.58333,
    "lon": -15.2
  },
  {
    "id": 2413265,
    "name": "Jarreng",
    "lat": 13.61667,
    "lon": -15.18333
  },
  {
    "id": 2411863,
    "name": "Sutukoba",
    "lat": 13.5,
    "lon": -14.01667
  },
  {
    "id": 2411903,
    "name": "Somita",
    "lat": 13.20583,
    "lon": -16.30556
  },
  {
    "id": 2412315,
    "name": "Pakali Nding",
    "lat": 13.46667,
    "lon": -15.55
  },
  {
    "id": 2412778,
    "name": "Kuntaur",
    "lat": 13.67085,
    "lon": -14.88977
  },
  {
    "id": 2412344,
    "name": "Nyamanari",
    "lat": 13.33333,
    "lon": -13.86667
  },
  {
    "id": 2413830,
    "name": "Baro Kunda",
    "lat": 13.48333,
    "lon": -15.26667
  },
  {
    "id": 2413926,
    "name": "Bakadagy",
    "lat": 13.3,
    "lon": -14.38333
  },
  {
    "id": 2412605,
    "name": "Mansa Konko",
    "lat": 13.44325,
    "lon": -15.5357
  },
  {
    "id": 2412252,
    "name": "Saba",
    "lat": 13.51639,
    "lon": -16.04917
  },
  {
    "id": 2411999,
    "name": "Saruja",
    "lat": 13.55,
    "lon": -14.91667
  },
  {
    "id": 2412355,
    "name": "No Kunda",
    "lat": 13.56667,
    "lon": -15.83333
  },
  {
    "id": 2413456,
    "name": "Galleh Manda",
    "lat": 13.43333,
    "lon": -14.78333
  },
  {
    "id": 2412158,
    "name": "Sankwia",
    "lat": 13.46667,
    "lon": -15.51667
  },
  {
    "id": 2413160,
    "name": "Kaiaf",
    "lat": 13.4,
    "lon": -15.61667
  },
  {
    "id": 2413365,
    "name": "Jakhaly",
    "lat": 13.55,
    "lon": -14.96667
  },
  {
    "id": 2413023,
    "name": "Keneba",
    "lat": 13.32889,
    "lon": -16.015
  },
  {
    "id": 2412807,
    "name": "Kumbija",
    "lat": 13.26667,
    "lon": -14.18333
  },
  {
    "id": 2411765,
    "name": "Toniataba",
    "lat": 13.43333,
    "lon": -15.58333
  },
  {
    "id": 2413070,
    "name": "Karantaba",
    "lat": 13.66667,
    "lon": -15.03333
  },
  {
    "id": 2412408,
    "name": "Nioro",
    "lat": 13.35,
    "lon": -15.75
  },
  {
    "id": 2413041,
    "name": "Katchang",
    "lat": 13.5,
    "lon": -15.75
  },
  {
    "id": 2413588,
    "name": "Denton",
    "lat": 13.5,
    "lon": -14.93333
  },
  {
    "id": 2413645,
    "name": "Dankunku",
    "lat": 13.56667,
    "lon": -15.31667
  },
  {
    "id": 2413417,
    "name": "Gunjur Kuta",
    "lat": 13.53333,
    "lon": -14.11667
  },
  {
    "id": 2411862,
    "name": "Sutukung",
    "lat": 13.46667,
    "lon": -15.26667
  },
  {
    "id": 2411885,
    "name": "Sudowol",
    "lat": 13.36667,
    "lon": -13.96667
  },
  {
    "id": 2411692,
    "name": "Wellingara Ba",
    "lat": 13.41667,
    "lon": -15.4
  },
  {
    "id": 2413703,
    "name": "Bureng",
    "lat": 13.41667,
    "lon": -15.28333
  },
  {
    "id": 2411703,
    "name": "Wassu",
    "lat": 13.69094,
    "lon": -14.87884
  },
  {
    "id": 2413073,
    "name": "Karantaba",
    "lat": 13.43333,
    "lon": -15.51667
  },
  {
    "id": 2411877,
    "name": "Sukuta",
    "lat": 13.61667,
    "lon": -14.91667
  },
  {
    "id": 2411970,
    "name": "Si Kunda",
    "lat": 13.43333,
    "lon": -15.56667
  },
  {
    "id": 2413418,
    "name": "Gunjur",
    "lat": 13.52278,
    "lon": -16.02778
  },
  {
    "id": 2412135,
    "name": "Sara Kunda",
    "lat": 13.53333,
    "lon": -15.41667
  },
  {
    "id": 2411866,
    "name": "Sun Kunda",
    "lat": 13.38333,
    "lon": -13.85
  },
  {
    "id": 2413653,
    "name": "Daba Kunda",
    "lat": 13.31667,
    "lon": -14.3
  },
  {
    "id": 2413755,
    "name": "Brifu",
    "lat": 13.5,
    "lon": -13.93333
  },
  {
    "id": 2413895,
    "name": "Bambali",
    "lat": 13.48333,
    "lon": -15.33333
  },
  {
    "id": 2413246,
    "name": "Jenoi",
    "lat": 13.48333,
    "lon": -15.56667
  },
  {
    "id": 2413660,
    "name": "Chilla",
    "lat": 13.55,
    "lon": -16.28333
  },
  {
    "id": 2412775,
    "name": "Kunting",
    "lat": 13.53333,
    "lon": -14.66667
  },
  {
    "id": 2413579,
    "name": "Diabugu Basilla",
    "lat": 13.33333,
    "lon": -13.95
  },
  {
    "id": 2412279,
    "name": "Pateh Sam",
    "lat": 13.61667,
    "lon": -15.06667
  },
  {
    "id": 2413052,
    "name": "Kass Wollof",
    "lat": 13.78333,
    "lon": -14.93333
  },
  {
    "id": 2413746,
    "name": "Brikama Nding",
    "lat": 13.53333,
    "lon": -14.93333
  },
  {
    "id": 2413623,
    "name": "Daru Rilwan",
    "lat": 13.55,
    "lon": -15.98333
  },
  {
    "id": 2413235,
    "name": "Jifarong",
    "lat": 13.3,
    "lon": -15.86667
  },
  {
    "id": 2412272,
    "name": "Perai",
    "lat": 13.38333,
    "lon": -14.03333
  },
  {
    "id": 2413344,
    "name": "Jali",
    "lat": 13.35,
    "lon": -15.96667
  },
  {
    "id": 2413839,
    "name": "Banto Nding",
    "lat": 13.46667,
    "lon": -14.08333
  },
  {
    "id": 2411915,
    "name": "Sintet",
    "lat": 13.23333,
    "lon": -15.81667
  },
  {
    "id": 2412142,
    "name": "Sanunding",
    "lat": 13.28333,
    "lon": -14.11667
  },
  {
    "id": 2412593,
    "name": "Massembe",
    "lat": 13.41667,
    "lon": -15.63333
  },
  {
    "id": 2411798,
    "name": "Tankular",
    "lat": 13.41778,
    "lon": -16.03694
  },
  {
    "id": 2413935,
    "name": "Bajana",
    "lat": 13.31667,
    "lon": -15.88333
  },
  {
    "id": 2412217,
    "name": "Sambang",
    "lat": 13.53333,
    "lon": -15.33333
  },
  {
    "id": 2413368,
    "name": "Jakaba",
    "lat": 13.65,
    "lon": -14.88333
  },
  {
    "id": 2413498,
    "name": "Fass",
    "lat": 13.8,
    "lon": -15.06667
  },
  {
    "id": 2413544,
    "name": "Dumbutu",
    "lat": 13.35,
    "lon": -15.83333
  },
  {
    "id": 2413810,
    "name": "Bati Ndar",
    "lat": 13.7,
    "lon": -15.2
  },
  {
    "id": 2412664,
    "name": "Madina Tunjang",
    "lat": 13.43333,
    "lon": -14.75
  },
  {
    "id": 2413282,
    "name": "Janneh Kunda",
    "lat": 13.38028,
    "lon": -16.13833
  },
  {
    "id": 2413861,
    "name": "Bantang Killing",
    "lat": 13.58333,
    "lon": -15.7
  },
  {
    "id": 2413264,
    "name": "Jarrol",
    "lat": 13.24412,
    "lon": -15.84546
  },
  {
    "id": 2411876,
    "name": "Sulolor",
    "lat": 13.45,
    "lon": -14.66667
  },
  {
    "id": 2411816,
    "name": "Tambana",
    "lat": 13.50528,
    "lon": -16.17444
  },
  {
    "id": 2413716,
    "name": "Buniadu",
    "lat": 13.55,
    "lon": -15.33333
  },
  {
    "id": 2412688,
    "name": "Madina",
    "lat": 13.7,
    "lon": -14.88333
  },
  {
    "id": 2412547,
    "name": "Medina Kanuma",
    "lat": 13.49278,
    "lon": -16.52333
  },
  {
    "id": 2413260,
    "name": "Jassong",
    "lat": 13.4,
    "lon": -15.31667
  },
  {
    "id": 2413232,
    "name": "Jiffin",
    "lat": 13.41667,
    "lon": -15.58333
  },
  {
    "id": 2413561,
    "name": "Dobbo",
    "lat": 13.46667,
    "lon": -14.63333
  },
  {
    "id": 2412600,
    "name": "Mara Magai",
    "lat": 13.51667,
    "lon": -14.91667
  },
  {
    "id": 2413573,
    "name": "Diganteh",
    "lat": 13.36667,
    "lon": -15.43333
  },
  {
    "id": 2413684,
    "name": "Cha Kunda",
    "lat": 13.38333,
    "lon": -14.53333
  },
  {
    "id": 2411730,
    "name": "Tuba-Wuli",
    "lat": 13.43333,
    "lon": -14.25
  },
  {
    "id": 2411977,
    "name": "Sibito",
    "lat": 13.38333,
    "lon": -15.73333
  },
  {
    "id": 2411746,
    "name": "Tuba Koto",
    "lat": 13.63333,
    "lon": -14.9
  },
  {
    "id": 2411707,
    "name": "Walliba Kunda",
    "lat": 13.36667,
    "lon": -14.01667
  },
  {
    "id": 2413552,
    "name": "Dongoro Ba",
    "lat": 13.38333,
    "lon": -15.28333
  },
  {
    "id": 2412804,
    "name": "Kumbijae",
    "lat": 13.53333,
    "lon": -15.43333
  },
  {
    "id": 2413221,
    "name": "Jiroff",
    "lat": 13.41667,
    "lon": -15.7
  },
  {
    "id": 2413243,
    "name": "Jeriko",
    "lat": 13.58333,
    "lon": -15.66667
  },
  {
    "id": 2413956,
    "name": "Badari",
    "lat": 13.33333,
    "lon": -14.1
  },
  {
    "id": 2412877,
    "name": "Kinteh Kunda",
    "lat": 13.50722,
    "lon": -16.06722
  },
  {
    "id": 2412692,
    "name": "Madina",
    "lat": 13.5,
    "lon": -15.25
  },
  {
    "id": 2412996,
    "name": "Kerewan",
    "lat": 13.36667,
    "lon": -14.21667
  },
  {
    "id": 2411754,
    "name": "Tuba",
    "lat": 13.46667,
    "lon": -14.68333
  },
  {
    "id": 2412163,
    "name": "Sankandi",
    "lat": 13.3,
    "lon": -15.83333
  },
  {
    "id": 2413042,
    "name": "Katamina",
    "lat": 13.55,
    "lon": -15.28333
  },
  {
    "id": 2412814,
    "name": "Kuli Kunda",
    "lat": 13.33333,
    "lon": -15.91667
  },
  {
    "id": 2411878,
    "name": "Sukuta",
    "lat": 13.53333,
    "lon": -15.2
  },
  {
    "id": 2413386,
    "name": "Jababa",
    "lat": 13.36667,
    "lon": -14.36667
  },
  {
    "id": 2413560,
    "name": "Dobo",
    "lat": 13.55,
    "lon": -15.96667
  },
  {
    "id": 2411668,
    "name": "Wurokang",
    "lat": 13.38333,
    "lon": -15.81667
  },
  {
    "id": 2413391,
    "name": "India",
    "lat": 13.56667,
    "lon": -15.75
  },
  {
    "id": 2412589,
    "name": "Mayork",
    "lat": 13.23333,
    "lon": -15.96667
  },
  {
    "id": 2413881,
    "name": "Bani",
    "lat": 13.55,
    "lon": -14.73333
  },
  {
    "id": 2413427,
    "name": "Giroba Kunda",
    "lat": 13.3,
    "lon": -14.2
  },
  {
    "id": 2413570,
    "name": "Dingirie",
    "lat": 13.76667,
    "lon": -14.91667
  },
  {
    "id": 2411667,
    "name": "Yallal",
    "lat": 13.55,
    "lon": -15.7
  },
  {
    "id": 2413734,
    "name": "Buiba Mandinka",
    "lat": 13.43333,
    "lon": -15.45
  }
]