[
  {
    "id": 3578959,
    "name": "Les Abymes",
    "lat": 16.273,
    "lng": -61.50507
  },
  {
    "id": 3579767,
    "name": "Baie-Mahault",
    "lat": 16.26738,
    "lng": -61.58543
  },
  {
    "id": 3578978,
    "name": "Le Gosier",
    "lat": 16.20618,
    "lng": -61.49306
  },
  {
    "id": 3578682,
    "name": "Petit-Bourg",
    "lat": 16.19163,
    "lng": -61.5914
  },
  {
    "id": 3578466,
    "name": "Sainte-Anne",
    "lat": 16.22564,
    "lng": -61.38098
  },
  {
    "id": 3578967,
    "name": "Le Moule",
    "lat": 16.33164,
    "lng": -61.34656
  },
  {
    "id": 3578447,
    "name": "Sainte-Rose",
    "lat": 16.33264,
    "lng": -61.6969
  },
  {
    "id": 3579585,
    "name": "Capesterre-Belle-Eau",
    "lat": 16.04495,
    "lng": -61.56425
  },
  {
    "id": 3578599,
    "name": "Pointe-à-Pitre",
    "lat": 16.23638,
    "lng": -61.53459
  },
  {
    "id": 3579023,
    "name": "Lamentin",
    "lat": 16.27047,
    "lng": -61.63166
  },
  {
    "id": 3578441,
    "name": "Saint-François",
    "lat": 16.25236,
    "lng": -61.27332
  },
  {
    "id": 3579732,
    "name": "Basse-Terre",
    "lat": 15.99714,
    "lng": -61.73214
  },
  {
    "id": 3578467,
    "name": "Saint-Claude",
    "lat": 16.02515,
    "lng": -61.69975
  },
  {
    "id": 3578324,
    "name": "Trois-Rivières",
    "lat": 15.97595,
    "lng": -61.64492
  },
  {
    "id": 3579267,
    "name": "Gourbeyre",
    "lat": 15.99454,
    "lng": -61.69203
  },
  {
    "id": 3578681,
    "name": "Petit-Canal",
    "lat": 16.37913,
    "lng": -61.48716
  },
  {
    "id": 3578594,
    "name": "Pointe-Noire",
    "lat": 16.23218,
    "lng": -61.78917
  },
  {
    "id": 3578278,
    "name": "Vieux-Habitants",
    "lat": 16.05866,
    "lng": -61.76667
  },
  {
    "id": 3579250,
    "name": "Grand-Bourg",
    "lat": 15.88402,
    "lng": -61.3148
  },
  {
    "id": 3579761,
    "name": "Baillif",
    "lat": 16.02037,
    "lng": -61.74611
  },
  {
    "id": 3578575,
    "name": "Port-Louis",
    "lat": 16.41749,
    "lng": -61.53045
  },
  {
    "id": 3579789,
    "name": "Anse-Bertrand",
    "lat": 16.47239,
    "lng": -61.50739
  },
  {
    "id": 3579232,
    "name": "Beauséjour",
    "lat": 16.30413,
    "lng": -61.07375
  },
  {
    "id": 3578351,
    "name": "Petites Anses",
    "lat": 15.84993,
    "lng": -61.64457
  }
]