[
  {
    "id": 3598132,
    "name": "Guatemala City",
    "lat": 14.64072,
    "lng": -90.51327
  },
  {
    "id": 3587902,
    "name": "Villa Nueva",
    "lat": 14.52512,
    "lng": -90.58544
  },
  {
    "id": 3592519,
    "name": "Mixco",
    "lat": 14.63077,
    "lng": -90.60711
  },
  {
    "id": 3598119,
    "name": "Cobán",
    "lat": 15.47025,
    "lng": -90.37455
  },
  {
    "id": 3590979,
    "name": "Quetzaltenango",
    "lat": 14.84462,
    "lng": -91.52316
  },
  {
    "id": 3595237,
    "name": "Jalapa",
    "lat": 14.63542,
    "lng": -89.99112
  },
  {
    "id": 3595803,
    "name": "Escuintla",
    "lat": 14.30097,
    "lng": -90.78816
  },
  {
    "id": 3587923,
    "name": "Villa Canales",
    "lat": 14.48285,
    "lng": -90.53425
  },
  {
    "id": 3595069,
    "name": "Jutiapa",
    "lat": 14.28491,
    "lng": -89.88798
  },
  {
    "id": 3598655,
    "name": "Chichicastenango",
    "lat": 14.94333,
    "lng": -91.11116
  },
  {
    "id": 3589885,
    "name": "San Juan Sacatepéquez",
    "lat": 14.71889,
    "lng": -90.64417
  },
  {
    "id": 3591415,
    "name": "Petapa",
    "lat": 14.50189,
    "lng": -90.56196
  },
  {
    "id": 3589289,
    "name": "Santa Lucía Cotzumalguapa",
    "lat": 14.33505,
    "lng": -91.02339
  },
  {
    "id": 3598465,
    "name": "Chiquimula",
    "lat": 14.8009,
    "lng": -89.54641
  },
  {
    "id": 3598122,
    "name": "Coatepeque",
    "lat": 14.70413,
    "lng": -91.86426
  },
  {
    "id": 3598529,
    "name": "Chinautla",
    "lat": 14.70289,
    "lng": -90.49983
  },
  {
    "id": 3588258,
    "name": "Totonicapán",
    "lat": 14.91188,
    "lng": -91.36054
  },
  {
    "id": 3591062,
    "name": "Puerto Barrios",
    "lat": 15.72724,
    "lng": -88.59787
  },
  {
    "id": 3598572,
    "name": "Chimaltenango",
    "lat": 14.65881,
    "lng": -90.8216
  },
  {
    "id": 3592753,
    "name": "Malacatán",
    "lat": 14.91132,
    "lng": -92.05788
  },
  {
    "id": 3590858,
    "name": "Retalhuleu",
    "lat": 14.53575,
    "lng": -91.67848
  },
  {
    "id": 3589452,
    "name": "Santa Catarina Pinula",
    "lat": 14.57047,
    "lng": -90.49925
  },
  {
    "id": 3589977,
    "name": "San José Pinula",
    "lat": 14.546,
    "lng": -90.41288
  },
  {
    "id": 3595416,
    "name": "Huehuetenango",
    "lat": 15.32097,
    "lng": -91.47001
  },
  {
    "id": 3589404,
    "name": "Santa Cruz del Quiché",
    "lat": 15.02995,
    "lng": -91.14876
  },
  {
    "id": 3592609,
    "name": "Mazatenango",
    "lat": 14.53412,
    "lng": -91.50311
  },
  {
    "id": 3591676,
    "name": "Panzos",
    "lat": 15.39862,
    "lng": -89.64147
  },
  {
    "id": 3599735,
    "name": "Amatitlán",
    "lat": 14.4774,
    "lng": -90.63489
  },
  {
    "id": 3591833,
    "name": "Palín",
    "lat": 14.40358,
    "lng": -90.69659
  },
  {
    "id": 3590616,
    "name": "Salamá",
    "lat": 15.1021,
    "lng": -90.31906
  },
  {
    "id": 3598678,
    "name": "Chicacao",
    "lat": 14.54295,
    "lng": -91.32636
  },
  {
    "id": 3587587,
    "name": "Zacapa",
    "lat": 14.96867,
    "lng": -89.52732
  },
  {
    "id": 3598025,
    "name": "Comitancillo",
    "lat": 15.08937,
    "lng": -91.74971
  },
  {
    "id": 3595714,
    "name": "Fraijanes",
    "lat": 14.46528,
    "lng": -90.44083
  },
  {
    "id": 3589646,
    "name": "San Pedro Ayampuc",
    "lat": 14.77943,
    "lng": -90.45318
  },
  {
    "id": 3591512,
    "name": "Patzún",
    "lat": 14.68189,
    "lng": -91.01397
  },
  {
    "id": 3590219,
    "name": "San Francisco El Alto",
    "lat": 14.9449,
    "lng": -91.4431
  },
  {
    "id": 3591997,
    "name": "Ostuncalco",
    "lat": 14.86899,
    "lng": -91.62137
  },
  {
    "id": 3588694,
    "name": "Soloma",
    "lat": 15.65841,
    "lng": -91.42994
  },
  {
    "id": 3599639,
    "name": "Asunción Mita",
    "lat": 14.33365,
    "lng": -89.71094
  },
  {
    "id": 3598073,
    "name": "Colomba",
    "lat": 14.7073,
    "lng": -91.73167
  },
  {
    "id": 3599582,
    "name": "Barberena",
    "lat": 14.30739,
    "lng": -90.36156
  },
  {
    "id": 3589805,
    "name": "San Marcos",
    "lat": 14.96437,
    "lng": -91.79486
  },
  {
    "id": 3599699,
    "name": "Antigua Guatemala",
    "lat": 14.55636,
    "lng": -90.7332
  },
  {
    "id": 3588698,
    "name": "Sololá",
    "lat": 14.7707,
    "lng": -91.18344
  },
  {
    "id": 3592642,
    "name": "Masagua",
    "lat": 14.20306,
    "lng": -90.84806
  },
  {
    "id": 3599069,
    "name": "Cantel",
    "lat": 14.81154,
    "lng": -91.45536
  },
  {
    "id": 3597804,
    "name": "Cuilapa",
    "lat": 14.27537,
    "lng": -90.29865
  },
  {
    "id": 3591541,
    "name": "Patulul",
    "lat": 14.42321,
    "lng": -91.16049
  },
  {
    "id": 3589626,
    "name": "San Pedro Sacatepéquez",
    "lat": 14.96807,
    "lng": -91.76172
  },
  {
    "id": 3592105,
    "name": "Nuevo San Carlos",
    "lat": 14.593,
    "lng": -91.6939
  },
  {
    "id": 3595248,
    "name": "Jacaltenango",
    "lat": 15.66662,
    "lng": -91.71177
  },
  {
    "id": 3587636,
    "name": "Yepocapa",
    "lat": 14.50195,
    "lng": -90.95396
  },
  {
    "id": 3588476,
    "name": "Tecpán Guatemala",
    "lat": 14.76181,
    "lng": -90.99247
  },
  {
    "id": 3598128,
    "name": "Ciudad Vieja",
    "lat": 14.52396,
    "lng": -90.76308
  },
  {
    "id": 3589105,
    "name": "Santiago Atitlán",
    "lat": 14.63823,
    "lng": -91.22901
  },
  {
    "id": 3598034,
    "name": "Comalapa",
    "lat": 14.74086,
    "lng": -90.88761
  },
  {
    "id": 3592483,
    "name": "Momostenango",
    "lat": 15.04437,
    "lng": -91.40864
  },
  {
    "id": 3590389,
    "name": "San Benito",
    "lat": 16.91675,
    "lng": -89.91898
  },
  {
    "id": 3589101,
    "name": "Santiago Sacatepéquez",
    "lat": 14.6351,
    "lng": -90.67654
  },
  {
    "id": 3589548,
    "name": "San Sebastián",
    "lat": 14.56177,
    "lng": -91.64865
  },
  {
    "id": 3595232,
    "name": "Jalpatagua",
    "lat": 14.1369,
    "lng": -90.00908
  },
  {
    "id": 3588653,
    "name": "Sumpango",
    "lat": 14.64623,
    "lng": -90.73427
  },
  {
    "id": 3592286,
    "name": "Nahualá",
    "lat": 14.8429,
    "lng": -91.31799
  },
  {
    "id": 3590529,
    "name": "San Andrés Itzapa",
    "lat": 14.62222,
    "lng": -90.84314
  },
  {
    "id": 3596421,
    "name": "Guastatoya",
    "lat": 14.85442,
    "lng": -90.06991
  },
  {
    "id": 3589822,
    "name": "San Luis Jilotepeque",
    "lat": 14.64724,
    "lng": -89.72463
  },
  {
    "id": 3590288,
    "name": "San Felipe",
    "lat": 14.62304,
    "lng": -91.595
  },
  {
    "id": 3587543,
    "name": "Zaragoza",
    "lat": 14.64968,
    "lng": -90.89034
  },
  {
    "id": 3594575,
    "name": "La Gomera",
    "lat": 14.08213,
    "lng": -91.05383
  },
  {
    "id": 3599788,
    "name": "Alotenango",
    "lat": 14.48585,
    "lng": -90.80437
  },
  {
    "id": 3592237,
    "name": "Nebaj",
    "lat": 15.40614,
    "lng": -91.14682
  },
  {
    "id": 3599287,
    "name": "Cabricán",
    "lat": 15.07485,
    "lng": -91.648
  },
  {
    "id": 3590197,
    "name": "San Francisco Zapotitlán",
    "lat": 14.58939,
    "lng": -91.52144
  },
  {
    "id": 3589253,
    "name": "Santa María de Jesús",
    "lat": 14.49452,
    "lng": -90.71036
  },
  {
    "id": 3591523,
    "name": "Patzicía",
    "lat": 14.63194,
    "lng": -90.92659
  },
  {
    "id": 3589852,
    "name": "San Lucas Sacatepéquez",
    "lat": 14.61075,
    "lng": -90.65681
  },
  {
    "id": 3595783,
    "name": "Esquipulas",
    "lat": 14.56571,
    "lng": -89.35166
  },
  {
    "id": 3597078,
    "name": "El Estor",
    "lat": 15.53221,
    "lng": -89.33111
  },
  {
    "id": 3595725,
    "name": "Flores",
    "lat": 16.92258,
    "lng": -89.89941
  },
  {
    "id": 3589671,
    "name": "San Pablo Jocopilas",
    "lat": 14.58882,
    "lng": -91.45188
  },
  {
    "id": 3590316,
    "name": "San Cristóbal Verapaz",
    "lat": 15.36663,
    "lng": -90.47825
  },
  {
    "id": 3590605,
    "name": "Salcajá",
    "lat": 14.87964,
    "lng": -91.45699
  },
  {
    "id": 3595560,
    "name": "Gualán",
    "lat": 15.11952,
    "lng": -89.35721
  },
  {
    "id": 3592362,
    "name": "Morales",
    "lat": 15.47225,
    "lng": -88.8407
  },
  {
    "id": 3595503,
    "name": "Guazacapán",
    "lat": 14.07417,
    "lng": -90.41667
  },
  {
    "id": 3591060,
    "name": "Puerto San José",
    "lat": 13.92216,
    "lng": -90.81906
  },
  {
    "id": 3591851,
    "name": "Palencia",
    "lat": 14.66715,
    "lng": -90.35721
  },
  {
    "id": 3591093,
    "name": "Tiquisate",
    "lat": 14.28356,
    "lng": -91.36063
  },
  {
    "id": 3593376,
    "name": "Lívingston",
    "lat": 15.82826,
    "lng": -88.75039
  },
  {
    "id": 3595171,
    "name": "Jocotenango",
    "lat": 14.57814,
    "lng": -90.73804
  },
  {
    "id": 3597587,
    "name": "El Asintal",
    "lat": 14.59626,
    "lng": -91.72744
  },
  {
    "id": 3591181,
    "name": "Poptún",
    "lat": 16.33111,
    "lng": -89.41694
  },
  {
    "id": 3589475,
    "name": "Santa Bárbara",
    "lat": 14.43563,
    "lng": -91.22685
  },
  {
    "id": 3598415,
    "name": "Chisec",
    "lat": 15.81311,
    "lng": -90.28896
  },
  {
    "id": 3594703,
    "name": "La Esperanza",
    "lat": 14.87169,
    "lng": -91.5614
  },
  {
    "id": 3589643,
    "name": "San Pedro Carchá",
    "lat": 15.47745,
    "lng": -90.31105
  },
  {
    "id": 3590406,
    "name": "Sanarate",
    "lat": 14.78828,
    "lng": -90.19876
  },
  {
    "id": 3596041,
    "name": "El Tejar",
    "lat": 14.64683,
    "lng": -90.79122
  },
  {
    "id": 3596644,
    "name": "El Palmar",
    "lat": 14.65083,
    "lng": -91.578
  },
  {
    "id": 3590924,
    "name": "Rabinal",
    "lat": 15.0853,
    "lng": -90.49255
  },
  {
    "id": 3590520,
    "name": "San Andrés Xecul",
    "lat": 14.90482,
    "lng": -91.48307
  },
  {
    "id": 3589458,
    "name": "Santa Catarina Ixtahuacán",
    "lat": 14.79797,
    "lng": -91.35866
  },
  {
    "id": 3589850,
    "name": "San Lucas Tolimán",
    "lat": 14.59471,
    "lng": -91.14659
  },
  {
    "id": 3589627,
    "name": "San Pedro Sacatepéquez",
    "lat": 14.68612,
    "lng": -90.64253
  },
  {
    "id": 3587510,
    "name": "Zunil",
    "lat": 14.78463,
    "lng": -91.48345
  },
  {
    "id": 3599575,
    "name": "Barillas",
    "lat": 15.80361,
    "lng": -91.31583
  },
  {
    "id": 3589730,
    "name": "San Miguel Chicaj",
    "lat": 15.09472,
    "lng": -90.39442
  },
  {
    "id": 3589677,
    "name": "San Pablo",
    "lat": 14.93269,
    "lng": -92.00415
  },
  {
    "id": 3590412,
    "name": "San Antonio Suchitepéquez",
    "lat": 14.53938,
    "lng": -91.41442
  },
  {
    "id": 3592477,
    "name": "Monjas",
    "lat": 14.50309,
    "lng": -89.87246
  },
  {
    "id": 3594753,
    "name": "La Democracia",
    "lat": 14.22919,
    "lng": -90.94806
  },
  {
    "id": 3589917,
    "name": "San Juan Chamelco",
    "lat": 15.42433,
    "lng": -90.33044
  },
  {
    "id": 3589770,
    "name": "San Mateo Ixtatán",
    "lat": 15.83194,
    "lng": -91.47806
  },
  {
    "id": 3595148,
    "name": "Joyabaj",
    "lat": 14.99311,
    "lng": -90.80161
  },
  {
    "id": 3598462,
    "name": "Chiquimulilla",
    "lat": 14.0838,
    "lng": -90.38547
  },
  {
    "id": 3591574,
    "name": "Pastores",
    "lat": 14.59433,
    "lng": -90.75473
  },
  {
    "id": 3599793,
    "name": "Almolonga",
    "lat": 14.81591,
    "lng": -91.49464
  },
  {
    "id": 3589285,
    "name": "Santa Lucía Milpas Altas",
    "lat": 14.57655,
    "lng": -90.67632
  },
  {
    "id": 3600008,
    "name": "Acatenango",
    "lat": 14.55451,
    "lng": -90.94368
  },
  {
    "id": 3596389,
    "name": "El Quetzal",
    "lat": 14.76865,
    "lng": -91.81757
  },
  {
    "id": 3590690,
    "name": "Sacapulas",
    "lat": 15.28801,
    "lng": -91.08914
  },
  {
    "id": 3588858,
    "name": "Senahú",
    "lat": 15.4164,
    "lng": -89.82215
  },
  {
    "id": 3595721,
    "name": "Flores Costa Cuca",
    "lat": 14.63238,
    "lng": -91.86341
  },
  {
    "id": 3592770,
    "name": "Magdalena Milpas Altas",
    "lat": 14.54801,
    "lng": -90.67477
  },
  {
    "id": 3598804,
    "name": "Chajul",
    "lat": 15.48523,
    "lng": -91.0352
  },
  {
    "id": 3599633,
    "name": "Atescatempa",
    "lat": 14.1755,
    "lng": -89.74184
  },
  {
    "id": 3598131,
    "name": "Melchor de Mencos",
    "lat": 17.06606,
    "lng": -89.15229
  },
  {
    "id": 3598129,
    "name": "Ciudad Tecún Umán",
    "lat": 14.67737,
    "lng": -92.14039
  },
  {
    "id": 3591750,
    "name": "Panajachel",
    "lat": 14.74185,
    "lng": -91.15676
  },
  {
    "id": 3592145,
    "name": "Nueva Concepción",
    "lat": 14.2,
    "lng": -91.3
  },
  {
    "id": 3589913,
    "name": "San Juan Cotzal",
    "lat": 15.43368,
    "lng": -91.03481
  },
  {
    "id": 3597750,
    "name": "Cuyotenango",
    "lat": 14.54006,
    "lng": -91.57179
  },
  {
    "id": 3589456,
    "name": "Santa Catarina Mita",
    "lat": 14.45131,
    "lng": -89.74285
  },
  {
    "id": 3597837,
    "name": "Cubulco",
    "lat": 15.10452,
    "lng": -90.62871
  },
  {
    "id": 3597722,
    "name": "Dolores",
    "lat": 16.51178,
    "lng": -89.41704
  },
  {
    "id": 3590547,
    "name": "San Agustín Acasaguastlán",
    "lat": 14.945,
    "lng": -89.96967
  },
  {
    "id": 3592019,
    "name": "Oratorio",
    "lat": 14.22806,
    "lng": -90.17583
  },
  {
    "id": 3592126,
    "name": "Nueva Santa Rosa",
    "lat": 14.38111,
    "lng": -90.27611
  },
  {
    "id": 11449731,
    "name": "Nuevo León",
    "lat": 15.79369,
    "lng": -91.09237
  },
  {
    "id": 3595406,
    "name": "Huitán",
    "lat": 15.0492,
    "lng": -91.63944
  },
  {
    "id": 3598787,
    "name": "Champerico",
    "lat": 14.29206,
    "lng": -91.91339
  },
  {
    "id": 3589780,
    "name": "San Martín Jilotepeque",
    "lat": 14.78008,
    "lng": -90.79259
  },
  {
    "id": 3589637,
    "name": "San Pedro La Laguna",
    "lat": 14.69297,
    "lng": -91.27201
  },
  {
    "id": 3591629,
    "name": "Parramos",
    "lat": 14.60891,
    "lng": -90.80303
  },
  {
    "id": 3589507,
    "name": "Santa Ana",
    "lat": 16.80582,
    "lng": -89.82708
  },
  {
    "id": 3587578,
    "name": "Zacualpa",
    "lat": 15.02681,
    "lng": -90.87815
  },
  {
    "id": 3590323,
    "name": "San Cristóbal Cucho",
    "lat": 14.90505,
    "lng": -91.78123
  },
  {
    "id": 3588984,
    "name": "Sayaxché",
    "lat": 16.52446,
    "lng": -90.18801
  },
  {
    "id": 3588603,
    "name": "Tactic",
    "lat": 15.32218,
    "lng": -90.35448
  },
  {
    "id": 3590567,
    "name": "Samayac",
    "lat": 14.58084,
    "lng": -91.46135
  },
  {
    "id": 3595757,
    "name": "Estanzuela",
    "lat": 14.99777,
    "lng": -89.57285
  },
  {
    "id": 3598005,
    "name": "Concepción Huista",
    "lat": 15.62378,
    "lng": -91.66521
  },
  {
    "id": 3595929,
    "name": "El Tumbador",
    "lat": 14.86375,
    "lng": -91.93416
  },
  {
    "id": 3589072,
    "name": "Santo Domingo Xenacoj",
    "lat": 14.68057,
    "lng": -90.70012
  },
  {
    "id": 3589569,
    "name": "San Raimundo",
    "lat": 14.76462,
    "lng": -90.59493
  },
  {
    "id": 3594422,
    "name": "La Libertad",
    "lat": 16.7885,
    "lng": -90.11698
  },
  {
    "id": 3598692,
    "name": "Chiantla",
    "lat": 15.35484,
    "lng": -91.45807
  },
  {
    "id": 3589727,
    "name": "San Miguel Dueñas",
    "lat": 14.52241,
    "lng": -90.79938
  },
  {
    "id": 3597772,
    "name": "Cunén",
    "lat": 15.33626,
    "lng": -91.02776
  },
  {
    "id": 3595181,
    "name": "Jocotán",
    "lat": 14.82072,
    "lng": -89.38991
  },
  {
    "id": 3591885,
    "name": "Pajapita",
    "lat": 14.72152,
    "lng": -92.03521
  },
  {
    "id": 3592322,
    "name": "Moyuta",
    "lat": 14.03861,
    "lng": -90.08083
  },
  {
    "id": 3592108,
    "name": "Nuevo Progreso",
    "lat": 14.79174,
    "lng": -91.91946
  },
  {
    "id": 3590114,
    "name": "San Jerónimo",
    "lat": 15.06032,
    "lng": -90.2405
  },
  {
    "id": 3597993,
    "name": "Concepción Chiquirichapa",
    "lat": 14.8551,
    "lng": -91.6236
  },
  {
    "id": 3589408,
    "name": "Santa Cruz Balanyá",
    "lat": 14.68522,
    "lng": -90.91906
  },
  {
    "id": 3590475,
    "name": "San Antonio Aguas Calientes",
    "lat": 14.54676,
    "lng": -90.78054
  },
  {
    "id": 3590449,
    "name": "San Antonio La Paz",
    "lat": 14.75888,
    "lng": -90.28485
  },
  {
    "id": 3598968,
    "name": "Casillas",
    "lat": 14.41915,
    "lng": -90.24328
  },
  {
    "id": 3590804,
    "name": "Río Bravo",
    "lat": 14.40042,
    "lng": -91.31713
  },
  {
    "id": 3589706,
    "name": "San Miguel Sigüilá",
    "lat": 14.89547,
    "lng": -91.61457
  },
  {
    "id": 3592635,
    "name": "Mataquescuintla",
    "lat": 14.52917,
    "lng": -90.18417
  },
  {
    "id": 3598825,
    "name": "Chahal",
    "lat": 15.79122,
    "lng": -89.60518
  },
  {
    "id": 3596423,
    "name": "El Progreso",
    "lat": 14.35604,
    "lng": -89.84854
  },
  {
    "id": 3590537,
    "name": "San Andrés",
    "lat": 16.96863,
    "lng": -89.91181
  },
  {
    "id": 3589036,
    "name": "San Vicente Pacaya",
    "lat": 14.41466,
    "lng": -90.63613
  },
  {
    "id": 3598277,
    "name": "Chuarrancho",
    "lat": 14.81794,
    "lng": -90.51568
  },
  {
    "id": 3589062,
    "name": "Santo Tomás La Unión",
    "lat": 14.63219,
    "lng": -91.41075
  },
  {
    "id": 3589256,
    "name": "Santa María Chiquimula",
    "lat": 15.02992,
    "lng": -91.3292
  },
  {
    "id": 3590347,
    "name": "San Carlos Sija",
    "lat": 14.98436,
    "lng": -91.54912
  },
  {
    "id": 3589841,
    "name": "San Luis",
    "lat": 16.19889,
    "lng": -89.44028
  },
  {
    "id": 3588043,
    "name": "Uspantán",
    "lat": 15.34672,
    "lng": -90.8705
  },
  {
    "id": 3588491,
    "name": "Taxisco",
    "lat": 14.06719,
    "lng": -90.46791
  },
  {
    "id": 3594423,
    "name": "La Libertad",
    "lat": 15.51421,
    "lng": -91.86944
  },
  {
    "id": 3588612,
    "name": "Tacaná",
    "lat": 15.24058,
    "lng": -92.06721
  },
  {
    "id": 3588469,
    "name": "Teculután",
    "lat": 14.98901,
    "lng": -89.71936
  },
  {
    "id": 3590053,
    "name": "San José Acatempa",
    "lat": 14.26528,
    "lng": -90.12694
  },
  {
    "id": 3589074,
    "name": "Santo Domingo Suchitepéquez",
    "lat": 14.47901,
    "lng": -91.48327
  },
  {
    "id": 3590393,
    "name": "San Bartolomé Milpas Altas",
    "lat": 14.6069,
    "lng": -90.67807
  },
  {
    "id": 3589398,
    "name": "Santa Cruz Naranjo",
    "lat": 14.38806,
    "lng": -90.36972
  },
  {
    "id": 3589669,
    "name": "San Pablo La Laguna",
    "lat": 14.72092,
    "lng": -91.27242
  },
  {
    "id": 3597976,
    "name": "Concepción Tutuapa",
    "lat": 15.2394,
    "lng": -91.8446
  },
  {
    "id": 3590788,
    "name": "Río Hondo",
    "lat": 15.04505,
    "lng": -89.58523
  },
  {
    "id": 3589975,
    "name": "San José Poaquil",
    "lat": 14.81808,
    "lng": -90.91248
  },
  {
    "id": 3589159,
    "name": "Santa Rosa de Lima",
    "lat": 14.38806,
    "lng": -90.29556
  },
  {
    "id": 3589395,
    "name": "Santa Cruz Verapaz",
    "lat": 15.37342,
    "lng": -90.42857
  },
  {
    "id": 3590458,
    "name": "San Antonio Huista",
    "lat": 15.6501,
    "lng": -91.77163
  },
  {
    "id": 3599912,
    "name": "Aguacatán",
    "lat": 15.34222,
    "lng": -91.31141
  },
  {
    "id": 3589774,
    "name": "San Mateo",
    "lat": 14.858,
    "lng": -91.59004
  },
  {
    "id": 3590384,
    "name": "San Bernardino",
    "lat": 14.5424,
    "lng": -91.45811
  },
  {
    "id": 3591028,
    "name": "Purulhá",
    "lat": 15.23566,
    "lng": -90.23571
  },
  {
    "id": 3589433,
    "name": "Santa Clara La Laguna",
    "lat": 14.71509,
    "lng": -91.30355
  },
  {
    "id": 3595366,
    "name": "Ipala",
    "lat": 14.61987,
    "lng": -89.6194
  },
  {
    "id": 3590522,
    "name": "San Andrés Villa Seca",
    "lat": 14.57801,
    "lng": -91.58539
  },
  {
    "id": 3588040,
    "name": "Usumatlán",
    "lat": 14.94779,
    "lng": -89.77712
  },
  {
    "id": 3589355,
    "name": "Santa Eulalia",
    "lat": 15.7306,
    "lng": -91.45846
  },
  {
    "id": 3590030,
    "name": "San José del Golfo",
    "lat": 14.76414,
    "lng": -90.37228
  },
  {
    "id": 3594143,
    "name": "La Reforma",
    "lat": 14.80104,
    "lng": -91.82233
  },
  {
    "id": 3588206,
    "name": "Tucurú",
    "lat": 15.29402,
    "lng": -90.11916
  },
  {
    "id": 3599298,
    "name": "Cabañas",
    "lat": 14.93333,
    "lng": -89.8
  },
  {
    "id": 3599265,
    "name": "Cahabón",
    "lat": 15.60662,
    "lng": -89.81172
  },
  {
    "id": 3589896,
    "name": "San Juan La Laguna",
    "lat": 14.69453,
    "lng": -91.28666
  },
  {
    "id": 3595224,
    "name": "Jerez",
    "lat": 14.09083,
    "lng": -89.7511
  },
  {
    "id": 3589776,
    "name": "San Martín Zapotitlán",
    "lat": 14.60794,
    "lng": -91.60613
  },
  {
    "id": 3592086,
    "name": "Ocós",
    "lat": 14.50998,
    "lng": -92.19298
  },
  {
    "id": 3588588,
    "name": "Tajumulco",
    "lat": 15.08349,
    "lng": -91.92225
  },
  {
    "id": 3589577,
    "name": "San Rafael Pie de la Cuesta",
    "lat": 14.93052,
    "lng": -91.91388
  },
  {
    "id": 3596940,
    "name": "El Jícaro",
    "lat": 14.91333,
    "lng": -89.89654
  },
  {
    "id": 3591092,
    "name": "Pueblo Nuevo Viñas",
    "lat": 14.22576,
    "lng": -90.47613
  },
  {
    "id": 3590318,
    "name": "San Cristóbal Totonicapán",
    "lat": 14.91682,
    "lng": -91.4406
  },
  {
    "id": 3590973,
    "name": "Quezaltepeque",
    "lat": 14.63553,
    "lng": -89.44241
  },
  {
    "id": 3590195,
    "name": "San Gabriel",
    "lat": 14.51076,
    "lng": -91.50745
  },
  {
    "id": 3595255,
    "name": "Iztapa",
    "lat": 13.93333,
    "lng": -90.7075
  },
  {
    "id": 3590249,
    "name": "San Francisco",
    "lat": 16.7978,
    "lng": -89.93507
  },
  {
    "id": 3591210,
    "name": "Pochuta",
    "lat": 14.5445,
    "lng": -91.08904
  },
  {
    "id": 3589554,
    "name": "Sansare",
    "lat": 14.74572,
    "lng": -90.11615
  },
  {
    "id": 3595674,
    "name": "Génova",
    "lat": 14.62216,
    "lng": -91.8358
  },
  {
    "id": 3595282,
    "name": "Ixtahuacán",
    "lat": 15.41688,
    "lng": -91.76927
  },
  {
    "id": 3593500,
    "name": "La Unión",
    "lat": 14.96656,
    "lng": -89.29023
  },
  {
    "id": 3589720,
    "name": "San Miguel Ixtahuacán",
    "lat": 15.27247,
    "lng": -91.74785
  },
  {
    "id": 3589778,
    "name": "San Martín Sacatepéquez",
    "lat": 14.82443,
    "lng": -91.64192
  },
  {
    "id": 3589249,
    "name": "Santa María Ixhuatán",
    "lat": 14.19,
    "lng": -90.27472
  },
  {
    "id": 3590424,
    "name": "San Antonio Palopó",
    "lat": 14.69232,
    "lng": -91.11638
  },
  {
    "id": 3589632,
    "name": "San Pedro Necta",
    "lat": 15.49142,
    "lng": -91.76551
  },
  {
    "id": 3593235,
    "name": "Los Amates",
    "lat": 15.25645,
    "lng": -89.09723
  },
  {
    "id": 3597966,
    "name": "Conguaco",
    "lat": 14.04417,
    "lng": -90.03111
  },
  {
    "id": 3589629,
    "name": "San Pedro Pinula",
    "lat": 14.66349,
    "lng": -89.84625
  },
  {
    "id": 3598006,
    "name": "Concepción",
    "lat": 14.78417,
    "lng": -91.14754
  },
  {
    "id": 3588308,
    "name": "Todos Santos Cuchumatán",
    "lat": 15.50846,
    "lng": -91.60382
  },
  {
    "id": 3589460,
    "name": "Santa Catarina Barahona",
    "lat": 14.55135,
    "lng": -90.78598
  },
  {
    "id": 3591106,
    "name": "Pueblo Nuevo",
    "lat": 14.64709,
    "lng": -91.53946
  },
  {
    "id": 3598958,
    "name": "Catarina",
    "lat": 14.85354,
    "lng": -92.07682
  },
  {
    "id": 3587593,
    "name": "Yupiltepeque",
    "lat": 14.19705,
    "lng": -89.79262
  },
  {
    "id": 3589103,
    "name": "Santiago Chimaltenango",
    "lat": 15.47658,
    "lng": -91.69656
  },
  {
    "id": 3589454,
    "name": "Santa Catarina Palopó",
    "lat": 14.72335,
    "lng": -91.13428
  },
  {
    "id": 3599253,
    "name": "Cajolá",
    "lat": 14.92205,
    "lng": -91.61478
  },
  {
    "id": 3595554,
    "name": "Guanagazapa",
    "lat": 14.22598,
    "lng": -90.64332
  },
  {
    "id": 3599972,
    "name": "Agua Blanca",
    "lat": 14.49805,
    "lng": -89.64961
  },
  {
    "id": 3589734,
    "name": "San Miguel Acatán",
    "lat": 15.70401,
    "lng": -91.59771
  },
  {
    "id": 3587506,
    "name": "Zunilito",
    "lat": 14.61264,
    "lng": -91.5098
  },
  {
    "id": 3595403,
    "name": "Huité",
    "lat": 14.92786,
    "lng": -89.71627
  },
  {
    "id": 3589400,
    "name": "Santa Cruz Muluá",
    "lat": 14.58153,
    "lng": -91.62441
  },
  {
    "id": 3598513,
    "name": "Chinique",
    "lat": 15.04147,
    "lng": -91.02594
  },
  {
    "id": 3589795,
    "name": "San Marcos La Laguna",
    "lat": 14.72504,
    "lng": -91.25844
  },
  {
    "id": 3589923,
    "name": "San Juan Bautista",
    "lat": 14.42274,
    "lng": -91.17904
  },
  {
    "id": 3588460,
    "name": "Tejutla",
    "lat": 15.12254,
    "lng": -91.80635
  },
  {
    "id": 3589812,
    "name": "San Manuel Chaparrón",
    "lat": 14.51987,
    "lng": -89.76917
  },
  {
    "id": 3590524,
    "name": "San Andrés Semetabaj",
    "lat": 14.74497,
    "lng": -91.13344
  },
  {
    "id": 3589592,
    "name": "San Rafael Las Flores",
    "lat": 14.47604,
    "lng": -90.17855
  },
  {
    "id": 3592349,
    "name": "Morazán",
    "lat": 14.93278,
    "lng": -90.14306
  },
  {
    "id": 3589900,
    "name": "San Juan Ixcoy",
    "lat": 15.60022,
    "lng": -91.44639
  },
  {
    "id": 3592217,
    "name": "Nentón",
    "lat": 15.80113,
    "lng": -91.75423
  },
  {
    "id": 3590029,
    "name": "San José El Ídolo",
    "lat": 14.45016,
    "lng": -91.42222
  },
  {
    "id": 3598659,
    "name": "Chiché",
    "lat": 15.00885,
    "lng": -91.06379
  },
  {
    "id": 3589480,
    "name": "Santa Apolonia",
    "lat": 14.79049,
    "lng": -90.97267
  },
  {
    "id": 3597301,
    "name": "El Chol",
    "lat": 14.96055,
    "lng": -90.48799
  },
  {
    "id": 3590017,
    "name": "San José La Arada",
    "lat": 14.72266,
    "lng": -89.58599
  },
  {
    "id": 3591955,
    "name": "Pachalum",
    "lat": 14.92472,
    "lng": -90.66278
  },
  {
    "id": 3597676,
    "name": "El Adelanto",
    "lat": 14.17102,
    "lng": -89.82715
  },
  {
    "id": 3595329,
    "name": "Ixchiguán",
    "lat": 15.16375,
    "lng": -91.93256
  },
  {
    "id": 3590987,
    "name": "Quesada",
    "lat": 14.27028,
    "lng": -90.04028
  },
  {
    "id": 3589880,
    "name": "San Juan Tecuaco",
    "lat": 14.08361,
    "lng": -90.26649
  },
  {
    "id": 3590325,
    "name": "San Cristóbal Acasaguastlán",
    "lat": 14.92485,
    "lng": -89.87427
  },
  {
    "id": 3589869,
    "name": "San Lorenzo",
    "lat": 14.48606,
    "lng": -91.51263
  },
  {
    "id": 3592751,
    "name": "Malacatancito",
    "lat": 15.24457,
    "lng": -91.49901
  },
  {
    "id": 3598670,
    "name": "Chicamán",
    "lat": 15.34786,
    "lng": -90.79968
  },
  {
    "id": 3589709,
    "name": "San Miguel Panán",
    "lat": 14.52865,
    "lng": -91.36733
  },
  {
    "id": 3590456,
    "name": "San Antonio Ilotenango",
    "lat": 15.05472,
    "lng": -91.22986
  },
  {
    "id": 3594315,
    "name": "Lanquín",
    "lat": 15.57568,
    "lng": -89.98078
  },
  {
    "id": 3589498,
    "name": "Santa Ana Huista",
    "lat": 15.68085,
    "lng": -91.82005
  },
  {
    "id": 3590526,
    "name": "San Andrés Sajcabajá",
    "lat": 15.17603,
    "lng": -90.9422
  },
  {
    "id": 3589925,
    "name": "San Juan Atitán",
    "lat": 15.42886,
    "lng": -91.62398
  },
  {
    "id": 3596249,
    "name": "El Rodeo",
    "lat": 14.91447,
    "lng": -91.97631
  },
  {
    "id": 3591618,
    "name": "Pasaco",
    "lat": 13.97722,
    "lng": -90.20639
  },
  {
    "id": 3597802,
    "name": "Cuilco",
    "lat": 15.40719,
    "lng": -91.94667
  },
  {
    "id": 3599094,
    "name": "Canillá",
    "lat": 15.16549,
    "lng": -90.85256
  },
  {
    "id": 3591841,
    "name": "Palestina de los Altos",
    "lat": 14.93338,
    "lng": -91.69403
  },
  {
    "id": 3598041,
    "name": "Colotenango",
    "lat": 15.40602,
    "lng": -91.71267
  },
  {
    "id": 3592035,
    "name": "Olopa",
    "lat": 14.69229,
    "lng": -89.35003
  },
  {
    "id": 3590419,
    "name": "San Antonio Sacatepéquez",
    "lat": 14.9606,
    "lng": -91.73154
  },
  {
    "id": 3588760,
    "name": "Sibinal",
    "lat": 15.14963,
    "lng": -92.04892
  },
  {
    "id": 3589903,
    "name": "San Juan Ermita",
    "lat": 14.76471,
    "lng": -89.43014
  },
  {
    "id": 3590395,
    "name": "San Bartolomé Jocotenango",
    "lat": 15.19153,
    "lng": -91.07806
  },
  {
    "id": 3587546,
    "name": "Zapotitlán",
    "lat": 14.13917,
    "lng": -89.82628
  },
  {
    "id": 3599181,
    "name": "Camotán",
    "lat": 14.82017,
    "lng": -89.37224
  },
  {
    "id": 3595778,
    "name": "Esquipulas Palo Gordo",
    "lat": 14.94135,
    "lng": -91.82564
  },
  {
    "id": 3589579,
    "name": "San Rafael Petzal",
    "lat": 15.40487,
    "lng": -91.66451
  },
  {
    "id": 3590127,
    "name": "San Jacinto",
    "lat": 14.67687,
    "lng": -89.50272
  },
  {
    "id": 3598031,
    "name": "Comapa",
    "lat": 14.11282,
    "lng": -89.91471
  },
  {
    "id": 3589247,
    "name": "Santa María Visitación",
    "lat": 14.71717,
    "lng": -91.30844
  },
  {
    "id": 3589402,
    "name": "Santa Cruz La Laguna",
    "lat": 14.74421,
    "lng": -91.20716
  },
  {
    "id": 3589287,
    "name": "Santa Lucia La Reforma",
    "lat": 15.12819,
    "lng": -91.23619
  },
  {
    "id": 3589541,
    "name": "San Sebastián Huehuetenango",
    "lat": 15.38768,
    "lng": -91.6153
  },
  {
    "id": 3589282,
    "name": "Santa Lucía Utatlán",
    "lat": 14.77135,
    "lng": -91.267
  },
  {
    "id": 3597985,
    "name": "Concepción Las Minas",
    "lat": 14.52173,
    "lng": -89.45717
  },
  {
    "id": 3590399,
    "name": "San Bartolo",
    "lat": 15.08438,
    "lng": -91.45606
  },
  {
    "id": 3589983,
    "name": "San José Ojetenán",
    "lat": 15.21667,
    "lng": -91.96667
  },
  {
    "id": 3590069,
    "name": "San José",
    "lat": 16.98333,
    "lng": -89.9
  },
  {
    "id": 3588762,
    "name": "Sibilia",
    "lat": 14.99391,
    "lng": -91.62371
  },
  {
    "id": 3590213,
    "name": "San Francisco la Unión",
    "lat": 14.9235,
    "lng": -91.54157
  },
  {
    "id": 3589595,
    "name": "San Rafael La Independencia",
    "lat": 15.7015,
    "lng": -91.53553
  },
  {
    "id": 3589640,
    "name": "San Pédro Jocopilas",
    "lat": 15.09525,
    "lng": -91.15135
  },
  {
    "id": 3588554,
    "name": "Tamahú",
    "lat": 15.3089,
    "lng": -90.23599
  },
  {
    "id": 3591517,
    "name": "Patzité",
    "lat": 14.96426,
    "lng": -91.20788
  },
  {
    "id": 3589865,
    "name": "San Lorenzo",
    "lat": 15.03087,
    "lng": -91.73534
  },
  {
    "id": 3595631,
    "name": "Granados",
    "lat": 14.91649,
    "lng": -90.52292
  },
  {
    "id": 3589468,
    "name": "Santa Bárbara",
    "lat": 15.31617,
    "lng": -91.63279
  },
  {
    "id": 3590041,
    "name": "San José Chacayá",
    "lat": 14.77096,
    "lng": -91.21564
  },
  {
    "id": 3590814,
    "name": "Río Blanco",
    "lat": 15.0382,
    "lng": -91.68463
  },
  {
    "id": 3589543,
    "name": "San Sebastián Coatán",
    "lat": 15.73584,
    "lng": -91.56285
  },
  {
    "id": 3588474,
    "name": "Tectitán",
    "lat": 15.3063,
    "lng": -92.06051
  },
  {
    "id": 3588726,
    "name": "Sipacapa",
    "lat": 15.21246,
    "lng": -91.63416
  },
  {
    "id": 3590312,
    "name": "San Diego",
    "lat": 14.78979,
    "lng": -89.77639
  },
  {
    "id": 3590188,
    "name": "San Gaspar Ixchil",
    "lat": 15.38796,
    "lng": -91.72564
  }
]