[
  {
    "id": 3378644,
    "name": "Georgetown",
    "lat": 6.80448,
    "lng": -58.15527
  },
  {
    "id": 3377408,
    "name": "Linden",
    "lat": 6.00815,
    "lng": -58.30724
  },
  {
    "id": 3376762,
    "name": "New Amsterdam",
    "lat": 6.24924,
    "lng": -57.51578
  },
  {
    "id": 7303406,
    "name": "Anna Regina",
    "lat": 7.26555,
    "lng": -58.48265
  },
  {
    "id": 3379507,
    "name": "Bartica",
    "lat": 6.40539,
    "lng": -58.62334
  },
  {
    "id": 3376227,
    "name": "Rose Hall",
    "lat": 6.25577,
    "lng": -57.35502
  },
  {
    "id": 3375941,
    "name": "Skeldon",
    "lat": 5.87035,
    "lng": -57.14681
  },
  {
    "id": 3376223,
    "name": "Rosignol",
    "lat": 6.27095,
    "lng": -57.53697
  },
  {
    "id": 3377267,
    "name": "Mahaica Village",
    "lat": 6.6817,
    "lng": -57.92181
  },
  {
    "id": 3377263,
    "name": "Mahdia",
    "lat": 5.28473,
    "lng": -59.14982
  },
  {
    "id": 3376520,
    "name": "Parika",
    "lat": 6.83712,
    "lng": -58.42941
  },
  {
    "id": 3375409,
    "name": "Vreed-en-Hoop",
    "lat": 6.8109,
    "lng": -58.19375
  },
  {
    "id": 3377265,
    "name": "Mahaicony Village",
    "lat": 6.57212,
    "lng": -57.80624
  },
  {
    "id": 3375103,
    "name": "Windsor Forest",
    "lat": 6.84568,
    "lng": -58.23521
  },
  {
    "id": 3378444,
    "name": "Helena Number One",
    "lat": 6.67305,
    "lng": -57.92454
  },
  {
    "id": 3377301,
    "name": "Mabaruma",
    "lat": 8.20377,
    "lng": -59.78117
  },
  {
    "id": 3377425,
    "name": "Lethem",
    "lat": 3.3726,
    "lng": -59.79967
  }
]