[
  {
    "id": 3718426,
    "name": "Port-au-Prince",
    "lat": 18.54349,
    "lng": -72.33881
  },
  {
    "id": 3726786,
    "name": "Delmas",
    "lat": 18.54478,
    "lng": -72.30036
  },
  {
    "id": 3718420,
    "name": "Port-de-Paix",
    "lat": 19.93984,
    "lng": -72.83037
  },
  {
    "id": 3719028,
    "name": "Pétionville",
    "lat": 18.5125,
    "lng": -72.28528
  },
  {
    "id": 3727135,
    "name": "Croix-des-Bouquets",
    "lat": 18.57677,
    "lng": -72.22625
  },
  {
    "id": 3723779,
    "name": "Jacmel",
    "lat": 18.23569,
    "lng": -72.53686
  },
  {
    "id": 3728474,
    "name": "Cap-Haïtien",
    "lat": 19.75938,
    "lng": -72.19815
  },
  {
    "id": 3722286,
    "name": "Léogâne",
    "lat": 18.5111,
    "lng": -72.63343
  },
  {
    "id": 3728097,
    "name": "Les Cayes",
    "lat": 18.19199,
    "lng": -73.74948
  },
  {
    "id": 3718962,
    "name": "Tigwav",
    "lat": 18.43117,
    "lng": -72.86521
  },
  {
    "id": 3723593,
    "name": "Jérémie",
    "lat": 18.65,
    "lng": -74.11667
  },
  {
    "id": 3717560,
    "name": "Saint-Michel de l'Atalaye",
    "lat": 19.37084,
    "lng": -72.33472
  },
  {
    "id": 3720824,
    "name": "Miragoâne",
    "lat": 18.44599,
    "lng": -73.08957
  },
  {
    "id": 3724696,
    "name": "Gonaïves",
    "lat": 19.44755,
    "lng": -72.68928
  },
  {
    "id": 3717588,
    "name": "Saint-Marc",
    "lat": 19.11136,
    "lng": -72.70078
  },
  {
    "id": 3716667,
    "name": "Thomazeau",
    "lat": 18.65297,
    "lng": -72.09391
  },
  {
    "id": 3724337,
    "name": "Grangwav",
    "lat": 18.4259,
    "lng": -72.76995
  },
  {
    "id": 3716044,
    "name": "Verrettes",
    "lat": 19.0505,
    "lng": -72.46585
  },
  {
    "id": 3723440,
    "name": "Kenscoff",
    "lat": 18.44773,
    "lng": -72.28398
  },
  {
    "id": 3717546,
    "name": "Saint-Raphaël",
    "lat": 19.43877,
    "lng": -72.1991
  },
  {
    "id": 3740016,
    "name": "Ti Port-de-Paix",
    "lat": 19.93333,
    "lng": -72.83333
  },
  {
    "id": 3722124,
    "name": "Lenbe",
    "lat": 19.70603,
    "lng": -72.40336
  },
  {
    "id": 3724233,
    "name": "Gressier",
    "lat": 18.54091,
    "lng": -72.52679
  },
  {
    "id": 3723841,
    "name": "Hinche",
    "lat": 19.1409,
    "lng": -72.01194
  },
  {
    "id": 3725276,
    "name": "Fond Parisien",
    "lat": 18.50547,
    "lng": -71.98122
  },
  {
    "id": 3726674,
    "name": "Désarmes",
    "lat": 18.99345,
    "lng": -72.39058
  },
  {
    "id": 3726540,
    "name": "Dessalines",
    "lat": 19.26177,
    "lng": -72.51611
  },
  {
    "id": 3717600,
    "name": "Saint-Louis du Nord",
    "lat": 19.93397,
    "lng": -72.72138
  },
  {
    "id": 3725170,
    "name": "Fort Liberté",
    "lat": 19.66254,
    "lng": -71.8351
  },
  {
    "id": 3716224,
    "name": "Trou du Nord",
    "lat": 19.61668,
    "lng": -72.02442
  },
  {
    "id": 3719436,
    "name": "Ouanaminthe",
    "lat": 19.54934,
    "lng": -71.72475
  },
  {
    "id": 12558105,
    "name": "Sassier",
    "lat": 18.58336,
    "lng": -74.11833
  },
  {
    "id": 3720811,
    "name": "Mirebalais",
    "lat": 18.83455,
    "lng": -72.1048
  },
  {
    "id": 3724439,
    "name": "Grande Rivière du Nord",
    "lat": 19.57744,
    "lng": -72.16872
  },
  {
    "id": 3722253,
    "name": "Les Anglais",
    "lat": 18.3054,
    "lng": -74.21968
  },
  {
    "id": 3722579,
    "name": "Lascahobas",
    "lat": 18.83047,
    "lng": -71.93563
  },
  {
    "id": 3727327,
    "name": "Cornillon",
    "lat": 18.67546,
    "lng": -71.95271
  },
  {
    "id": 3724145,
    "name": "Gros Morne",
    "lat": 19.6708,
    "lng": -72.67808
  },
  {
    "id": 3731132,
    "name": "Anse à Galets",
    "lat": 18.83449,
    "lng": -72.86644
  },
  {
    "id": 3718834,
    "name": "Pignon",
    "lat": 19.33594,
    "lng": -72.11662
  },
  {
    "id": 3727055,
    "name": "Dame-Marie",
    "lat": 18.56107,
    "lng": -74.42167
  },
  {
    "id": 3720854,
    "name": "Milot",
    "lat": 19.60837,
    "lng": -72.21319
  },
  {
    "id": 3723618,
    "name": "Jean-Rabel",
    "lat": 19.85379,
    "lng": -73.19131
  },
  {
    "id": 3731095,
    "name": "Aquin",
    "lat": 18.27974,
    "lng": -73.39433
  },
  {
    "id": 3721711,
    "name": "Mayisad",
    "lat": 19.17607,
    "lng": -72.13958
  },
  {
    "id": 3726263,
    "name": "Dondon",
    "lat": 19.52734,
    "lng": -72.24337
  },
  {
    "id": 3716669,
    "name": "Thomassique",
    "lat": 19.08209,
    "lng": -71.83855
  },
  {
    "id": 3731105,
    "name": "Anse Rouge",
    "lat": 19.63382,
    "lng": -73.0553
  },
  {
    "id": 3722339,
    "name": "Borgne",
    "lat": 19.84507,
    "lng": -72.52349
  },
  {
    "id": 3718826,
    "name": "Pilate",
    "lat": 19.66745,
    "lng": -72.55229
  },
  {
    "id": 3718666,
    "name": "Plaisance",
    "lat": 19.59795,
    "lng": -72.46994
  },
  {
    "id": 3731087,
    "name": "Arcahaie",
    "lat": 19.81667,
    "lng": -72.91667
  },
  {
    "id": 3728964,
    "name": "Cabaret",
    "lat": 18.73582,
    "lng": -72.41929
  },
  {
    "id": 3727902,
    "name": "Chardonnière",
    "lat": 18.27484,
    "lng": -74.16613
  },
  {
    "id": 3718431,
    "name": "Port-à-Piment",
    "lat": 18.24963,
    "lng": -74.0971
  },
  {
    "id": 3722110,
    "name": "Limonade",
    "lat": 19.67014,
    "lng": -72.1243
  },
  {
    "id": 3725519,
    "name": "Ferrier",
    "lat": 19.61549,
    "lng": -71.77792
  },
  {
    "id": 3716663,
    "name": "Thomonde",
    "lat": 19.0173,
    "lng": -71.96235
  },
  {
    "id": 3731233,
    "name": "Acul du Nord",
    "lat": 19.68075,
    "lng": -72.31978
  },
  {
    "id": 3720765,
    "name": "Môle Saint-Nicolas",
    "lat": 19.80794,
    "lng": -73.37786
  },
  {
    "id": 3718411,
    "name": "Port-Margot",
    "lat": 19.7518,
    "lng": -72.43006
  },
  {
    "id": 3716619,
    "name": "Tiburon",
    "lat": 18.32589,
    "lng": -74.39598
  },
  {
    "id": 3728054,
    "name": "Cerca la Source",
    "lat": 19.16696,
    "lng": -71.79015
  },
  {
    "id": 3725222,
    "name": "Fonds Verrettes",
    "lat": 18.39566,
    "lng": -71.85634
  },
  {
    "id": 3727398,
    "name": "Corail",
    "lat": 18.56766,
    "lng": -73.88942
  },
  {
    "id": 3725364,
    "name": "Fond des Blancs",
    "lat": 18.27782,
    "lng": -73.12733
  },
  {
    "id": 3730363,
    "name": "Belle-Anse",
    "lat": 18.23768,
    "lng": -72.06638
  },
  {
    "id": 3718707,
    "name": "Plaine du Nord",
    "lat": 19.67707,
    "lng": -72.26969
  },
  {
    "id": 3716679,
    "name": "Thiotte",
    "lat": 18.24384,
    "lng": -71.84157
  },
  {
    "id": 3727287,
    "name": "Kotdefè",
    "lat": 18.18872,
    "lng": -73.00287
  },
  {
    "id": 3718924,
    "name": "Phaëton",
    "lat": 19.67525,
    "lng": -71.89691
  },
  {
    "id": 3722239,
    "name": "Les Irois",
    "lat": 18.4049,
    "lng": -74.4528
  },
  {
    "id": 3721280,
    "name": "Marmelade",
    "lat": 19.51736,
    "lng": -72.36133
  },
  {
    "id": 3718938,
    "name": "Petit Trou de Nippes",
    "lat": 18.52535,
    "lng": -73.50815
  },
  {
    "id": 3728386,
    "name": "Carice",
    "lat": 19.37795,
    "lng": -71.8303
  },
  {
    "id": 3720667,
    "name": "Montòrganize",
    "lat": 19.40815,
    "lng": -71.78132
  },
  {
    "id": 3727297,
    "name": "Koto",
    "lat": 18.20601,
    "lng": -74.04013
  },
  {
    "id": 3729548,
    "name": "Bombardopolis",
    "lat": 19.69142,
    "lng": -73.33769
  },
  {
    "id": 3716403,
    "name": "Torbeck",
    "lat": 18.16338,
    "lng": -73.80949
  },
  {
    "id": 3719099,
    "name": "Perches",
    "lat": 19.52201,
    "lng": -71.92323
  },
  {
    "id": 3726728,
    "name": "Dérac",
    "lat": 19.65476,
    "lng": -71.81451
  },
  {
    "id": 3727944,
    "name": "Chantal",
    "lat": 18.20169,
    "lng": -73.88957
  },
  {
    "id": 3720455,
    "name": "Moron",
    "lat": 18.56039,
    "lng": -74.25777
  },
  {
    "id": 3718975,
    "name": "Petite Rivière de Nippes",
    "lat": 18.47611,
    "lng": -73.23495
  },
  {
    "id": 3724432,
    "name": "Grande Saline",
    "lat": 19.26513,
    "lng": -72.76897
  },
  {
    "id": 3731126,
    "name": "Anse-à-Pitre",
    "lat": 18.05,
    "lng": -71.75
  },
  {
    "id": 3731123,
    "name": "Anse-à-Veau",
    "lat": 18.5011,
    "lng": -73.3449
  },
  {
    "id": 3721313,
    "name": "Marigot",
    "lat": 18.23167,
    "lng": -72.32289
  },
  {
    "id": 3730800,
    "name": "Baradères",
    "lat": 18.48255,
    "lng": -73.63884
  },
  {
    "id": 3717916,
    "name": "Roche-à-Bateau",
    "lat": 18.18182,
    "lng": -74.00345
  },
  {
    "id": 3730932,
    "name": "Baie de Henne",
    "lat": 19.66307,
    "lng": -73.20943
  },
  {
    "id": 3730937,
    "name": "Bahon",
    "lat": 19.46959,
    "lng": -72.11466
  },
  {
    "id": 3728093,
    "name": "Cayes-Jacmel",
    "lat": 18.2311,
    "lng": -72.39545
  },
  {
    "id": 3728428,
    "name": "Caracol",
    "lat": 19.69274,
    "lng": -72.01733
  },
  {
    "id": 3719008,
    "name": "Petite Anse",
    "lat": 19.63011,
    "lng": -73.15499
  },
  {
    "id": 3717596,
    "name": "Saint-Louis du Sud",
    "lat": 18.26241,
    "lng": -73.54603
  },
  {
    "id": 3725663,
    "name": "Ennery",
    "lat": 19.48342,
    "lng": -72.48537
  },
  {
    "id": 3727984,
    "name": "Chambellan",
    "lat": 18.55037,
    "lng": -74.31317
  },
  {
    "id": 3718199,
    "name": "Ranquitte",
    "lat": 19.41327,
    "lng": -72.08077
  },
  {
    "id": 3718278,
    "name": "Quartier Morin",
    "lat": 19.69696,
    "lng": -72.15712
  },
  {
    "id": 3731257,
    "name": "Les Abricots",
    "lat": 18.64901,
    "lng": -74.30786
  },
  {
    "id": 3725416,
    "name": "Fond Bassin Bleu",
    "lat": 19.79445,
    "lng": -72.79949
  },
  {
    "id": 3728122,
    "name": "Cavaillon",
    "lat": 18.29987,
    "lng": -73.65455
  },
  {
    "id": 3728562,
    "name": "Camp Perrin",
    "lat": 18.32648,
    "lng": -73.86734
  },
  {
    "id": 3716785,
    "name": "Terre Neuve",
    "lat": 19.59946,
    "lng": -72.78088
  },
  {
    "id": 3722563,
    "name": "L'Asile",
    "lat": 18.38398,
    "lng": -73.41435
  },
  {
    "id": 3731230,
    "name": "Acul Samedi",
    "lat": 19.51881,
    "lng": -71.88214
  },
  {
    "id": 3717617,
    "name": "Saint-Jean du Sud",
    "lat": 18.07611,
    "lng": -73.81254
  }
]