[
  {
    "id": 112931,
    "name": "Tehran",
    "lat": 35.69439,
    "lon": 51.42151
  },
  {
    "id": 124665,
    "name": "Mashhad",
    "lat": 36.29807,
    "lon": 59.60567
  },
  {
    "id": 418863,
    "name": "Isfahan",
    "lat": 32.65246,
    "lon": 51.67462
  },
  {
    "id": 128747,
    "name": "Karaj",
    "lat": 35.83266,
    "lon": 50.99155
  },
  {
    "id": 113646,
    "name": "Tabriz",
    "lat": 38.08,
    "lon": 46.2919
  },
  {
    "id": 115019,
    "name": "Shiraz",
    "lat": 29.61031,
    "lon": 52.53113
  },
  {
    "id": 119208,
    "name": "Qom",
    "lat": 34.6401,
    "lon": 50.8764
  },
  {
    "id": 144448,
    "name": "Ahvaz",
    "lat": 31.31901,
    "lon": 48.6842
  },
  {
    "id": 10630176,
    "name": "Pasragad Branch",
    "lat": 34.77772,
    "lon": 48.47168
  },
  {
    "id": 128226,
    "name": "Kermanshah",
    "lat": 34.31417,
    "lon": 47.065
  },
  {
    "id": 118743,
    "name": "Rasht",
    "lat": 37.27611,
    "lon": 49.58862
  },
  {
    "id": 128234,
    "name": "Kerman",
    "lat": 30.28321,
    "lon": 57.07879
  },
  {
    "id": 121801,
    "name": "Orūmīyeh",
    "lat": 37.55274,
    "lon": 45.07605
  },
  {
    "id": 1159301,
    "name": "Zahedan",
    "lat": 29.4963,
    "lon": 60.8629
  },
  {
    "id": 132144,
    "name": "Hamadān",
    "lat": 34.79922,
    "lon": 48.51456
  },
  {
    "id": 14256,
    "name": "Āzādshahr",
    "lat": 34.79049,
    "lon": 48.57011
  },
  {
    "id": 143127,
    "name": "Arāk",
    "lat": 34.09493,
    "lon": 49.69809
  },
  {
    "id": 111822,
    "name": "Yazd",
    "lat": 31.89722,
    "lon": 54.3675
  },
  {
    "id": 449504,
    "name": "Eslamshahr",
    "lat": 35.55222,
    "lon": 51.23504
  },
  {
    "id": 143083,
    "name": "Ardabīl",
    "lat": 38.2498,
    "lon": 48.2933
  },
  {
    "id": 145459,
    "name": "Abadan",
    "lat": 30.3392,
    "lon": 48.3043
  },
  {
    "id": 111453,
    "name": "Zanjan",
    "lat": 36.67642,
    "lon": 48.49628
  },
  {
    "id": 141681,
    "name": "Bandar Abbas",
    "lat": 27.1865,
    "lon": 56.2808
  },
  {
    "id": 117574,
    "name": "Sanandaj",
    "lat": 35.31495,
    "lon": 46.99883
  },
  {
    "id": 119505,
    "name": "Qazvin",
    "lat": 36.26877,
    "lon": 50.0041
  },
  {
    "id": 127319,
    "name": "Khorramshahr",
    "lat": 30.44079,
    "lon": 48.18428
  },
  {
    "id": 127349,
    "name": "Khorramabad",
    "lat": 33.48778,
    "lon": 48.35583
  },
  {
    "id": 120292,
    "name": "Shahr-e Qods",
    "lat": 35.7214,
    "lon": 51.109
  },
  {
    "id": 418710,
    "name": "Khomeynī Shahr",
    "lat": 32.6856,
    "lon": 51.53609
  },
  {
    "id": 124878,
    "name": "Marāgheh",
    "lat": 35.82916,
    "lon": 59.63324
  },
  {
    "id": 124877,
    "name": "Marāgheh",
    "lat": 37.39206,
    "lon": 46.23909
  },
  {
    "id": 116996,
    "name": "Sari",
    "lat": 36.56332,
    "lon": 53.06009
  },
  {
    "id": 140044,
    "name": "Borūjerd",
    "lat": 33.8973,
    "lon": 48.7516
  },
  {
    "id": 32767,
    "name": "Qarchak",
    "lat": 35.42873,
    "lon": 51.57757
  },
  {
    "id": 132892,
    "name": "Gorgān",
    "lat": 36.8427,
    "lon": 54.44391
  },
  {
    "id": 32900,
    "name": "Golestān",
    "lat": 35.5183,
    "lon": 51.1819
  },
  {
    "id": 118063,
    "name": "Sabzevar",
    "lat": 36.2126,
    "lon": 57.68191
  },
  {
    "id": 418606,
    "name": "Najafābād",
    "lat": 32.63464,
    "lon": 51.36525
  },
  {
    "id": 122285,
    "name": "Neyshābūr",
    "lat": 36.21329,
    "lon": 58.79575
  },
  {
    "id": 122438,
    "name": "Naz̧arābād",
    "lat": 35.95411,
    "lon": 50.60607
  },
  {
    "id": 139889,
    "name": "Būkān",
    "lat": 36.521,
    "lon": 46.2089
  },
  {
    "id": 114259,
    "name": "Sirjan",
    "lat": 29.45137,
    "lon": 55.6809
  },
  {
    "id": 142363,
    "name": "Bābol",
    "lat": 36.55102,
    "lon": 52.6786
  },
  {
    "id": 13405749,
    "name": "Nasimshahr",
    "lat": 35.56528,
    "lon": 51.1583
  },
  {
    "id": 143534,
    "name": "Āmol",
    "lat": 36.46961,
    "lon": 52.35072
  },
  {
    "id": 140463,
    "name": "Bīrjand",
    "lat": 32.86628,
    "lon": 59.22114
  },
  {
    "id": 140380,
    "name": "Bojnūrd",
    "lat": 37.47473,
    "lon": 57.32903
  },
  {
    "id": 124082,
    "name": "Mīāneh",
    "lat": 37.421,
    "lon": 47.715
  },
  {
    "id": 112214,
    "name": "Varāmīn",
    "lat": 35.3242,
    "lon": 51.6457
  },
  {
    "id": 125185,
    "name": "Malāyer",
    "lat": 34.30158,
    "lon": 48.82166
  },
  {
    "id": 116667,
    "name": "Sāveh",
    "lat": 35.0213,
    "lon": 50.3566
  },
  {
    "id": 126972,
    "name": "Khowy",
    "lat": 38.5503,
    "lon": 44.9521
  },
  {
    "id": 417472,
    "name": "Shāhīn Shahr",
    "lat": 32.85788,
    "lon": 51.5529
  },
  {
    "id": 139817,
    "name": "Bushehr",
    "lat": 28.96887,
    "lon": 50.83657
  },
  {
    "id": 141663,
    "name": "Bandar-e Māhshahr",
    "lat": 30.55655,
    "lon": 49.18852
  },
  {
    "id": 125446,
    "name": "Mahābād",
    "lat": 36.7631,
    "lon": 45.7222
  },
  {
    "id": 117392,
    "name": "Saqqez",
    "lat": 36.24992,
    "lon": 46.2735
  },
  {
    "id": 124721,
    "name": "Marvdasht",
    "lat": 29.8742,
    "lon": 52.8025
  },
  {
    "id": 118994,
    "name": "Rafsanjān",
    "lat": 30.4067,
    "lon": 55.9939
  },
  {
    "id": 41548,
    "name": "Kamālshahr",
    "lat": 35.86187,
    "lon": 50.87424
  },
  {
    "id": 130531,
    "name": "Jahrom",
    "lat": 28.5,
    "lon": 53.5605
  },
  {
    "id": 130802,
    "name": "Īlām",
    "lat": 33.6374,
    "lon": 46.4227
  },
  {
    "id": 143420,
    "name": "Andīmeshk",
    "lat": 32.4615,
    "lon": 48.35368
  },
  {
    "id": 418533,
    "name": "Shahreẕā",
    "lat": 32.00877,
    "lon": 51.86407
  },
  {
    "id": 124085,
    "name": "Mīāndoāb",
    "lat": 36.96667,
    "lon": 46.10961
  },
  {
    "id": 135423,
    "name": "Shahrud",
    "lat": 36.41819,
    "lon": 54.97628
  },
  {
    "id": 132938,
    "name": "Gonbad-e Kāvūs",
    "lat": 37.25004,
    "lon": 55.16721
  },
  {
    "id": 1160939,
    "name": "Iranshahr",
    "lat": 27.20245,
    "lon": 60.68476
  },
  {
    "id": 6925362,
    "name": "Jīroft",
    "lat": 28.67806,
    "lon": 57.74056
  },
  {
    "id": 115770,
    "name": "Shahr-e Kord",
    "lat": 32.32612,
    "lon": 50.8572
  },
  {
    "id": 112646,
    "name": "Torbat-e Ḩeydarīyeh",
    "lat": 35.27401,
    "lon": 59.21949
  },
  {
    "id": 116402,
    "name": "Semnan",
    "lat": 35.57691,
    "lon": 53.39205
  },
  {
    "id": 124862,
    "name": "Marand",
    "lat": 38.4329,
    "lon": 45.7749
  },
  {
    "id": 1113217,
    "name": "Zābol",
    "lat": 31.0306,
    "lon": 61.4949
  },
  {
    "id": 135878,
    "name": "Dorūd",
    "lat": 33.49218,
    "lon": 49.0616
  },
  {
    "id": 400771,
    "name": "Moḩammad Shahr",
    "lat": 35.763,
    "lon": 50.9171
  },
  {
    "id": 130697,
    "name": "Īz̄eh",
    "lat": 31.83027,
    "lon": 49.86756
  },
  {
    "id": 32909,
    "name": "Shahre Jadide Andisheh",
    "lat": 35.6803,
    "lon": 51.0193
  },
  {
    "id": 119115,
    "name": "Qūchān",
    "lat": 37.106,
    "lon": 58.50955
  },
  {
    "id": 124620,
    "name": "Masjed Soleymān",
    "lat": 31.9364,
    "lon": 49.3039
  },
  {
    "id": 141679,
    "name": "Bandar-e Anzalī",
    "lat": 37.47318,
    "lon": 49.45785
  },
  {
    "id": 141584,
    "name": "Bāneh",
    "lat": 35.9975,
    "lon": 45.8853
  },
  {
    "id": 121380,
    "name": "Pārsābād",
    "lat": 39.6482,
    "lon": 47.9174
  },
  {
    "id": 126015,
    "name": "Lāhījān",
    "lat": 37.20416,
    "lon": 50.00919
  },
  {
    "id": 126409,
    "name": "Kūhdasht",
    "lat": 33.53335,
    "lon": 47.60999
  },
  {
    "id": 141736,
    "name": "Bam",
    "lat": 29.106,
    "lon": 58.357
  },
  {
    "id": 134721,
    "name": "Fasā",
    "lat": 28.9383,
    "lon": 53.6482
  },
  {
    "id": 66093,
    "name": "Yasuj",
    "lat": 30.66824,
    "lon": 51.58796
  },
  {
    "id": 128447,
    "name": "Kāshmar",
    "lat": 35.23831,
    "lon": 58.46558
  },
  {
    "id": 136014,
    "name": "Dogonbadan",
    "lat": 30.3586,
    "lon": 50.7981
  },
  {
    "id": 128321,
    "name": "Kāzerūn",
    "lat": 29.61919,
    "lon": 51.6535
  },
  {
    "id": 144616,
    "name": "Ahar",
    "lat": 38.4774,
    "lon": 47.0699
  },
  {
    "id": 140918,
    "name": "Behshahr",
    "lat": 36.69235,
    "lon": 53.55262
  },
  {
    "id": 124778,
    "name": "Marīvān",
    "lat": 35.51829,
    "lon": 46.18298
  },
  {
    "id": 143921,
    "name": "Alīgūdarz",
    "lat": 33.404,
    "lon": 49.69179
  },
  {
    "id": 135175,
    "name": "Eslāmābād-e Gharb",
    "lat": 34.1089,
    "lon": 46.52988
  },
  {
    "id": 10570,
    "name": "Alvand",
    "lat": 36.1893,
    "lon": 50.0643
  },
  {
    "id": 119161,
    "name": "Qorveh",
    "lat": 35.1664,
    "lon": 47.80564
  },
  {
    "id": 140097,
    "name": "Borāzjān",
    "lat": 29.2699,
    "lon": 51.2188
  },
  {
    "id": 113514,
    "name": "Tajrīsh",
    "lat": 35.8044,
    "lon": 51.4256
  },
  {
    "id": 8535197,
    "name": "Shahr-e Jadīd-e Mehestan",
    "lat": 35.98907,
    "lon": 50.74512
  },
  {
    "id": 114930,
    "name": "Shīrvān",
    "lat": 37.39669,
    "lon": 57.92952
  },
  {
    "id": 117656,
    "name": "Salmās",
    "lat": 38.1973,
    "lon": 44.7653
  },
  {
    "id": 140889,
    "name": "Bonāb",
    "lat": 37.3404,
    "lon": 46.0561
  },
  {
    "id": 140951,
    "name": "Behbahān",
    "lat": 30.5959,
    "lon": 50.2417
  },
  {
    "id": 139879,
    "name": "Būmahen",
    "lat": 35.72972,
    "lon": 51.86884
  },
  {
    "id": 418943,
    "name": "Bahārestān",
    "lat": 32.48814,
    "lon": 51.77312
  },
  {
    "id": 8521444,
    "name": "Bandar-e Emam Khomeyni",
    "lat": 30.43698,
    "lon": 49.10288
  },
  {
    "id": 114584,
    "name": "Shūshtar",
    "lat": 32.04972,
    "lon": 48.84843
  },
  {
    "id": 127403,
    "name": "Khomeyn",
    "lat": 33.63889,
    "lon": 50.08003
  },
  {
    "id": 122915,
    "name": "Nahāvand",
    "lat": 34.19088,
    "lon": 48.37446
  },
  {
    "id": 143748,
    "name": "Alvand",
    "lat": 36.31885,
    "lon": 49.16773
  },
  {
    "id": 118826,
    "name": "Rāmhormoz",
    "lat": 31.27997,
    "lon": 49.60351
  },
  {
    "id": 124210,
    "name": "Meshgīn Shahr",
    "lat": 38.399,
    "lon": 47.682
  },
  {
    "id": 122698,
    "name": "Naqadeh",
    "lat": 36.9553,
    "lon": 45.388
  },
  {
    "id": 24851,
    "name": "Nūrābād",
    "lat": 34.0734,
    "lon": 47.9725
  },
  {
    "id": 6681051,
    "name": "Pardīs",
    "lat": 35.74687,
    "lon": 51.81222
  },
  {
    "id": 113491,
    "name": "Tākestān",
    "lat": 36.07057,
    "lon": 49.69571
  },
  {
    "id": 123941,
    "name": "Mīnāb",
    "lat": 27.13104,
    "lon": 57.08716
  },
  {
    "id": 145034,
    "name": "Abhar",
    "lat": 36.1468,
    "lon": 49.218
  },
  {
    "id": 136987,
    "name": "Dehdasht",
    "lat": 30.79337,
    "lon": 50.56508
  },
  {
    "id": 139223,
    "name": "Chālūs",
    "lat": 36.655,
    "lon": 51.4204
  },
  {
    "id": 1160571,
    "name": "Khāsh",
    "lat": 28.22107,
    "lon": 61.21582
  },
  {
    "id": 125897,
    "name": "Langarūd",
    "lat": 37.19548,
    "lon": 50.15263
  },
  {
    "id": 138025,
    "name": "Dāmghān",
    "lat": 36.1679,
    "lon": 54.34292
  },
  {
    "id": 134518,
    "name": "Fīrūzābād",
    "lat": 28.84459,
    "lon": 52.57151
  },
  {
    "id": 143122,
    "name": "Ārān Bīdgol",
    "lat": 34.05751,
    "lon": 51.48291
  },
  {
    "id": 137956,
    "name": "Dārāb",
    "lat": 28.75171,
    "lon": 54.54065
  },
  {
    "id": 124838,
    "name": "Māhdāsht",
    "lat": 35.7282,
    "lon": 50.8134
  },
  {
    "id": 118367,
    "name": "Robāţ Karīm",
    "lat": 35.4846,
    "lon": 51.0829
  },
  {
    "id": 123205,
    "name": "Meshkīn Dasht",
    "lat": 35.74988,
    "lon": 50.94376
  },
  {
    "id": 121110,
    "name": "Piranshahr",
    "lat": 36.701,
    "lon": 45.1413
  },
  {
    "id": 128905,
    "name": "Kāmyārān",
    "lat": 34.79535,
    "lon": 46.93682
  },
  {
    "id": 1159713,
    "name": "Sarāvān",
    "lat": 27.37089,
    "lon": 62.33096
  },
  {
    "id": 135298,
    "name": "Esfarāyen",
    "lat": 37.07645,
    "lon": 57.51009
  },
  {
    "id": 142872,
    "name": "Asadābād",
    "lat": 34.78241,
    "lon": 48.12012
  },
  {
    "id": 145449,
    "name": "Abadeh",
    "lat": 31.1608,
    "lon": 52.6506
  },
  {
    "id": 48918,
    "name": "Ābādeh",
    "lat": 28.8349,
    "lon": 53.1726
  },
  {
    "id": 111421,
    "name": "Zarand",
    "lat": 30.81271,
    "lon": 56.56399
  },
  {
    "id": 1159362,
    "name": "Torbat-e Jām",
    "lat": 35.244,
    "lon": 60.6225
  },
  {
    "id": 143860,
    "name": "Shahrīār",
    "lat": 35.65884,
    "lon": 51.05775
  },
  {
    "id": 143073,
    "name": "Ardakān",
    "lat": 32.31001,
    "lon": 54.01747
  },
  {
    "id": 131962,
    "name": "Harsīn",
    "lat": 34.2721,
    "lon": 47.5861
  },
  {
    "id": 121925,
    "name": "Nūrābād",
    "lat": 30.11405,
    "lon": 51.52174
  },
  {
    "id": 125188,
    "name": "Malārd",
    "lat": 35.6659,
    "lon": 50.9767
  },
  {
    "id": 126082,
    "name": "Kūt-e ‘Abdollāh",
    "lat": 31.23917,
    "lon": 48.65639
  },
  {
    "id": 131691,
    "name": "Hashtgerd",
    "lat": 35.962,
    "lon": 50.6799
  },
  {
    "id": 144794,
    "name": "Ābyek",
    "lat": 36.06667,
    "lon": 50.55
  },
  {
    "id": 141653,
    "name": "Bandar-e Torkaman",
    "lat": 36.90124,
    "lon": 54.07195
  },
  {
    "id": 140521,
    "name": "Bījār",
    "lat": 35.8668,
    "lon": 47.60506
  },
  {
    "id": 120972,
    "name": "Pīshvā",
    "lat": 35.308,
    "lon": 51.7267
  },
  {
    "id": 128831,
    "name": "Kangāvar",
    "lat": 34.5043,
    "lon": 47.9653
  },
  {
    "id": 134217,
    "name": "Bandar-e Genāveh",
    "lat": 29.5791,
    "lon": 50.517
  },
  {
    "id": 140046,
    "name": "Borūjen",
    "lat": 31.96523,
    "lon": 51.2873
  },
  {
    "id": 115781,
    "name": "Shahr-e Bābak",
    "lat": 30.1165,
    "lon": 55.1186
  },
  {
    "id": 114593,
    "name": "Shūsh",
    "lat": 32.1942,
    "lon": 48.2436
  },
  {
    "id": 124193,
    "name": "Meybod",
    "lat": 32.25014,
    "lon": 54.01658
  },
  {
    "id": 120931,
    "name": "Sarpol-e Z̄ahāb",
    "lat": 34.46109,
    "lon": 45.86264
  },
  {
    "id": 113508,
    "name": "Takāb",
    "lat": 36.4009,
    "lon": 47.1133
  },
  {
    "id": 128008,
    "name": "Khalkhāl",
    "lat": 37.61837,
    "lon": 48.52928
  },
  {
    "id": 121795,
    "name": "Oshnavīyeh",
    "lat": 37.0397,
    "lon": 45.0983
  },
  {
    "id": 41210,
    "name": "Khorramdarreh",
    "lat": 36.20777,
    "lon": 49.19527
  },
  {
    "id": 113659,
    "name": "Tabas",
    "lat": 33.59586,
    "lon": 56.92437
  },
  {
    "id": 418851,
    "name": "Falāvarjān",
    "lat": 32.5553,
    "lon": 51.50973
  },
  {
    "id": 32723,
    "name": "Īstgāh-e Rāh Āhan-e Garmsār",
    "lat": 35.23455,
    "lon": 52.30942
  },
  {
    "id": 418521,
    "name": "Rehnān",
    "lat": 32.68325,
    "lon": 51.60158
  },
  {
    "id": 122397,
    "name": "Nekā",
    "lat": 36.65079,
    "lon": 53.29905
  },
  {
    "id": 142358,
    "name": "Bābolsar",
    "lat": 36.69929,
    "lon": 52.65011
  },
  {
    "id": 110831,
    "name": "Āzādshahr",
    "lat": 37.08641,
    "lon": 55.17222
  },
  {
    "id": 118191,
    "name": "Rūdsar",
    "lat": 37.13696,
    "lon": 50.29174
  },
  {
    "id": 142497,
    "name": "Aznā",
    "lat": 33.45643,
    "lon": 49.45646
  },
  {
    "id": 142496,
    "name": "Aznā",
    "lat": 33.6095,
    "lon": 48.9307
  },
  {
    "id": 1161724,
    "name": "Chabahar",
    "lat": 25.2919,
    "lon": 60.643
  },
  {
    "id": 121861,
    "name": "Omīdīyeh",
    "lat": 30.76277,
    "lon": 49.70226
  },
  {
    "id": 138742,
    "name": "Chenārān",
    "lat": 36.64546,
    "lon": 59.12123
  },
  {
    "id": 125206,
    "name": "Makū",
    "lat": 27.8486,
    "lon": 52.423
  },
  {
    "id": 1159716,
    "name": "Sarakhs",
    "lat": 36.5449,
    "lon": 61.1577
  },
  {
    "id": 117111,
    "name": "Sardasht",
    "lat": 36.1552,
    "lon": 45.4788
  },
  {
    "id": 136702,
    "name": "Dehlorān",
    "lat": 32.6941,
    "lon": 47.2679
  },
  {
    "id": 122289,
    "name": "Neyrīz",
    "lat": 29.1988,
    "lon": 54.3278
  },
  {
    "id": 113343,
    "name": "Hashtpar",
    "lat": 37.79658,
    "lon": 48.90521
  },
  {
    "id": 117368,
    "name": "Sarāb",
    "lat": 37.9408,
    "lon": 47.5367
  },
  {
    "id": 133037,
    "name": "Golpāyegān",
    "lat": 33.4537,
    "lon": 50.28836
  },
  {
    "id": 122491,
    "name": "Naţanz",
    "lat": 33.51118,
    "lon": 51.91808
  },
  {
    "id": 132961,
    "name": "Gonābād",
    "lat": 34.35287,
    "lon": 58.68365
  },
  {
    "id": 1160500,
    "name": "Konārak",
    "lat": 25.3604,
    "lon": 60.3995
  },
  {
    "id": 114049,
    "name": "Sonqor",
    "lat": 34.78187,
    "lon": 47.59945
  },
  {
    "id": 142679,
    "name": "Āstāneh-ye Ashrafīyeh",
    "lat": 37.26318,
    "lon": 49.94325
  },
  {
    "id": 120954,
    "name": "Poldasht",
    "lat": 39.348,
    "lon": 45.071
  },
  {
    "id": 116102,
    "name": "Shādegān",
    "lat": 30.64924,
    "lon": 48.66497
  },
  {
    "id": 137268,
    "name": "Sūsangerd",
    "lat": 31.5635,
    "lon": 48.18958
  },
  {
    "id": 117793,
    "name": "Shāhīn Dezh",
    "lat": 36.6793,
    "lon": 46.5669
  },
  {
    "id": 118704,
    "name": "Rāvar",
    "lat": 31.26562,
    "lon": 56.80545
  },
  {
    "id": 120694,
    "name": "Qā’en",
    "lat": 33.72654,
    "lon": 59.18439
  },
  {
    "id": 121959,
    "name": "Nowshahr",
    "lat": 36.64852,
    "lon": 51.49621
  },
  {
    "id": 142676,
    "name": "Āstārā",
    "lat": 38.43084,
    "lon": 48.86994
  },
  {
    "id": 130245,
    "name": "Javānrūd",
    "lat": 34.79611,
    "lon": 46.51722
  },
  {
    "id": 1159877,
    "name": "Qaşr-e Qand",
    "lat": 26.24833,
    "lon": 60.7525
  },
  {
    "id": 1159384,
    "name": "Tāybād",
    "lat": 34.74,
    "lon": 60.7756
  },
  {
    "id": 112656,
    "name": "Tonekābon",
    "lat": 36.81626,
    "lon": 50.87376
  },
  {
    "id": 418896,
    "name": "Dorcheh Pīāz",
    "lat": 32.61528,
    "lon": 51.55556
  },
  {
    "id": 124647,
    "name": "Bardsīr",
    "lat": 29.92266,
    "lon": 56.57433
  },
  {
    "id": 406993,
    "name": "Eqbālīyeh",
    "lat": 35.3022,
    "lon": 51.5358
  },
  {
    "id": 400833,
    "name": "Shahrak-e Qīāmdasht",
    "lat": 35.5237,
    "lon": 51.6505
  },
  {
    "id": 6648621,
    "name": "Sheybān",
    "lat": 31.40794,
    "lon": 48.7946
  },
  {
    "id": 117773,
    "name": "Rāmsar",
    "lat": 36.91796,
    "lon": 50.64802
  },
  {
    "id": 7329809,
    "name": "Āq Qalā",
    "lat": 37.0139,
    "lon": 54.45504
  },
  {
    "id": 123485,
    "name": "Mohr",
    "lat": 27.5521,
    "lon": 52.88157
  },
  {
    "id": 142247,
    "name": "Bāft",
    "lat": 29.2331,
    "lon": 56.6022
  },
  {
    "id": 134602,
    "name": "Fereydūn Kenār",
    "lat": 36.68489,
    "lon": 52.51917
  },
  {
    "id": 129512,
    "name": "Kalāleh",
    "lat": 37.37899,
    "lon": 55.493
  },
  {
    "id": 418723,
    "name": "Kelīshād va Sūdarjān",
    "lat": 32.55118,
    "lon": 51.52758
  },
  {
    "id": 418868,
    "name": "Dowlatābād",
    "lat": 32.79978,
    "lon": 51.69553
  },
  {
    "id": 136399,
    "name": "Delījān",
    "lat": 33.9905,
    "lon": 50.6838
  },
  {
    "id": 6648117,
    "name": "Shahrak-e Shahīd Chamrān",
    "lat": 30.70838,
    "lon": 49.16266
  },
  {
    "id": 120678,
    "name": "Farrokh Shahr",
    "lat": 32.27174,
    "lon": 50.98008
  },
  {
    "id": 119730,
    "name": "Qarah Ẕīā’ od Dīn",
    "lat": 38.8915,
    "lon": 45.0255
  },
  {
    "id": 125328,
    "name": "Maḩmūdābād",
    "lat": 36.63191,
    "lon": 52.26286
  },
  {
    "id": 44439,
    "name": "Kavār",
    "lat": 29.20505,
    "lon": 52.69043
  },
  {
    "id": 130451,
    "name": "Jam",
    "lat": 27.82977,
    "lon": 52.32518
  },
  {
    "id": 142255,
    "name": "Bāfq",
    "lat": 31.6035,
    "lon": 55.40249
  },
  {
    "id": 123927,
    "name": "Mīnūdasht",
    "lat": 37.23015,
    "lon": 55.37211
  },
  {
    "id": 135205,
    "name": "Eshtehārd",
    "lat": 35.7255,
    "lon": 50.3662
  },
  {
    "id": 401202,
    "name": "Pāsārgād",
    "lat": 30.20194,
    "lon": 53.18
  },
  {
    "id": 144443,
    "name": "Ajab Shīr",
    "lat": 37.4776,
    "lon": 45.8943
  },
  {
    "id": 418571,
    "name": "Qahderījān",
    "lat": 32.5773,
    "lon": 51.45367
  },
  {
    "id": 418699,
    "name": "Khowrzūq",
    "lat": 32.778,
    "lon": 51.64685
  },
  {
    "id": 138042,
    "name": "Damāvand",
    "lat": 35.71842,
    "lon": 52.06958
  },
  {
    "id": 133972,
    "name": "Germī",
    "lat": 39.0215,
    "lon": 48.0801
  },
  {
    "id": 142000,
    "name": "Bahār",
    "lat": 34.9072,
    "lon": 48.4414
  },
  {
    "id": 118223,
    "name": "Rūdehen",
    "lat": 35.73338,
    "lon": 51.90587
  },
  {
    "id": 129933,
    "name": "Jūybār",
    "lat": 36.64088,
    "lon": 52.91206
  },
  {
    "id": 141349,
    "name": "Bardaskan",
    "lat": 35.26218,
    "lon": 57.97075
  },
  {
    "id": 134441,
    "name": "Fūman",
    "lat": 37.224,
    "lon": 49.3125
  },
  {
    "id": 144269,
    "name": "Aleshtar",
    "lat": 33.86419,
    "lon": 48.26258
  },
  {
    "id": 116406,
    "name": "Semīrom",
    "lat": 31.41667,
    "lon": 51.56667
  },
  {
    "id": 113797,
    "name": "Nūr",
    "lat": 36.57168,
    "lon": 52.0153
  },
  {
    "id": 141676,
    "name": "Bandar-e Deylam",
    "lat": 30.0542,
    "lon": 50.159
  },
  {
    "id": 401118,
    "name": "Showţ",
    "lat": 39.2192,
    "lon": 44.77
  },
  {
    "id": 133595,
    "name": "Gerāsh",
    "lat": 27.66966,
    "lon": 54.13586
  },
  {
    "id": 134762,
    "name": "Fārsān",
    "lat": 32.25694,
    "lon": 50.56095
  },
  {
    "id": 119374,
    "name": "Qeshm",
    "lat": 26.9492,
    "lon": 56.2691
  },
  {
    "id": 137436,
    "name": "Darreh Shahr",
    "lat": 33.14447,
    "lon": 47.3799
  },
  {
    "id": 134282,
    "name": "Gālīkesh",
    "lat": 37.27259,
    "lon": 55.43394
  },
  {
    "id": 132382,
    "name": "Ḩājjīābād",
    "lat": 28.3091,
    "lon": 55.9017
  },
  {
    "id": 141665,
    "name": "Bandar-e Lengeh",
    "lat": 26.55792,
    "lon": 54.88067
  },
  {
    "id": 144696,
    "name": "Aghajari",
    "lat": 30.7006,
    "lon": 49.8315
  },
  {
    "id": 418446,
    "name": "Tīrān",
    "lat": 32.70328,
    "lon": 51.15381
  },
  {
    "id": 132458,
    "name": "Hafshejān",
    "lat": 32.22662,
    "lon": 50.79314
  },
  {
    "id": 142567,
    "name": "Shāzand",
    "lat": 33.93132,
    "lon": 49.40629
  },
  {
    "id": 127033,
    "name": "Khvānsār",
    "lat": 33.22052,
    "lon": 50.31497
  },
  {
    "id": 7100777,
    "name": "Mahdishahr",
    "lat": 35.71071,
    "lon": 53.35394
  },
  {
    "id": 126914,
    "name": "Kīsh",
    "lat": 26.55778,
    "lon": 54.01944
  },
  {
    "id": 134781,
    "name": "Farrāshband",
    "lat": 28.86012,
    "lon": 52.09452
  },
  {
    "id": 119264,
    "name": "Qīr",
    "lat": 28.4825,
    "lon": 53.0346
  },
  {
    "id": 418950,
    "name": "Abrīsham",
    "lat": 32.55613,
    "lon": 51.57325
  },
  {
    "id": 113723,
    "name": "Surian",
    "lat": 30.4551,
    "lon": 53.651
  },
  {
    "id": 114489,
    "name": "Sīāhkal",
    "lat": 37.15328,
    "lon": 49.87136
  },
  {
    "id": 125688,
    "name": "Līkak",
    "lat": 30.8949,
    "lon": 50.0931
  },
  {
    "id": 118532,
    "name": "Reẕvānshahr",
    "lat": 37.54947,
    "lon": 49.13736
  },
  {
    "id": 118805,
    "name": "Rāmshīr",
    "lat": 30.89315,
    "lon": 49.40787
  },
  {
    "id": 113632,
    "name": "Taft",
    "lat": 31.74384,
    "lon": 54.20278
  },
  {
    "id": 145233,
    "name": "Ābdānān",
    "lat": 32.9926,
    "lon": 47.4198
  },
  {
    "id": 6746932,
    "name": "Mahājerān",
    "lat": 34.05042,
    "lon": 49.43498
  },
  {
    "id": 1160120,
    "name": "Nehbandān",
    "lat": 31.54185,
    "lon": 60.03648
  },
  {
    "id": 143471,
    "name": "‘Anbarābād",
    "lat": 28.4759,
    "lon": 57.848
  },
  {
    "id": 490,
    "name": "Lavāsān",
    "lat": 35.82159,
    "lon": 51.64444
  },
  {
    "id": 141015,
    "name": "Māsāl",
    "lat": 37.3631,
    "lon": 49.1329
  },
  {
    "id": 121240,
    "name": "Pāveh",
    "lat": 35.0434,
    "lon": 46.3565
  },
  {
    "id": 41428,
    "name": "Pādegān-e Manjīl",
    "lat": 36.7415,
    "lon": 49.4161
  },
  {
    "id": 1160110,
    "name": "Nīkshahr",
    "lat": 26.2258,
    "lon": 60.2143
  },
  {
    "id": 142554,
    "name": "Hashtrūd",
    "lat": 37.4779,
    "lon": 47.0508
  },
  {
    "id": 143052,
    "name": "Ardestān",
    "lat": 33.37939,
    "lon": 52.36981
  },
  {
    "id": 132428,
    "name": "Haftkel",
    "lat": 31.44686,
    "lon": 49.52951
  },
  {
    "id": 124967,
    "name": "Manjīl",
    "lat": 36.74445,
    "lon": 49.40082
  },
  {
    "id": 143499,
    "name": "Anār",
    "lat": 30.87066,
    "lon": 55.27025
  },
  {
    "id": 9480732,
    "name": "Boshrūyeh",
    "lat": 33.86845,
    "lon": 57.42885
  },
  {
    "id": 125961,
    "name": "Lālejīn",
    "lat": 34.9746,
    "lon": 48.4758
  },
  {
    "id": 144263,
    "name": "Alavijeh",
    "lat": 33.0548,
    "lon": 51.08331
  },
  {
    "id": 137782,
    "name": "Dargahān",
    "lat": 26.96316,
    "lon": 56.06278
  },
  {
    "id": 113636,
    "name": "Tafresh",
    "lat": 34.69307,
    "lon": 50.01601
  },
  {
    "id": 1159302,
    "name": "Zehak",
    "lat": 30.894,
    "lon": 61.6804
  },
  {
    "id": 134906,
    "name": "Fāmenīn",
    "lat": 35.11593,
    "lon": 48.97336
  },
  {
    "id": 140494,
    "name": "Bīleh Savār",
    "lat": 39.37961,
    "lon": 48.35463
  },
  {
    "id": 145303,
    "name": "'Abās Ābād",
    "lat": 36.72769,
    "lon": 51.10574
  },
  {
    "id": 119010,
    "name": "Rābor",
    "lat": 29.2912,
    "lon": 56.9131
  },
  {
    "id": 134894,
    "name": "Fannūj",
    "lat": 26.57527,
    "lon": 59.64144
  },
  {
    "id": 125726,
    "name": "Landeh",
    "lat": 30.98215,
    "lon": 50.4206
  },
  {
    "id": 134745,
    "name": "Fārūj",
    "lat": 37.23121,
    "lon": 58.219
  },
  {
    "id": 121890,
    "name": "Nūshābād",
    "lat": 34.0797,
    "lon": 51.4368
  },
  {
    "id": 124291,
    "name": "Mehrān",
    "lat": 33.1222,
    "lon": 46.1646
  },
  {
    "id": 134601,
    "name": "Fereydūnshahr",
    "lat": 32.94195,
    "lon": 50.11991
  },
  {
    "id": 403707,
    "name": "Arvand Kenār",
    "lat": 29.97775,
    "lon": 48.51777
  },
  {
    "id": 141124,
    "name": "Bāsht",
    "lat": 30.361,
    "lon": 51.15735
  },
  {
    "id": 118244,
    "name": "Khalīlābād",
    "lat": 36.80905,
    "lon": 49.41486
  },
  {
    "id": 1159836,
    "name": "Rāsak",
    "lat": 26.23682,
    "lon": 61.39901
  },
  {
    "id": 127593,
    "name": "Khasht",
    "lat": 27.2346,
    "lon": 53.4352
  },
  {
    "id": 113760,
    "name": "Sūrak",
    "lat": 36.59488,
    "lon": 53.20762
  },
  {
    "id": 135244,
    "name": "Eshkanān",
    "lat": 27.2293,
    "lon": 53.6082
  },
  {
    "id": 140586,
    "name": "Bīdkhūn",
    "lat": 27.47885,
    "lon": 52.66722
  },
  {
    "id": 115388,
    "name": "Sharīfābād",
    "lat": 35.42698,
    "lon": 51.78456
  },
  {
    "id": 130081,
    "name": "Julfa",
    "lat": 38.93788,
    "lon": 45.63329
  },
  {
    "id": 141100,
    "name": "Basţām",
    "lat": 36.48534,
    "lon": 54.99959
  },
  {
    "id": 21173,
    "name": "Nūshīn Shar",
    "lat": 37.7349,
    "lon": 45.0513
  },
  {
    "id": 139784,
    "name": "Chāboksar",
    "lat": 36.97372,
    "lon": 50.5701
  },
  {
    "id": 130216,
    "name": "Khārk",
    "lat": 29.26139,
    "lon": 50.33056
  },
  {
    "id": 116076,
    "name": "Shaft",
    "lat": 37.1702,
    "lon": 49.3998
  },
  {
    "id": 138901,
    "name": "Chū’ebdeh-ye Yek",
    "lat": 30.2035,
    "lon": 48.5538
  },
  {
    "id": 117708,
    "name": "Şāleḩābād",
    "lat": 34.9237,
    "lon": 48.3427
  },
  {
    "id": 127389,
    "name": "Khondāb",
    "lat": 34.3928,
    "lon": 49.1841
  },
  {
    "id": 140762,
    "name": "Beyram",
    "lat": 27.43203,
    "lon": 53.51413
  },
  {
    "id": 125798,
    "name": "Laţīfī",
    "lat": 27.6901,
    "lon": 54.3872
  },
  {
    "id": 125834,
    "name": "Lashgarābād",
    "lat": 35.85534,
    "lon": 50.7462
  },
  {
    "id": 141348,
    "name": "Bardestān",
    "lat": 27.87327,
    "lon": 51.96076
  },
  {
    "id": 134715,
    "name": "Fasham",
    "lat": 35.9306,
    "lon": 51.5266
  },
  {
    "id": 117115,
    "name": "Sardasht-e Zeydūn",
    "lat": 30.3277,
    "lon": 50.219
  },
  {
    "id": 115607,
    "name": "Shalamzār",
    "lat": 32.0465,
    "lon": 50.81639
  },
  {
    "id": 145234,
    "name": "Ābdān",
    "lat": 28.0799,
    "lon": 51.76815
  },
  {
    "id": 144364,
    "name": "Akhand",
    "lat": 27.4361,
    "lon": 52.75
  },
  {
    "id": 136556,
    "name": "Deh Pahn",
    "lat": 34.34563,
    "lon": 47.13817
  },
  {
    "id": 403126,
    "name": "Shahrak-e Pābedānā",
    "lat": 31.13444,
    "lon": 56.39806
  },
  {
    "id": 23814,
    "name": "Kahrīz",
    "lat": 34.38347,
    "lon": 47.05544
  },
  {
    "id": 142703,
    "name": "Aşlān Dūz",
    "lat": 39.4439,
    "lon": 47.4056
  },
  {
    "id": 406165,
    "name": "Gahrū",
    "lat": 32.00319,
    "lon": 50.88537
  },
  {
    "id": 141834,
    "name": "Bālā Deh",
    "lat": 27.4023,
    "lon": 53.5799
  },
  {
    "id": 129610,
    "name": "Kujuvar",
    "lat": 38.05993,
    "lon": 46.13809
  },
  {
    "id": 131231,
    "name": "Hormoz",
    "lat": 27.095,
    "lon": 56.4529
  },
  {
    "id": 15269,
    "name": "Nīr",
    "lat": 38.0346,
    "lon": 47.9986
  },
  {
    "id": 122560,
    "name": "Nashtārūd",
    "lat": 36.7509,
    "lon": 51.02362
  },
  {
    "id": 131272,
    "name": "Halor",
    "lat": 26.9669,
    "lon": 56.0834
  },
  {
    "id": 144410,
    "name": "Akbarābād",
    "lat": 29.24609,
    "lon": 52.78081
  },
  {
    "id": 131441,
    "name": "Hashatjīn",
    "lat": 37.36885,
    "lon": 48.32155
  },
  {
    "id": 136983,
    "name": "Dehdez",
    "lat": 31.7096,
    "lon": 50.28827
  },
  {
    "id": 134459,
    "name": "Fīshvar",
    "lat": 27.79832,
    "lon": 53.68469
  },
  {
    "id": 32904,
    "name": "Shahrak-e Emām Ḩasan",
    "lat": 35.48846,
    "lon": 51.34567
  },
  {
    "id": 137202,
    "name": "Dastnā’",
    "lat": 32.05834,
    "lon": 50.77051
  },
  {
    "id": 116739,
    "name": "Sarvābād",
    "lat": 35.3126,
    "lon": 46.3669
  },
  {
    "id": 39874,
    "name": "Āq Qāyeh",
    "lat": 37.27472,
    "lon": 55.15889
  },
  {
    "id": 143064,
    "name": "Ardāq",
    "lat": 36.05273,
    "lon": 49.82412
  },
  {
    "id": 111887,
    "name": "Yengī Emām",
    "lat": 35.9387,
    "lon": 50.7218
  },
  {
    "id": 403541,
    "name": "Dowrāhak",
    "lat": 27.94693,
    "lon": 51.96059
  },
  {
    "id": 113363,
    "name": "Ţāleb ābād",
    "lat": 35.5013,
    "lon": 51.53147
  },
  {
    "id": 126035,
    "name": "Bandar-e Lāft",
    "lat": 26.896,
    "lon": 55.7584
  },
  {
    "id": 112207,
    "name": "Varāvī",
    "lat": 27.466,
    "lon": 53.0542
  },
  {
    "id": 113074,
    "name": "Ţasūj",
    "lat": 29.2697,
    "lon": 52.6994
  },
  {
    "id": 111058,
    "name": "Ziabar (Gaskar)",
    "lat": 37.4261,
    "lon": 49.2459
  },
  {
    "id": 130366,
    "name": "Jongīyeh",
    "lat": 31.25583,
    "lon": 48.61667
  },
  {
    "id": 122111,
    "name": "Noşratābād",
    "lat": 29.9,
    "lon": 59.98333
  },
  {
    "id": 113650,
    "name": "Ţabl",
    "lat": 26.757,
    "lon": 55.7256
  },
  {
    "id": 118139,
    "name": "Rūyān",
    "lat": 36.35038,
    "lon": 55.0025
  },
  {
    "id": 122653,
    "name": "Anārestān",
    "lat": 28.0307,
    "lon": 52.06186
  },
  {
    "id": 118452,
    "name": "Rīz",
    "lat": 28.0525,
    "lon": 52.0725
  },
  {
    "id": 9904,
    "name": "Ţāleqān",
    "lat": 36.17449,
    "lon": 50.76908
  },
  {
    "id": 136301,
    "name": "Deyhūk",
    "lat": 33.29399,
    "lon": 57.51859
  },
  {
    "id": 390054,
    "name": "Kūh Sefīd",
    "lat": 29.2762,
    "lon": 56.8014
  },
  {
    "id": 39189,
    "name": "Qarah Qāshlī",
    "lat": 36.89674,
    "lon": 54.17388
  },
  {
    "id": 115533,
    "name": "Shamsābād",
    "lat": 32.16642,
    "lon": 50.85349
  },
  {
    "id": 418857,
    "name": "Eshkāvand",
    "lat": 32.57883,
    "lon": 51.75915
  },
  {
    "id": 134714,
    "name": "Fashand",
    "lat": 36.03278,
    "lon": 50.75612
  },
  {
    "id": 122232,
    "name": "Neyāsar",
    "lat": 33.97258,
    "lon": 51.14869
  },
  {
    "id": 139981,
    "name": "Bozbāz",
    "lat": 27.4673,
    "lon": 52.7212
  },
  {
    "id": 119247,
    "name": "Qohūrd-e ‘Olyā",
    "lat": 35.43979,
    "lon": 48.07362
  },
  {
    "id": 117422,
    "name": "Sankhvāst",
    "lat": 37.09916,
    "lon": 56.85183
  },
  {
    "id": 6657192,
    "name": "Shahrak-e Nahāl Va Baz̄r",
    "lat": 35.79016,
    "lon": 50.94951
  },
  {
    "id": 119714,
    "name": "Qarnābād",
    "lat": 36.82185,
    "lon": 54.59186
  },
  {
    "id": 140216,
    "name": "Shahrak-e Kūlūrī",
    "lat": 32.35276,
    "lon": 48.47059
  },
  {
    "id": 136661,
    "name": "Dehnow",
    "lat": 27.4519,
    "lon": 52.7364
  },
  {
    "id": 143320,
    "name": "Anūch",
    "lat": 34.10829,
    "lon": 48.57375
  },
  {
    "id": 112025,
    "name": "Vasīān",
    "lat": 33.49083,
    "lon": 48.04917
  },
  {
    "id": 385215,
    "name": "Tāzehābād Kolā",
    "lat": 36.77298,
    "lon": 53.27227
  },
  {
    "id": 13535724,
    "name": "Dabudasht",
    "lat": 36.47982,
    "lon": 52.45056
  },
  {
    "id": 37767,
    "name": "Omīdcheh",
    "lat": 38.28667,
    "lon": 48.14139
  },
  {
    "id": 39770,
    "name": "Moghān",
    "lat": 36.37569,
    "lon": 54.95713
  },
  {
    "id": 143435,
    "name": "Andarvar",
    "lat": 36.58239,
    "lon": 51.73466
  },
  {
    "id": 117698,
    "name": "Soleh Bon",
    "lat": 35.76841,
    "lon": 52.56091
  },
  {
    "id": 144422,
    "name": "Ākand",
    "lat": 36.69501,
    "lon": 53.07981
  },
  {
    "id": 139307,
    "name": "Chalandar",
    "lat": 36.57424,
    "lon": 51.68816
  },
  {
    "id": 992,
    "name": "‘Abdollāhābād",
    "lat": 36.502,
    "lon": 52.12746
  },
  {
    "id": 142852,
    "name": "Āsārā",
    "lat": 36.03705,
    "lon": 51.19468
  },
  {
    "id": 12,
    "name": "Takht-e Qeyşar",
    "lat": 32.05908,
    "lon": 48.86752
  },
  {
    "id": 116626,
    "name": "sedeyen-e Yek",
    "lat": 31.36205,
    "lon": 48.81833
  },
  {
    "id": 6949363,
    "name": "Famast",
    "lat": 34.03897,
    "lon": 48.4626
  },
  {
    "id": 134905,
    "name": "pamas",
    "lat": 34.03791,
    "lon": 48.462
  },
  {
    "id": 6683619,
    "name": "Bast-e Malakhī",
    "lat": 27.7983,
    "lon": 52.3711
  },
  {
    "id": 128898,
    "name": "Konarak-e ‘Olyā",
    "lat": 31.79905,
    "lon": 51.14901
  },
  {
    "id": 28698,
    "name": "Navīdeh",
    "lat": 37.26488,
    "lon": 49.73506
  },
  {
    "id": 41042,
    "name": "Āb Garmak",
    "lat": 27.902,
    "lon": 52.22711
  },
  {
    "id": 141831,
    "name": "Baladeh",
    "lat": 36.2006,
    "lon": 51.80817
  },
  {
    "id": 131728,
    "name": "Hashcheh-ye Soflá",
    "lat": 30.7126,
    "lon": 49.12684
  },
  {
    "id": 114914,
    "name": "Shīt",
    "lat": 36.97775,
    "lon": 48.69911
  },
  {
    "id": 753,
    "name": "Māhīdasht",
    "lat": 34.26923,
    "lon": 46.80316
  },
  {
    "id": 41011,
    "name": "Kalāt",
    "lat": 27.4597,
    "lon": 52.7318
  },
  {
    "id": 404435,
    "name": "Deh Now",
    "lat": 35.5102,
    "lon": 51.3916
  },
  {
    "id": 124122,
    "name": "Mīāb",
    "lat": 38.7011,
    "lon": 45.8019
  },
  {
    "id": 15362,
    "name": "Aliabad-e Keshmar",
    "lat": 35.29153,
    "lon": 58.10014
  },
  {
    "id": 17916,
    "name": "Kandovān",
    "lat": 37.7949,
    "lon": 46.2487
  },
  {
    "id": 122988,
    "name": "Mūsáābād",
    "lat": 32.09417,
    "lon": 50.90268
  },
  {
    "id": 6236,
    "name": "RostamKhan",
    "lat": 33.9,
    "lon": 46.1702
  },
  {
    "id": 124588,
    "name": "Māsūleh",
    "lat": 37.15497,
    "lon": 48.98982
  },
  {
    "id": 8844,
    "name": "Chāksar",
    "lat": 36.67069,
    "lon": 52.43045
  },
  {
    "id": 8556023,
    "name": "Ruchi",
    "lat": 34.25174,
    "lon": 58.504
  },
  {
    "id": 116635,
    "name": "Sedeyen-e Do",
    "lat": 31.36602,
    "lon": 48.82309
  }
]