[
  {
    "id": 250441,
    "name": "Amman",
    "lat": 31.95522,
    "lon": 35.94503
  },
  {
    "id": 250090,
    "name": "Zarqa",
    "lat": 32.07275,
    "lon": 36.08796
  },
  {
    "id": 248946,
    "name": "Irbid",
    "lat": 32.55556,
    "lon": 35.85
  },
  {
    "id": 7838895,
    "name": "Russeifa",
    "lat": 32.01778,
    "lon": 36.04639
  },
  {
    "id": 248460,
    "name": "Khuraybat as Sūq",
    "lat": 31.87913,
    "lon": 35.92098
  },
  {
    "id": 246013,
    "name": "Wādī as Sīr",
    "lat": 31.9545,
    "lon": 35.81831
  },
  {
    "id": 250336,
    "name": "Ar Ramthā",
    "lat": 32.55873,
    "lon": 36.00816
  },
  {
    "id": 13286467,
    "name": "Ṣuwayliḥ",
    "lat": 32.0221,
    "lon": 35.84394
  },
  {
    "id": 250799,
    "name": "‘Ajlūn",
    "lat": 32.33326,
    "lon": 35.75279
  },
  {
    "id": 250258,
    "name": "As Salţ",
    "lat": 32.03917,
    "lon": 35.72722
  },
  {
    "id": 250774,
    "name": "Aqaba",
    "lat": 29.52667,
    "lon": 35.00778
  },
  {
    "id": 11428685,
    "name": "Rukban",
    "lat": 33.31405,
    "lon": 38.70342
  },
  {
    "id": 13308287,
    "name": "Marj Al Hamam",
    "lat": 31.90274,
    "lon": 35.84645
  },
  {
    "id": 248370,
    "name": "Mādabā",
    "lat": 31.71599,
    "lon": 35.79392
  },
  {
    "id": 250582,
    "name": "Mafraq",
    "lat": 32.34289,
    "lon": 36.20804
  },
  {
    "id": 10861986,
    "name": "Az̧ Z̧ulayl",
    "lat": 32.1208,
    "lon": 36.28008
  },
  {
    "id": 248382,
    "name": "Ma'an",
    "lat": 30.19624,
    "lon": 35.73405
  },
  {
    "id": 250637,
    "name": "Al Jubayhah",
    "lat": 32.01071,
    "lon": 35.89802
  },
  {
    "id": 247105,
    "name": "Saḩāb",
    "lat": 31.87032,
    "lon": 36.00479
  },
  {
    "id": 248875,
    "name": "Jarash",
    "lat": 32.28082,
    "lon": 35.89929
  },
  {
    "id": 250198,
    "name": "Aţ Ţafīlah",
    "lat": 30.83752,
    "lon": 35.60442
  },
  {
    "id": 248923,
    "name": "‘Izrā",
    "lat": 31.15889,
    "lon": 35.69278
  },
  {
    "id": 250624,
    "name": "Qīr Moāv",
    "lat": 31.18248,
    "lon": 35.69999
  },
  {
    "id": 6946409,
    "name": "Karak City",
    "lat": 31.16368,
    "lon": 35.76204
  },
  {
    "id": 248803,
    "name": "Judita",
    "lat": 32.40792,
    "lon": 35.70802
  },
  {
    "id": 250718,
    "name": "Al Fuḩayş",
    "lat": 32.00468,
    "lon": 35.78088
  },
  {
    "id": 246314,
    "name": "Umm as Summāq",
    "lat": 31.88542,
    "lon": 35.8543
  },
  {
    "id": 248414,
    "name": "Kurayyimah",
    "lat": 32.27639,
    "lon": 35.59938
  },
  {
    "id": 248299,
    "name": "Māḩiş",
    "lat": 31.98646,
    "lon": 35.76987
  },
  {
    "id": 250420,
    "name": "‘Anjarah",
    "lat": 32.30667,
    "lon": 35.75443
  },
  {
    "id": 250267,
    "name": "Safi",
    "lat": 31.03608,
    "lon": 35.46544
  },
  {
    "id": 250095,
    "name": "Al Azraq ash Shamālī",
    "lat": 31.88209,
    "lon": 36.83017
  },
  {
    "id": 250179,
    "name": "Aţ Ţurrah",
    "lat": 32.63979,
    "lon": 35.98943
  },
  {
    "id": 246008,
    "name": "Wādī Mūsá",
    "lat": 30.32096,
    "lon": 35.47895
  },
  {
    "id": 246725,
    "name": "Sūf",
    "lat": 32.31372,
    "lon": 35.83713
  },
  {
    "id": 250186,
    "name": "Aţ Ţayyibah",
    "lat": 32.54304,
    "lon": 35.71756
  },
  {
    "id": 247068,
    "name": "Sakib",
    "lat": 32.28431,
    "lon": 35.80909
  },
  {
    "id": 250294,
    "name": "Ash Shajarah",
    "lat": 32.64391,
    "lon": 35.94175
  },
  {
    "id": 248843,
    "name": "Jāwā",
    "lat": 31.85247,
    "lon": 35.93928
  },
  {
    "id": 247074,
    "name": "Şakhrah",
    "lat": 32.37087,
    "lon": 35.84267
  },
  {
    "id": 11352362,
    "name": "Ruwaished",
    "lat": 32.5041,
    "lon": 38.2011
  },
  {
    "id": 250124,
    "name": "‘Ayn Jannā",
    "lat": 32.33466,
    "lon": 35.7637
  },
  {
    "id": 250623,
    "name": "Al Karāmah",
    "lat": 31.95439,
    "lon": 35.58033
  },
  {
    "id": 250540,
    "name": "Al Mazār al Janūbī",
    "lat": 31.06722,
    "lon": 35.69486
  },
  {
    "id": 247015,
    "name": "Şammā",
    "lat": 32.57102,
    "lon": 35.68984
  },
  {
    "id": 248734,
    "name": "Kafr Asad",
    "lat": 32.598,
    "lon": 35.71266
  },
  {
    "id": 249930,
    "name": "Bayt Yāfā",
    "lat": 32.52253,
    "lon": 35.78618
  },
  {
    "id": 250462,
    "name": "Al Quwayrah",
    "lat": 29.80045,
    "lon": 35.3116
  },
  {
    "id": 250106,
    "name": "‘Ayy",
    "lat": 31.13371,
    "lon": 35.64375
  },
  {
    "id": 249842,
    "name": "Buşayrā",
    "lat": 30.73256,
    "lon": 35.60943
  },
  {
    "id": 248719,
    "name": "Kafr Sawm",
    "lat": 32.68527,
    "lon": 35.80102
  },
  {
    "id": 249318,
    "name": "Ḩakamā",
    "lat": 32.59354,
    "lon": 35.8832
  },
  {
    "id": 247061,
    "name": "Sāl",
    "lat": 32.56897,
    "lon": 35.91185
  },
  {
    "id": 248250,
    "name": "Malkā",
    "lat": 32.67645,
    "lon": 35.74851
  },
  {
    "id": 248738,
    "name": "Kafr Abīl",
    "lat": 32.41752,
    "lon": 35.66305
  },
  {
    "id": 249676,
    "name": "Dayr Yūsuf",
    "lat": 32.48701,
    "lon": 35.79635
  },
  {
    "id": 250697,
    "name": "Al Ḩamrā’",
    "lat": 32.44017,
    "lon": 36.15265
  },
  {
    "id": 247103,
    "name": "Saḩam al Kaffārāt",
    "lat": 32.69848,
    "lon": 35.77438
  },
  {
    "id": 247340,
    "name": "Raymūn",
    "lat": 32.28202,
    "lon": 35.82779
  },
  {
    "id": 245989,
    "name": "Waqqāş",
    "lat": 32.54214,
    "lon": 35.60508
  },
  {
    "id": 250603,
    "name": "Al Kittah",
    "lat": 32.27685,
    "lon": 35.84114
  },
  {
    "id": 249184,
    "name": "Ḩātim",
    "lat": 32.64492,
    "lon": 35.77771
  },
  {
    "id": 248627,
    "name": "Kharjā",
    "lat": 32.65988,
    "lon": 35.88782
  },
  {
    "id": 249310,
    "name": "Ḩalāwah",
    "lat": 32.38433,
    "lon": 35.66167
  },
  {
    "id": 247176,
    "name": "Şabḩā",
    "lat": 32.32696,
    "lon": 36.50159
  },
  {
    "id": 248434,
    "name": "Kitim",
    "lat": 32.43834,
    "lon": 35.89677
  },
  {
    "id": 250187,
    "name": "Al Khinzīrah",
    "lat": 31.05056,
    "lon": 35.60606
  },
  {
    "id": 246522,
    "name": "Tibnah",
    "lat": 32.47521,
    "lon": 35.73056
  },
  {
    "id": 250052,
    "name": "Balīlā",
    "lat": 32.39109,
    "lon": 35.93832
  },
  {
    "id": 247496,
    "name": "Qumaym",
    "lat": 32.57174,
    "lon": 35.73452
  },
  {
    "id": 245939,
    "name": "Yarqā",
    "lat": 31.97583,
    "lon": 35.69638
  },
  {
    "id": 249849,
    "name": "Burmā",
    "lat": 32.2193,
    "lon": 35.78507
  },
  {
    "id": 249933,
    "name": "Bayt Īdis",
    "lat": 32.43775,
    "lon": 35.69765
  },
  {
    "id": 250821,
    "name": "Adir",
    "lat": 31.20217,
    "lon": 35.76155
  },
  {
    "id": 247659,
    "name": "Qafqafā",
    "lat": 32.34851,
    "lon": 35.93864
  },
  {
    "id": 250639,
    "name": "Al Jīzah",
    "lat": 31.69893,
    "lon": 35.9553
  },
  {
    "id": 246202,
    "name": "Umm Qays",
    "lat": 32.65348,
    "lon": 35.68457
  },
  {
    "id": 13353995,
    "name": "Ash-Shūbak",
    "lat": 30.51909,
    "lon": 35.55773
  },
  {
    "id": 250188,
    "name": "At-Taybeh",
    "lat": 30.25125,
    "lon": 35.4657
  },
  {
    "id": 250345,
    "name": "Ar Rabbah",
    "lat": 31.26923,
    "lon": 35.73829
  },
  {
    "id": 246345,
    "name": "Umm al Qiţţayn",
    "lat": 32.31449,
    "lon": 36.62826
  },
  {
    "id": 245915,
    "name": "Zaḩar",
    "lat": 32.5667,
    "lon": 35.77811
  },
  {
    "id": 250487,
    "name": "Al Qaşr",
    "lat": 31.31407,
    "lon": 35.74393
  },
  {
    "id": 250649,
    "name": "Al Jafr",
    "lat": 30.3184,
    "lon": 36.17775
  },
  {
    "id": 247363,
    "name": "Rāsūn",
    "lat": 32.39982,
    "lon": 35.75971
  },
  {
    "id": 10793675,
    "name": "Tala Bay",
    "lat": 29.40842,
    "lon": 34.97918
  },
  {
    "id": 247601,
    "name": "Qaşr al Ḩallābāt",
    "lat": 32.0955,
    "lon": 36.33232
  },
  {
    "id": 246636,
    "name": "Ţabaqat Faḩl",
    "lat": 32.45103,
    "lon": 35.60898
  }
]