[
  {
    "id": 1850147,
    "name": "Tokyo",
    "lat": 35.6895,
    "lon": 139.69171
  },
  {
    "id": 1848354,
    "name": "Yokohama",
    "lat": 35.43333,
    "lon": 139.65
  },
  {
    "id": 1853909,
    "name": "Osaka",
    "lat": 34.69379,
    "lon": 135.50107
  },
  {
    "id": 1856057,
    "name": "Nagoya",
    "lat": 35.18147,
    "lon": 136.90641
  },
  {
    "id": 2128295,
    "name": "Sapporo",
    "lat": 43.06667,
    "lon": 141.35
  },
  {
    "id": 1863967,
    "name": "Fukuoka",
    "lat": 33.6,
    "lon": 130.41667
  },
  {
    "id": 1859642,
    "name": "Kawasaki",
    "lat": 35.52056,
    "lon": 139.71722
  },
  {
    "id": 1859171,
    "name": "Kobe",
    "lat": 34.6913,
    "lon": 135.183
  },
  {
    "id": 1857910,
    "name": "Kyoto",
    "lat": 35.02107,
    "lon": 135.75385
  },
  {
    "id": 6940394,
    "name": "Saitama",
    "lat": 35.90807,
    "lon": 139.65657
  },
  {
    "id": 1862415,
    "name": "Hiroshima",
    "lat": 34.4,
    "lon": 132.45
  },
  {
    "id": 2111149,
    "name": "Sendai",
    "lat": 38.26667,
    "lon": 140.86667
  },
  {
    "id": 2113015,
    "name": "Chiba",
    "lat": 35.6,
    "lon": 140.11667
  },
  {
    "id": 1859307,
    "name": "Kitakyushu",
    "lat": 33.85181,
    "lon": 130.85034
  },
  {
    "id": 1853195,
    "name": "Sakai",
    "lat": 34.58216,
    "lon": 135.46653
  },
  {
    "id": 1855431,
    "name": "Niigata",
    "lat": 37.92259,
    "lon": 139.04125
  },
  {
    "id": 1863289,
    "name": "Hamamatsu",
    "lat": 34.7,
    "lon": 137.73333
  },
  {
    "id": 8469289,
    "name": "Ōta",
    "lat": 35.56126,
    "lon": 139.71605
  },
  {
    "id": 1858421,
    "name": "Kumamoto",
    "lat": 32.80589,
    "lon": 130.69181
  },
  {
    "id": 1865689,
    "name": "Aihara",
    "lat": 35.6,
    "lon": 139.31667
  },
  {
    "id": 1854383,
    "name": "Okayama",
    "lat": 34.65,
    "lon": 133.93333
  },
  {
    "id": 11611609,
    "name": "Sagamihara",
    "lat": 35.56707,
    "lon": 139.24167
  },
  {
    "id": 1851717,
    "name": "Shizuoka",
    "lat": 34.98333,
    "lon": 138.38333
  },
  {
    "id": 1859730,
    "name": "Kawaguchi",
    "lat": 35.80521,
    "lon": 139.71072
  },
  {
    "id": 1860827,
    "name": "Kagoshima",
    "lat": 31.56667,
    "lon": 130.55
  },
  {
    "id": 1863440,
    "name": "Hachiōji",
    "lat": 35.65583,
    "lon": 139.32389
  },
  {
    "id": 11209896,
    "name": "Kotō",
    "lat": 32.77856,
    "lon": 130.74537
  },
  {
    "id": 1862627,
    "name": "Himeji",
    "lat": 34.81667,
    "lon": 134.7
  },
  {
    "id": 1849053,
    "name": "Utsunomiya",
    "lat": 36.56667,
    "lon": 139.88333
  },
  {
    "id": 1926099,
    "name": "Matsuyama",
    "lat": 33.83916,
    "lon": 132.76574
  },
  {
    "id": 1857553,
    "name": "Matsudo",
    "lat": 35.77995,
    "lon": 139.90144
  },
  {
    "id": 1862752,
    "name": "Higashiosaka",
    "lat": 34.66667,
    "lon": 135.58333
  },
  {
    "id": 1855207,
    "name": "Nishinomiya",
    "lat": 34.71562,
    "lon": 135.33199
  },
  {
    "id": 1858311,
    "name": "Kurashiki",
    "lat": 34.58333,
    "lon": 133.76667
  },
  {
    "id": 1854487,
    "name": "Ōita",
    "lat": 33.23333,
    "lon": 131.6
  },
  {
    "id": 1863917,
    "name": "Fukuyama",
    "lat": 34.48333,
    "lon": 133.36667
  },
  {
    "id": 1860243,
    "name": "Kanazawa",
    "lat": 36.6,
    "lon": 136.61667
  },
  {
    "id": 1865387,
    "name": "Amagasaki",
    "lat": 34.71667,
    "lon": 135.41667
  },
  {
    "id": 8469284,
    "name": "Katsushika",
    "lat": 35.73333,
    "lon": 139.85
  },
  {
    "id": 1864092,
    "name": "Fujisawa",
    "lat": 35.34926,
    "lon": 139.47666
  },
  {
    "id": 1859924,
    "name": "Kashiwa",
    "lat": 35.86224,
    "lon": 139.97732
  },
  {
    "id": 1857871,
    "name": "Machida",
    "lat": 35.54028,
    "lon": 139.45083
  },
  {
    "id": 1849814,
    "name": "Toyota",
    "lat": 35.08333,
    "lon": 137.15
  },
  {
    "id": 1852139,
    "name": "Shinagawa",
    "lat": 33.63627,
    "lon": 133.00572
  },
  {
    "id": 1851100,
    "name": "Takamatsu",
    "lat": 34.33333,
    "lon": 134.05
  },
  {
    "id": 1849876,
    "name": "Toyama",
    "lat": 36.7,
    "lon": 137.21667
  },
  {
    "id": 1848313,
    "name": "Yokosuka",
    "lat": 35.28361,
    "lon": 139.66722
  },
  {
    "id": 1856177,
    "name": "Nagasaki",
    "lat": 32.75,
    "lon": 129.88333
  },
  {
    "id": 1862540,
    "name": "Hirakata",
    "lat": 34.81352,
    "lon": 135.64914
  },
  {
    "id": 1863641,
    "name": "Gifu",
    "lat": 35.42291,
    "lon": 136.76039
  },
  {
    "id": 1849837,
    "name": "Toyonaka",
    "lat": 34.78244,
    "lon": 135.46932
  },
  {
    "id": 1856717,
    "name": "Miyazaki",
    "lat": 31.91667,
    "lon": 131.41667
  },
  {
    "id": 1851483,
    "name": "Suita",
    "lat": 34.76143,
    "lon": 135.51567
  },
  {
    "id": 1854376,
    "name": "Okazaki",
    "lat": 34.95,
    "lon": 137.16667
  },
  {
    "id": 1861949,
    "name": "Ichinomiya",
    "lat": 35.3,
    "lon": 136.8
  },
  {
    "id": 1849846,
    "name": "Toyohashi",
    "lat": 34.76667,
    "lon": 137.38333
  },
  {
    "id": 1852383,
    "name": "Minato",
    "lat": 34.2152,
    "lon": 135.1501
  },
  {
    "id": 1851002,
    "name": "Takasaki",
    "lat": 36.33333,
    "lon": 139.01667
  },
  {
    "id": 1856215,
    "name": "Nagano",
    "lat": 36.65,
    "lon": 138.18333
  },
  {
    "id": 1855612,
    "name": "Nara-shi",
    "lat": 34.68505,
    "lon": 135.80485
  },
  {
    "id": 2112539,
    "name": "Iwaki",
    "lat": 37.05,
    "lon": 140.88333
  },
  {
    "id": 1926004,
    "name": "Wakayama",
    "lat": 34.23333,
    "lon": 135.16667
  },
  {
    "id": 1859740,
    "name": "Kawagoe",
    "lat": 35.90861,
    "lon": 139.48528
  },
  {
    "id": 1850910,
    "name": "Takatsuki",
    "lat": 34.84833,
    "lon": 135.61678
  },
  {
    "id": 1858729,
    "name": "Koshigaya",
    "lat": 35.89035,
    "lon": 139.78916
  },
  {
    "id": 1853574,
    "name": "Ōtsu",
    "lat": 35.0,
    "lon": 135.86667
  },
  {
    "id": 8715035,
    "name": "Nakano",
    "lat": 35.70449,
    "lon": 139.66946
  },
  {
    "id": 1850181,
    "name": "Tokorozawa",
    "lat": 35.79916,
    "lon": 139.46903
  },
  {
    "id": 2130629,
    "name": "Asahikawa",
    "lat": 43.77063,
    "lon": 142.36489
  },
  {
    "id": 1857843,
    "name": "Maebashi",
    "lat": 36.4,
    "lon": 139.08333
  },
  {
    "id": 8469285,
    "name": "Kita",
    "lat": 35.75264,
    "lon": 139.73348
  },
  {
    "id": 1859146,
    "name": "Kochi",
    "lat": 33.55,
    "lon": 133.53333
  },
  {
    "id": 2112141,
    "name": "Kōriyama",
    "lat": 37.4,
    "lon": 140.38333
  },
  {
    "id": 1856035,
    "name": "Naha",
    "lat": 26.213,
    "lon": 127.67851
  },
  {
    "id": 1859891,
    "name": "Kasugai",
    "lat": 35.24762,
    "lon": 136.97229
  },
  {
    "id": 2113126,
    "name": "Akita",
    "lat": 39.71667,
    "lon": 140.11667
  },
  {
    "id": 1848373,
    "name": "Yokkaichi",
    "lat": 34.96667,
    "lon": 136.61667
  },
  {
    "id": 1847966,
    "name": "Akashi",
    "lat": 34.65524,
    "lon": 135.00687
  },
  {
    "id": 1858088,
    "name": "Kurume",
    "lat": 33.31667,
    "lon": 130.51667
  },
  {
    "id": 2130658,
    "name": "Aomori",
    "lat": 40.81667,
    "lon": 140.73333
  },
  {
    "id": 2112923,
    "name": "Fukushima",
    "lat": 37.75,
    "lon": 140.46667
  },
  {
    "id": 2111834,
    "name": "Morioka",
    "lat": 39.7,
    "lon": 141.15
  },
  {
    "id": 1862033,
    "name": "Ibaraki",
    "lat": 34.81641,
    "lon": 135.56828
  },
  {
    "id": 2112664,
    "name": "Ichihara",
    "lat": 35.51667,
    "lon": 140.08333
  },
  {
    "id": 2130188,
    "name": "Hakodate",
    "lat": 41.77583,
    "lon": 140.73667
  },
  {
    "id": 1849796,
    "name": "Tsu",
    "lat": 34.73333,
    "lon": 136.51667
  },
  {
    "id": 1848522,
    "name": "Yao",
    "lat": 34.61667,
    "lon": 135.6
  },
  {
    "id": 1860704,
    "name": "Kakogawachō-honmachi",
    "lat": 34.76943,
    "lon": 134.82905
  },
  {
    "id": 2111901,
    "name": "Mito",
    "lat": 36.35,
    "lon": 140.45
  },
  {
    "id": 1850158,
    "name": "Tokushima",
    "lat": 34.06667,
    "lon": 134.56667
  },
  {
    "id": 1856199,
    "name": "Nagaoka",
    "lat": 37.45,
    "lon": 138.85
  },
  {
    "id": 1852225,
    "name": "Shimonoseki",
    "lat": 33.95548,
    "lon": 130.93713
  },
  {
    "id": 11611632,
    "name": "Fuchū",
    "lat": 35.67452,
    "lon": 139.48216
  },
  {
    "id": 1863985,
    "name": "Fukui-shi",
    "lat": 36.06443,
    "lon": 136.22257
  },
  {
    "id": 13353696,
    "name": "Minato City",
    "lat": 35.6581,
    "lon": 139.7515
  },
  {
    "id": 1862462,
    "name": "Hiratsuka",
    "lat": 35.32785,
    "lon": 139.33735
  },
  {
    "id": 1851604,
    "name": "Sōka",
    "lat": 35.83643,
    "lon": 139.79957
  },
  {
    "id": 2110556,
    "name": "Yamagata",
    "lat": 38.23333,
    "lon": 140.36667
  },
  {
    "id": 1864134,
    "name": "Fuji",
    "lat": 35.16667,
    "lon": 138.68333
  },
  {
    "id": 1852899,
    "name": "Sasebo",
    "lat": 33.16834,
    "lon": 129.72502
  },
  {
    "id": 1864624,
    "name": "Chigasaki",
    "lat": 35.33638,
    "lon": 139.40434
  },
  {
    "id": 1864518,
    "name": "Chōfu",
    "lat": 35.65924,
    "lon": 139.54837
  },
  {
    "id": 11611478,
    "name": "Yamato",
    "lat": 35.47276,
    "lon": 139.45101
  },
  {
    "id": 2110681,
    "name": "Tsukuba",
    "lat": 36.08333,
    "lon": 140.11667
  },
  {
    "id": 1857519,
    "name": "Matsumoto",
    "lat": 36.23333,
    "lon": 137.96667
  },
  {
    "id": 2130203,
    "name": "Hachinohe",
    "lat": 40.5,
    "lon": 141.5
  },
  {
    "id": 6697563,
    "name": "Neyagawa",
    "lat": 34.76615,
    "lon": 135.62759
  },
  {
    "id": 1853303,
    "name": "Saga",
    "lat": 33.23333,
    "lon": 130.3
  },
  {
    "id": 1859884,
    "name": "Kasukabe",
    "lat": 35.98308,
    "lon": 139.74966
  },
  {
    "id": 1865714,
    "name": "Ageo",
    "lat": 35.97145,
    "lon": 139.61382
  },
  {
    "id": 1851012,
    "name": "Takarazuka",
    "lat": 34.79936,
    "lon": 135.35697
  },
  {
    "id": 1853677,
    "name": "Ōta",
    "lat": 36.3,
    "lon": 139.36667
  },
  {
    "id": 1857144,
    "name": "Minamirinkan",
    "lat": 35.49527,
    "lon": 139.44279
  },
  {
    "id": 1847963,
    "name": "Atsugi",
    "lat": 35.44272,
    "lon": 139.36931
  },
  {
    "id": 1858296,
    "name": "Kure",
    "lat": 34.23222,
    "lon": 132.56658
  },
  {
    "id": 1861436,
    "name": "Isesaki",
    "lat": 36.31667,
    "lon": 139.2
  },
  {
    "id": 1850692,
    "name": "Nishi-Tokyo-shi",
    "lat": 35.72526,
    "lon": 139.5383
  },
  {
    "id": 1859383,
    "name": "Kishiwada",
    "lat": 34.46667,
    "lon": 135.36667
  },
  {
    "id": 1857550,
    "name": "Matsue",
    "lat": 35.48333,
    "lon": 133.05
  },
  {
    "id": 1856184,
    "name": "Nagareyama",
    "lat": 35.8563,
    "lon": 139.90266
  },
  {
    "id": 6822182,
    "name": "Yachiyo",
    "lat": 35.73531,
    "lon": 140.12445
  },
  {
    "id": 11611930,
    "name": "Kodaira",
    "lat": 35.72603,
    "lon": 139.48508
  },
  {
    "id": 1861310,
    "name": "Itami",
    "lat": 34.78427,
    "lon": 135.40126
  },
  {
    "id": 11611627,
    "name": "Higashihiroshima",
    "lat": 34.40861,
    "lon": 132.73682
  },
  {
    "id": 1851348,
    "name": "Suzuka",
    "lat": 34.88333,
    "lon": 136.58333
  },
  {
    "id": 1858428,
    "name": "Kumagaya",
    "lat": 36.13497,
    "lon": 139.39004
  },
  {
    "id": 1848689,
    "name": "Yamaguchi",
    "lat": 34.18333,
    "lon": 131.46667
  },
  {
    "id": 1849372,
    "name": "Uji",
    "lat": 34.89044,
    "lon": 135.80325
  },
  {
    "id": 1862599,
    "name": "Hino",
    "lat": 35.67306,
    "lon": 139.40028
  },
  {
    "id": 1859100,
    "name": "Kofu",
    "lat": 35.66667,
    "lon": 138.56667
  },
  {
    "id": 1854902,
    "name": "Numazu",
    "lat": 35.1,
    "lon": 138.86667
  },
  {
    "id": 6825489,
    "name": "Jōetsu",
    "lat": 37.14828,
    "lon": 138.23642
  },
  {
    "id": 1854747,
    "name": "Odawara",
    "lat": 35.25556,
    "lon": 139.15972
  },
  {
    "id": 1865294,
    "name": "Anjō",
    "lat": 34.95828,
    "lon": 137.08054
  },
  {
    "id": 1849892,
    "name": "Tottori-shi",
    "lat": 35.5,
    "lon": 134.23333
  },
  {
    "id": 1849845,
    "name": "Toyokawa",
    "lat": 34.81667,
    "lon": 137.4
  },
  {
    "id": 1861107,
    "name": "Izumi",
    "lat": 34.48333,
    "lon": 135.43333
  },
  {
    "id": 11611487,
    "name": "Tachikawa",
    "lat": 35.7091,
    "lon": 139.41891
  },
  {
    "id": 11612347,
    "name": "Narashino",
    "lat": 35.68184,
    "lon": 140.04152
  },
  {
    "id": 2127733,
    "name": "Tomakomai",
    "lat": 42.63694,
    "lon": 141.60333
  },
  {
    "id": 2112708,
    "name": "Hitachi",
    "lat": 36.6,
    "lon": 140.65
  },
  {
    "id": 2111220,
    "name": "Sakura",
    "lat": 35.71667,
    "lon": 140.23333
  },
  {
    "id": 1849498,
    "name": "Ube",
    "lat": 33.94306,
    "lon": 131.25111
  },
  {
    "id": 1860672,
    "name": "Kamakura",
    "lat": 35.31085,
    "lon": 139.54698
  },
  {
    "id": 1861084,
    "name": "Izumo",
    "lat": 35.36667,
    "lon": 132.76667
  },
  {
    "id": 1849186,
    "name": "Urayasu",
    "lat": 35.65879,
    "lon": 139.90055
  },
  {
    "id": 1926134,
    "name": "Imabari",
    "lat": 34.07001,
    "lon": 133.00023
  },
  {
    "id": 1851032,
    "name": "Takaoka",
    "lat": 36.75,
    "lon": 137.01667
  },
  {
    "id": 1855189,
    "name": "Nishio",
    "lat": 34.86667,
    "lon": 137.05
  },
  {
    "id": 13353695,
    "name": "Chūō",
    "lat": 35.67004,
    "lon": 139.77544
  },
  {
    "id": 2130057,
    "name": "Hirosaki",
    "lat": 40.59306,
    "lon": 140.4725
  },
  {
    "id": 2129376,
    "name": "Kushiro",
    "lat": 42.975,
    "lon": 144.37472
  },
  {
    "id": 1853483,
    "name": "Oyama",
    "lat": 36.3,
    "lon": 139.8
  },
  {
    "id": 1861171,
    "name": "Iwata",
    "lat": 34.7,
    "lon": 137.85
  },
  {
    "id": 2128815,
    "name": "Obihiro",
    "lat": 42.91722,
    "lon": 143.20444
  },
  {
    "id": 6822138,
    "name": "Niiza",
    "lat": 35.82088,
    "lon": 139.55791
  },
  {
    "id": 1863431,
    "name": "Hadano",
    "lat": 35.37111,
    "lon": 139.22361
  },
  {
    "id": 1854703,
    "name": "Ōgaki",
    "lat": 35.35,
    "lon": 136.61667
  },
  {
    "id": 1856775,
    "name": "Miyakonojō",
    "lat": 31.73333,
    "lon": 131.06667
  },
  {
    "id": 1907146,
    "name": "Sayama",
    "lat": 35.85295,
    "lon": 139.41212
  },
  {
    "id": 11468431,
    "name": "Matsusaka",
    "lat": 34.57895,
    "lon": 136.53706
  },
  {
    "id": 1850311,
    "name": "Tochigi",
    "lat": 36.38333,
    "lon": 139.73333
  },
  {
    "id": 1849429,
    "name": "Ueda",
    "lat": 36.40265,
    "lon": 138.28161
  },
  {
    "id": 6822096,
    "name": "Hitachi-Naka",
    "lat": 36.39659,
    "lon": 140.53479
  },
  {
    "id": 2112312,
    "name": "Katsuta",
    "lat": 36.38333,
    "lon": 140.53333
  },
  {
    "id": 1859675,
    "name": "Kawanishi",
    "lat": 34.81667,
    "lon": 135.41667
  },
  {
    "id": 1855078,
    "name": "Noda",
    "lat": 35.94897,
    "lon": 139.86793
  },
  {
    "id": 1860034,
    "name": "Kariya",
    "lat": 34.98333,
    "lon": 136.98333
  },
  {
    "id": 7279570,
    "name": "Higashimurayama",
    "lat": 35.75459,
    "lon": 139.46852
  },
  {
    "id": 1858445,
    "name": "Kukichūō",
    "lat": 36.06739,
    "lon": 139.67498
  },
  {
    "id": 1856367,
    "name": "Musashino",
    "lat": 35.70611,
    "lon": 139.55944
  },
  {
    "id": 11612583,
    "name": "Shūnan",
    "lat": 34.08053,
    "lon": 131.82564
  },
  {
    "id": 1858926,
    "name": "Komaki",
    "lat": 35.28333,
    "lon": 136.91667
  },
  {
    "id": 1848277,
    "name": "Yonago",
    "lat": 35.43333,
    "lon": 133.33333
  },
  {
    "id": 6822129,
    "name": "Tama",
    "lat": 35.6436,
    "lon": 139.46844
  },
  {
    "id": 6822163,
    "name": "Iruma",
    "lat": 35.818,
    "lon": 139.368
  },
  {
    "id": 1864132,
    "name": "Fujieda",
    "lat": 34.86667,
    "lon": 138.26667
  },
  {
    "id": 1865005,
    "name": "Ashikaga",
    "lat": 36.33333,
    "lon": 139.45
  },
  {
    "id": 1860735,
    "name": "Kakamigahara",
    "lat": 35.41667,
    "lon": 136.86667
  },
  {
    "id": 6822099,
    "name": "Tsuchiura",
    "lat": 36.09047,
    "lon": 140.21047
  },
  {
    "id": 1858067,
    "name": "Kusatsu",
    "lat": 35.01667,
    "lon": 135.96667
  },
  {
    "id": 1856584,
    "name": "Moriguchi",
    "lat": 34.73333,
    "lon": 135.56667
  },
  {
    "id": 1894616,
    "name": "Okinawa",
    "lat": 26.33583,
    "lon": 127.80139
  },
  {
    "id": 6822137,
    "name": "Misato, Saitama",
    "lat": 35.84373,
    "lon": 139.88347
  },
  {
    "id": 1907299,
    "name": "Asaka",
    "lat": 35.80472,
    "lon": 139.60194
  },
  {
    "id": 1907301,
    "name": "Shimotoda",
    "lat": 35.815,
    "lon": 139.6853
  },
  {
    "id": 2112576,
    "name": "Ishinomaki",
    "lat": 38.41667,
    "lon": 141.3
  },
  {
    "id": 11468429,
    "name": "Kuwana",
    "lat": 35.05192,
    "lon": 136.66958
  },
  {
    "id": 1848774,
    "name": "Yaizu",
    "lat": 34.86877,
    "lon": 138.31952
  },
  {
    "id": 1859093,
    "name": "Koga",
    "lat": 36.18333,
    "lon": 139.71667
  },
  {
    "id": 1857046,
    "name": "Minoh",
    "lat": 34.82691,
    "lon": 135.47057
  },
  {
    "id": 6822128,
    "name": "Ebina",
    "lat": 35.38121,
    "lon": 139.39651
  },
  {
    "id": 1859393,
    "name": "Kisarazu",
    "lat": 35.38329,
    "lon": 139.93254
  },
  {
    "id": 1861464,
    "name": "Isahaya",
    "lat": 32.84111,
    "lon": 130.04306
  },
  {
    "id": 1861602,
    "name": "Inazawa",
    "lat": 35.25,
    "lon": 136.78333
  },
  {
    "id": 2130404,
    "name": "Ebetsu",
    "lat": 43.10806,
    "lon": 141.55056
  },
  {
    "id": 1854162,
    "name": "Ōme",
    "lat": 35.78389,
    "lon": 139.24306
  },
  {
    "id": 2111684,
    "name": "Narita",
    "lat": 35.78333,
    "lon": 140.31667
  },
  {
    "id": 1850034,
    "name": "Tondabayashichō",
    "lat": 34.50065,
    "lon": 135.60211
  },
  {
    "id": 1853008,
    "name": "Sandachō",
    "lat": 34.88444,
    "lon": 135.22694
  },
  {
    "id": 1864105,
    "name": "Fujinomiya",
    "lat": 35.21667,
    "lon": 138.61667
  },
  {
    "id": 1848004,
    "name": "Zama",
    "lat": 35.4879,
    "lon": 139.39101
  },
  {
    "id": 1854083,
    "name": "Ōmuta",
    "lat": 33.03333,
    "lon": 130.45
  },
  {
    "id": 2113164,
    "name": "Abiko",
    "lat": 35.86667,
    "lon": 140.01667
  },
  {
    "id": 1860871,
    "name": "Kadoma",
    "lat": 34.7381,
    "lon": 135.57442
  },
  {
    "id": 1853992,
    "name": "Onomichi",
    "lat": 34.41667,
    "lon": 133.2
  },
  {
    "id": 1857568,
    "name": "Matsubara",
    "lat": 34.56667,
    "lon": 135.55
  },
  {
    "id": 1858964,
    "name": "Kokubunji",
    "lat": 35.70222,
    "lon": 139.47556
  },
  {
    "id": 1861212,
    "name": "Iwakuni",
    "lat": 34.16297,
    "lon": 132.22
  },
  {
    "id": 6822188,
    "name": "Ōsaki",
    "lat": 38.58866,
    "lon": 140.973
  },
  {
    "id": 1852663,
    "name": "Seto",
    "lat": 35.23333,
    "lon": 137.1
  },
  {
    "id": 1861835,
    "name": "Iizuka",
    "lat": 33.63654,
    "lon": 130.68678
  },
  {
    "id": 11612579,
    "name": "Koganei",
    "lat": 35.70014,
    "lon": 139.51109
  },
  {
    "id": 1849563,
    "name": "Tsuruoka",
    "lat": 38.72167,
    "lon": 139.82167
  },
  {
    "id": 6822153,
    "name": "Uruma",
    "lat": 26.37609,
    "lon": 127.85908
  },
  {
    "id": 1859951,
    "name": "Kashihara-shi",
    "lat": 34.50896,
    "lon": 135.7929
  },
  {
    "id": 1861450,
    "name": "Ise",
    "lat": 34.48333,
    "lon": 136.7
  },
  {
    "id": 7303138,
    "name": "Kirishima",
    "lat": 31.74087,
    "lon": 130.76288
  },
  {
    "id": 1848445,
    "name": "Honmachi",
    "lat": 32.50439,
    "lon": 130.59952
  },
  {
    "id": 1855425,
    "name": "Niihama",
    "lat": 33.96047,
    "lon": 133.30522
  },
  {
    "id": 1864750,
    "name": "Beppu",
    "lat": 33.27945,
    "lon": 131.49751
  },
  {
    "id": 1859913,
    "name": "Kashiwara",
    "lat": 34.45,
    "lon": 135.76667
  },
  {
    "id": 1861749,
    "name": "Ikoma",
    "lat": 34.68333,
    "lon": 135.7
  },
  {
    "id": 1855095,
    "name": "Nobeoka",
    "lat": 32.58333,
    "lon": 131.66667
  },
  {
    "id": 1864416,
    "name": "Daitō",
    "lat": 34.71378,
    "lon": 135.62033
  },
  {
    "id": 2129537,
    "name": "Kitami",
    "lat": 43.80306,
    "lon": 143.89083
  },
  {
    "id": 6822148,
    "name": "Aizu-Wakamatsu",
    "lat": 37.49142,
    "lon": 139.94546
  },
  {
    "id": 1860728,
    "name": "Kakegawa",
    "lat": 34.76667,
    "lon": 138.01667
  },
  {
    "id": 1863209,
    "name": "Handa",
    "lat": 34.88333,
    "lon": 136.93333
  },
  {
    "id": 1852964,
    "name": "Sano",
    "lat": 36.31667,
    "lon": 139.58333
  },
  {
    "id": 1860063,
    "name": "Karatsu",
    "lat": 33.4425,
    "lon": 129.96972
  },
  {
    "id": 11611628,
    "name": "Higashikurume",
    "lat": 35.75202,
    "lon": 139.51169
  },
  {
    "id": 1862302,
    "name": "Hōfu",
    "lat": 34.05,
    "lon": 131.56667
  },
  {
    "id": 1858794,
    "name": "Kōnosu",
    "lat": 36.06868,
    "lon": 139.51684
  },
  {
    "id": 6822174,
    "name": "Nasushiobara",
    "lat": 36.97682,
    "lon": 140.06642
  },
  {
    "id": 6822152,
    "name": "Urasoe",
    "lat": 26.25902,
    "lon": 127.73012
  },
  {
    "id": 2128574,
    "name": "Otaru",
    "lat": 43.18944,
    "lon": 141.00222
  },
  {
    "id": 2112656,
    "name": "Ichinoseki",
    "lat": 38.91667,
    "lon": 141.13333
  },
  {
    "id": 1863018,
    "name": "Hatsukaichi",
    "lat": 34.35,
    "lon": 132.33333
  },
  {
    "id": 6822132,
    "name": "Akishima",
    "lat": 35.72085,
    "lon": 139.37999
  },
  {
    "id": 11612537,
    "name": "Tōkai",
    "lat": 35.02269,
    "lon": 136.90887
  },
  {
    "id": 1862636,
    "name": "Hikone",
    "lat": 35.25,
    "lon": 136.25
  },
  {
    "id": 1856243,
    "name": "Nagahama",
    "lat": 35.38333,
    "lon": 136.26667
  },
  {
    "id": 6822159,
    "name": "Fujimino",
    "lat": 35.90196,
    "lon": 139.52489
  },
  {
    "id": 6822184,
    "name": "Ōshū",
    "lat": 39.13927,
    "lon": 141.1685
  },
  {
    "id": 1848382,
    "name": "Youkaichi",
    "lat": 35.11626,
    "lon": 136.19768
  },
  {
    "id": 1859586,
    "name": "Kazo",
    "lat": 36.11667,
    "lon": 139.6
  },
  {
    "id": 6822147,
    "name": "Kasuga",
    "lat": 33.52594,
    "lon": 130.4611
  },
  {
    "id": 1857470,
    "name": "Matsutō",
    "lat": 36.51667,
    "lon": 136.56667
  },
  {
    "id": 11611942,
    "name": "Kamagaya",
    "lat": 35.76971,
    "lon": 140.00238
  },
  {
    "id": 1857665,
    "name": "Marugame",
    "lat": 34.28333,
    "lon": 133.78333
  },
  {
    "id": 6825496,
    "name": "Habikino",
    "lat": 34.55276,
    "lon": 135.59097
  },
  {
    "id": 1859405,
    "name": "Kiryū",
    "lat": 36.4,
    "lon": 139.33333
  },
  {
    "id": 1861164,
    "name": "Iwatsuki",
    "lat": 35.96474,
    "lon": 139.69644
  },
  {
    "id": 1858910,
    "name": "Komatsu",
    "lat": 36.40263,
    "lon": 136.45088
  },
  {
    "id": 1856977,
    "name": "Mishima",
    "lat": 35.11667,
    "lon": 138.91667
  },
  {
    "id": 1851193,
    "name": "Tajimi",
    "lat": 35.31667,
    "lon": 137.13333
  },
  {
    "id": 6822179,
    "name": "Inzai",
    "lat": 35.83479,
    "lon": 140.16361
  },
  {
    "id": 1861795,
    "name": "Ikeda",
    "lat": 34.82208,
    "lon": 135.4298
  },
  {
    "id": 1926054,
    "name": "Saijō",
    "lat": 33.91667,
    "lon": 133.18333
  },
  {
    "id": 2110729,
    "name": "Toride",
    "lat": 35.9,
    "lon": 140.08333
  },
  {
    "id": 1861449,
    "name": "Isehara",
    "lat": 35.39932,
    "lon": 139.31019
  },
  {
    "id": 1864572,
    "name": "Chikushino-shi",
    "lat": 33.49631,
    "lon": 130.5156
  },
  {
    "id": 1848254,
    "name": "Yono",
    "lat": 35.88333,
    "lon": 139.63333
  },
  {
    "id": 1849519,
    "name": "Tsuyama",
    "lat": 35.05215,
    "lon": 133.99885
  },
  {
    "id": 6822216,
    "name": "Kani",
    "lat": 35.40435,
    "lon": 137.05595
  },
  {
    "id": 6822146,
    "name": "Ōnojō",
    "lat": 33.53567,
    "lon": 130.47861
  },
  {
    "id": 6825498,
    "name": "Kawachi-Nagano",
    "lat": 34.44108,
    "lon": 135.58283
  },
  {
    "id": 1861864,
    "name": "Iida",
    "lat": 35.51965,
    "lon": 137.82074
  },
  {
    "id": 1850152,
    "name": "Tokuyama",
    "lat": 34.05,
    "lon": 131.81667
  },
  {
    "id": 1860112,
    "name": "Kanoya",
    "lat": 31.38333,
    "lon": 130.85
  },
  {
    "id": 6822097,
    "name": "Chikusei",
    "lat": 36.316,
    "lon": 139.98238
  },
  {
    "id": 1853209,
    "name": "Sakado",
    "lat": 35.95694,
    "lon": 139.38889
  },
  {
    "id": 1853140,
    "name": "Sakata",
    "lat": 38.91667,
    "lon": 139.855
  },
  {
    "id": 1861091,
    "name": "Izumisano",
    "lat": 34.41667,
    "lon": 135.31667
  },
  {
    "id": 1863627,
    "name": "Ginowan",
    "lat": 26.26265,
    "lon": 127.76147
  },
  {
    "id": 1853081,
    "name": "Saku",
    "lat": 36.21667,
    "lon": 138.48333
  },
  {
    "id": 11612341,
    "name": "Itoshima",
    "lat": 33.54225,
    "lon": 130.18421
  },
  {
    "id": 1858836,
    "name": "Kōnan",
    "lat": 35.33165,
    "lon": 136.87042
  },
  {
    "id": 2130452,
    "name": "Chitose",
    "lat": 42.81944,
    "lon": 141.65222
  },
  {
    "id": 1860635,
    "name": "Kameoka",
    "lat": 35.0,
    "lon": 135.58333
  },
  {
    "id": 11611614,
    "name": "Munakata",
    "lat": 33.7957,
    "lon": 130.55895
  },
  {
    "id": 1852607,
    "name": "Shibata",
    "lat": 37.95,
    "lon": 139.33333
  },
  {
    "id": 2129101,
    "name": "Muroran",
    "lat": 42.31722,
    "lon": 140.98806
  },
  {
    "id": 1852472,
    "name": "Shimada",
    "lat": 34.81667,
    "lon": 138.18333
  },
  {
    "id": 6822103,
    "name": "Kamisu",
    "lat": 35.89685,
    "lon": 140.66666
  },
  {
    "id": 1854093,
    "name": "Ōmura",
    "lat": 32.92139,
    "lon": 129.95389
  },
  {
    "id": 2110480,
    "name": "Yotsukaidō",
    "lat": 35.65,
    "lon": 140.16667
  },
  {
    "id": 1860098,
    "name": "Kanuma",
    "lat": 36.55,
    "lon": 139.73333
  },
  {
    "id": 2112823,
    "name": "Hanamaki",
    "lat": 39.38333,
    "lon": 141.11667
  },
  {
    "id": 1852984,
    "name": "Sanjō",
    "lat": 37.61667,
    "lon": 138.95
  },
  {
    "id": 2110498,
    "name": "Yonezawa",
    "lat": 37.91,
    "lon": 140.11667
  },
  {
    "id": 6822111,
    "name": "Azumino",
    "lat": 36.28815,
    "lon": 137.88705
  },
  {
    "id": 1864985,
    "name": "Ashiya",
    "lat": 34.72807,
    "lon": 135.30264
  },
  {
    "id": 1848499,
    "name": "Yashio",
    "lat": 35.82255,
    "lon": 139.83905
  },
  {
    "id": 11612578,
    "name": "Inagi",
    "lat": 35.63295,
    "lon": 139.49967
  },
  {
    "id": 1854803,
    "name": "Ōbu",
    "lat": 35.01756,
    "lon": 136.94947
  },
  {
    "id": 2112227,
    "name": "Kitakami",
    "lat": 39.28333,
    "lon": 141.11667
  },
  {
    "id": 1860765,
    "name": "Kaizuka",
    "lat": 34.45,
    "lon": 135.35
  },
  {
    "id": 1857766,
    "name": "Maizuru",
    "lat": 35.45,
    "lon": 135.33333
  },
  {
    "id": 1852736,
    "name": "Sendai",
    "lat": 31.81667,
    "lon": 130.3
  },
  {
    "id": 11611626,
    "name": "Sakai",
    "lat": 36.1473,
    "lon": 136.19408
  },
  {
    "id": 6822209,
    "name": "Nisshin",
    "lat": 35.13676,
    "lon": 137.05238
  },
  {
    "id": 6822162,
    "name": "Higashi-Matsuyama",
    "lat": 36.03333,
    "lon": 139.41667
  },
  {
    "id": 6822199,
    "name": "Daisen",
    "lat": 39.44116,
    "lon": 140.48961
  },
  {
    "id": 6822125,
    "name": "Imizu",
    "lat": 36.76835,
    "lon": 137.12572
  },
  {
    "id": 1857334,
    "name": "Mihara",
    "lat": 34.4,
    "lon": 133.08333
  },
  {
    "id": 6822117,
    "name": "Kōka",
    "lat": 34.9802,
    "lon": 136.15752
  },
  {
    "id": 11468270,
    "name": "Iga",
    "lat": 34.75797,
    "lon": 136.13468
  },
  {
    "id": 1850892,
    "name": "Takayama",
    "lat": 36.13333,
    "lon": 137.25
  },
  {
    "id": 1863945,
    "name": "Fukuroi",
    "lat": 34.75,
    "lon": 137.91667
  },
  {
    "id": 2111855,
    "name": "Mobara",
    "lat": 35.42583,
    "lon": 140.29608
  },
  {
    "id": 11611486,
    "name": "Takasago",
    "lat": 34.76298,
    "lon": 134.79229
  },
  {
    "id": 1852643,
    "name": "Settsu",
    "lat": 34.77819,
    "lon": 135.59512
  },
  {
    "id": 1863528,
    "name": "Gotemba",
    "lat": 35.31859,
    "lon": 138.94343
  },
  {
    "id": 1863293,
    "name": "Hamakita",
    "lat": 34.8,
    "lon": 137.78333
  },
  {
    "id": 6822208,
    "name": "Kitanagoya",
    "lat": 35.24702,
    "lon": 136.87832
  },
  {
    "id": 1863482,
    "name": "Gyōda",
    "lat": 36.14074,
    "lon": 139.46011
  },
  {
    "id": 1859908,
    "name": "Kashiwazaki",
    "lat": 37.36667,
    "lon": 138.55
  },
  {
    "id": 11611659,
    "name": "Ama",
    "lat": 35.18307,
    "lon": 136.7997
  },
  {
    "id": 2111258,
    "name": "Ryūgasaki",
    "lat": 35.9,
    "lon": 140.18333
  },
  {
    "id": 2110506,
    "name": "Yokote",
    "lat": 39.31691,
    "lon": 140.55034
  },
  {
    "id": 1856569,
    "name": "Moriyama",
    "lat": 35.06667,
    "lon": 135.98333
  },
  {
    "id": 1852775,
    "name": "Sekimachi",
    "lat": 35.48333,
    "lon": 136.91667
  },
  {
    "id": 2129870,
    "name": "Iwamizawa",
    "lat": 43.20028,
    "lon": 141.75972
  },
  {
    "id": 11612580,
    "name": "Komae",
    "lat": 35.63424,
    "lon": 139.57546
  },
  {
    "id": 1855757,
    "name": "Nakatsu",
    "lat": 33.59811,
    "lon": 131.1883
  },
  {
    "id": 2110629,
    "name": "Ushiku",
    "lat": 35.96667,
    "lon": 140.13333
  },
  {
    "id": 6822211,
    "name": "Chita",
    "lat": 35.00267,
    "lon": 136.8642
  },
  {
    "id": 1907300,
    "name": "Wako",
    "lat": 35.78944,
    "lon": 139.62333
  },
  {
    "id": 11611642,
    "name": "Ayase",
    "lat": 35.43515,
    "lon": 139.4256
  },
  {
    "id": 6822136,
    "name": "Higashiyamato",
    "lat": 35.76298,
    "lon": 139.44575
  },
  {
    "id": 11611477,
    "name": "Yamatokōriyama",
    "lat": 34.60658,
    "lon": 135.77033
  },
  {
    "id": 6698269,
    "name": "Owariasahi",
    "lat": 35.208,
    "lon": 137.03
  },
  {
    "id": 7424125,
    "name": "Amakusa",
    "lat": 32.45861,
    "lon": 130.19306
  },
  {
    "id": 11612457,
    "name": "Echizen",
    "lat": 35.88571,
    "lon": 136.17073
  },
  {
    "id": 1907307,
    "name": "Kimitsu",
    "lat": 35.35043,
    "lon": 139.87029
  },
  {
    "id": 8125829,
    "name": "Kamigyō-ku",
    "lat": 35.02954,
    "lon": 135.75666
  },
  {
    "id": 11612345,
    "name": "Shikokuchūō",
    "lat": 33.9754,
    "lon": 133.54895
  },
  {
    "id": 1863451,
    "name": "Ōmihachiman",
    "lat": 35.12861,
    "lon": 136.0976
  },
  {
    "id": 11612343,
    "name": "Akiruno",
    "lat": 35.72854,
    "lon": 139.2318
  },
  {
    "id": 1850559,
    "name": "Tatebayashi",
    "lat": 36.25,
    "lon": 139.53333
  },
  {
    "id": 1858681,
    "name": "Kōtari",
    "lat": 34.92097,
    "lon": 135.70547
  },
  {
    "id": 1863183,
    "name": "Hannō",
    "lat": 35.85194,
    "lon": 139.31806
  },
  {
    "id": 1863693,
    "name": "Gamagōri",
    "lat": 34.83333,
    "lon": 137.23333
  },
  {
    "id": 1859952,
    "name": "Kashihara",
    "lat": 34.58333,
    "lon": 135.61667
  },
  {
    "id": 1855753,
    "name": "Nakatsugawa",
    "lat": 35.48333,
    "lon": 137.5
  },
  {
    "id": 2111836,
    "name": "Mooka",
    "lat": 36.43333,
    "lon": 140.01667
  },
  {
    "id": 2111669,
    "name": "Natori-shi",
    "lat": 38.16667,
    "lon": 140.88333
  },
  {
    "id": 1862198,
    "name": "Honjō",
    "lat": 36.2378,
    "lon": 139.19023
  },
  {
    "id": 1849831,
    "name": "Toyooka",
    "lat": 35.54008,
    "lon": 134.82038
  },
  {
    "id": 6822120,
    "name": "Kashiba",
    "lat": 34.53472,
    "lon": 135.70925
  },
  {
    "id": 11611622,
    "name": "Kizugawa",
    "lat": 34.73668,
    "lon": 135.83994
  },
  {
    "id": 11611941,
    "name": "Tome",
    "lat": 38.70882,
    "lon": 141.15578
  },
  {
    "id": 1855395,
    "name": "Nikkō",
    "lat": 36.75,
    "lon": 139.61667
  },
  {
    "id": 1849788,
    "name": "Tsubame",
    "lat": 37.6645,
    "lon": 138.92518
  },
  {
    "id": 1864009,
    "name": "Fukuchiyama",
    "lat": 35.3,
    "lon": 135.11667
  },
  {
    "id": 11611617,
    "name": "Kunitachi",
    "lat": 35.6833,
    "lon": 139.43848
  },
  {
    "id": 1856293,
    "name": "Nabari",
    "lat": 34.61667,
    "lon": 136.08333
  },
  {
    "id": 1849561,
    "name": "Tsurusaki",
    "lat": 33.24528,
    "lon": 131.69165
  },
  {
    "id": 1852502,
    "name": "Shiki",
    "lat": 35.83333,
    "lon": 139.58333
  },
  {
    "id": 11611646,
    "name": "Aira",
    "lat": 31.77429,
    "lon": 130.59208
  },
  {
    "id": 2112899,
    "name": "Furukawa",
    "lat": 38.57167,
    "lon": 140.95556
  },
  {
    "id": 11611938,
    "name": "Kiyose",
    "lat": 35.77952,
    "lon": 139.53014
  },
  {
    "id": 1852595,
    "name": "Shibukawa",
    "lat": 36.48333,
    "lon": 139.0
  },
  {
    "id": 6822202,
    "name": "Yurihonjō",
    "lat": 39.3895,
    "lon": 140.05813
  },
  {
    "id": 1850872,
    "name": "Takefu",
    "lat": 35.90393,
    "lon": 136.16687
  },
  {
    "id": 11612339,
    "name": "Warabi",
    "lat": 35.82188,
    "lon": 139.68545
  },
  {
    "id": 1857276,
    "name": "Miki",
    "lat": 34.8,
    "lon": 134.98333
  },
  {
    "id": 11612336,
    "name": "Kai",
    "lat": 35.68463,
    "lon": 138.50979
  },
  {
    "id": 1854371,
    "name": "Okegawa",
    "lat": 36.0,
    "lon": 139.55722
  },
  {
    "id": 11611624,
    "name": "Katano",
    "lat": 34.79329,
    "lon": 135.68596
  },
  {
    "id": 2110959,
    "name": "Sukagawa",
    "lat": 37.28333,
    "lon": 140.38333
  },
  {
    "id": 11611939,
    "name": "Jōyō",
    "lat": 34.84396,
    "lon": 135.80561
  },
  {
    "id": 2112319,
    "name": "Katori-shi",
    "lat": 35.89767,
    "lon": 140.49943
  },
  {
    "id": 1861095,
    "name": "Izumiōtsu",
    "lat": 34.5,
    "lon": 135.4
  },
  {
    "id": 11612326,
    "name": "Tatsuno",
    "lat": 34.83184,
    "lon": 134.54338
  },
  {
    "id": 1849904,
    "name": "Tosu",
    "lat": 33.36667,
    "lon": 130.51667
  },
  {
    "id": 1861528,
    "name": "Inuyama",
    "lat": 35.37995,
    "lon": 136.94295
  },
  {
    "id": 11612555,
    "name": "Kyōtanabe",
    "lat": 34.8045,
    "lon": 135.76681
  },
  {
    "id": 2112343,
    "name": "Kasama",
    "lat": 36.38333,
    "lon": 140.26667
  },
  {
    "id": 1848188,
    "name": "Yoshikawa",
    "lat": 35.89232,
    "lon": 139.84184
  },
  {
    "id": 7422816,
    "name": "Dazaifu",
    "lat": 33.51278,
    "lon": 130.52389
  },
  {
    "id": 2112571,
    "name": "Ishioka",
    "lat": 36.18333,
    "lon": 140.26667
  },
  {
    "id": 1862912,
    "name": "Hekinan",
    "lat": 34.88333,
    "lon": 136.98333
  },
  {
    "id": 1864549,
    "name": "Chiryū",
    "lat": 35.0,
    "lon": 137.03333
  },
  {
    "id": 2111325,
    "name": "Ōtawara",
    "lat": 36.86667,
    "lon": 140.03333
  },
  {
    "id": 1848439,
    "name": "Yawata",
    "lat": 34.87009,
    "lon": 135.7027
  },
  {
    "id": 11205269,
    "name": "Minami-Alps",
    "lat": 35.616,
    "lon": 138.46344
  },
  {
    "id": 1848087,
    "name": "Yukuhashi",
    "lat": 33.72873,
    "lon": 130.983
  },
  {
    "id": 1850396,
    "name": "Tenri",
    "lat": 34.58333,
    "lon": 135.83333
  },
  {
    "id": 1850708,
    "name": "Tanabe",
    "lat": 33.73333,
    "lon": 135.36667
  },
  {
    "id": 6822130,
    "name": "Musashimurayama",
    "lat": 35.74242,
    "lon": 139.42635
  },
  {
    "id": 1926020,
    "name": "Uwajima",
    "lat": 33.22375,
    "lon": 132.56001
  },
  {
    "id": 1857844,
    "name": "Maebaru-chūō",
    "lat": 33.55916,
    "lon": 130.20148
  },
  {
    "id": 11127679,
    "name": "Eniwa",
    "lat": 42.89357,
    "lon": 141.576
  },
  {
    "id": 6822115,
    "name": "Rittō",
    "lat": 35.02745,
    "lon": 135.99971
  },
  {
    "id": 1865309,
    "name": "Anan",
    "lat": 33.91667,
    "lon": 134.65
  },
  {
    "id": 6822165,
    "name": "Tsurugashima",
    "lat": 35.95996,
    "lon": 139.40283
  },
  {
    "id": 1848305,
    "name": "Yokota",
    "lat": 35.75,
    "lon": 139.38333
  },
  {
    "id": 11612588,
    "name": "Fuefuki",
    "lat": 35.63526,
    "lon": 138.63853
  },
  {
    "id": 13156739,
    "name": "Minamiarupusu",
    "lat": 35.60855,
    "lon": 138.46473
  },
  {
    "id": 6822210,
    "name": "Toyoake",
    "lat": 35.038,
    "lon": 136.99931
  },
  {
    "id": 2128787,
    "name": "Ōdate",
    "lat": 40.27178,
    "lon": 140.55756
  },
  {
    "id": 1851606,
    "name": "Sōja",
    "lat": 34.67534,
    "lon": 133.75091
  },
  {
    "id": 2111831,
    "name": "Moriya",
    "lat": 35.93333,
    "lon": 140.0
  },
  {
    "id": 1861290,
    "name": "Itō",
    "lat": 34.96667,
    "lon": 139.08333
  },
  {
    "id": 2110579,
    "name": "Yachimata",
    "lat": 35.65,
    "lon": 140.31667
  },
  {
    "id": 1863620,
    "name": "Gion",
    "lat": 34.43333,
    "lon": 132.46667
  },
  {
    "id": 1849592,
    "name": "Tsuruga",
    "lat": 35.653,
    "lon": 136.06331
  },
  {
    "id": 1853338,
    "name": "Sabae",
    "lat": 35.94647,
    "lon": 136.18498
  },
  {
    "id": 1861641,
    "name": "Ina",
    "lat": 35.82756,
    "lon": 137.95378
  },
  {
    "id": 6822214,
    "name": "Hashima",
    "lat": 35.329,
    "lon": 136.68051
  },
  {
    "id": 6822141,
    "name": "Kaga",
    "lat": 36.3,
    "lon": 136.33333
  },
  {
    "id": 1850742,
    "name": "Tamano",
    "lat": 34.51745,
    "lon": 133.94574
  },
  {
    "id": 1849539,
    "name": "Tsushima",
    "lat": 35.16667,
    "lon": 136.71667
  },
  {
    "id": 1859210,
    "name": "Kiyosu",
    "lat": 35.21667,
    "lon": 136.83333
  },
  {
    "id": 1852003,
    "name": "Shiojiri",
    "lat": 36.1,
    "lon": 137.96667
  },
  {
    "id": 11612700,
    "name": "Fukutsu",
    "lat": 33.783,
    "lon": 130.49114
  },
  {
    "id": 1860748,
    "name": "Kashima-shi",
    "lat": 35.96536,
    "lon": 140.64474
  },
  {
    "id": 1853237,
    "name": "Saiki",
    "lat": 32.95,
    "lon": 131.9
  },
  {
    "id": 6822190,
    "name": "Kurihara",
    "lat": 38.75,
    "lon": 141.0
  },
  {
    "id": 2110774,
    "name": "Tōgane",
    "lat": 35.55,
    "lon": 140.36667
  },
  {
    "id": 6822164,
    "name": "Kitamoto",
    "lat": 36.03322,
    "lon": 139.53775
  },
  {
    "id": 1855410,
    "name": "Niitsu-honchō",
    "lat": 37.80024,
    "lon": 139.1224
  },
  {
    "id": 1850707,
    "name": "Tanabe",
    "lat": 34.82242,
    "lon": 135.76604
  },
  {
    "id": 11611615,
    "name": "Mitoyo",
    "lat": 34.21052,
    "lon": 133.6746
  },
  {
    "id": 2110793,
    "name": "Tendō",
    "lat": 38.35361,
    "lon": 140.36972
  },
  {
    "id": 1863495,
    "name": "Gushikawa",
    "lat": 26.35937,
    "lon": 127.86735
  },
  {
    "id": 11612456,
    "name": "Sodegaura",
    "lat": 35.41368,
    "lon": 140.02135
  },
  {
    "id": 1862373,
    "name": "Hita",
    "lat": 33.3213,
    "lon": 130.94098
  },
  {
    "id": 2113077,
    "name": "Asahi",
    "lat": 35.71667,
    "lon": 140.65
  },
  {
    "id": 1850108,
    "name": "Tomigusuku",
    "lat": 26.18583,
    "lon": 127.68192
  },
  {
    "id": 1864099,
    "name": "Fujioka",
    "lat": 36.24624,
    "lon": 139.07204
  },
  {
    "id": 1848573,
    "name": "Yanagawa",
    "lat": 33.16667,
    "lon": 130.4
  },
  {
    "id": 1861699,
    "name": "Imaichi",
    "lat": 36.71667,
    "lon": 139.68333
  },
  {
    "id": 1850745,
    "name": "Tamana",
    "lat": 32.94716,
    "lon": 130.57446
  },
  {
    "id": 1855580,
    "name": "Narutochō-mitsuishi",
    "lat": 34.19933,
    "lon": 134.60932
  },
  {
    "id": 6825495,
    "name": "Fujiidera",
    "lat": 34.5676,
    "lon": 135.5974
  },
  {
    "id": 1852347,
    "name": "Shimodate",
    "lat": 36.3,
    "lon": 139.98333
  },
  {
    "id": 1856068,
    "name": "Nago",
    "lat": 26.61502,
    "lon": 127.98543
  },
  {
    "id": 2110927,
    "name": "Tagajō-shi",
    "lat": 38.3,
    "lon": 141.0
  },
  {
    "id": 2111018,
    "name": "Shiroi",
    "lat": 35.8,
    "lon": 140.06667
  },
  {
    "id": 11612482,
    "name": "Tanba",
    "lat": 35.16034,
    "lon": 135.03914
  },
  {
    "id": 11612340,
    "name": "Miyoshi",
    "lat": 35.08971,
    "lon": 137.08998
  },
  {
    "id": 11612553,
    "name": "Kōshi",
    "lat": 32.89271,
    "lon": 130.77567
  },
  {
    "id": 1848593,
    "name": "Yamato-Takada",
    "lat": 34.51667,
    "lon": 135.75
  },
  {
    "id": 1849414,
    "name": "Ueno-ebisumachi",
    "lat": 34.75856,
    "lon": 136.13108
  },
  {
    "id": 1907123,
    "name": "Hasuda",
    "lat": 35.97113,
    "lon": 139.6491
  },
  {
    "id": 13132799,
    "name": "Tamba",
    "lat": 35.17483,
    "lon": 135.03101
  },
  {
    "id": 2111859,
    "name": "Mizusawa",
    "lat": 39.13333,
    "lon": 141.13333
  },
  {
    "id": 2112077,
    "name": "Kuroiso",
    "lat": 36.96667,
    "lon": 140.05
  },
  {
    "id": 1864637,
    "name": "Chichibu",
    "lat": 35.99028,
    "lon": 139.07639
  },
  {
    "id": 2112263,
    "name": "Kesennuma",
    "lat": 38.90112,
    "lon": 141.57746
  },
  {
    "id": 1863082,
    "name": "Hashimoto",
    "lat": 34.31667,
    "lon": 135.61667
  },
  {
    "id": 1861280,
    "name": "Itoman",
    "lat": 26.12647,
    "lon": 127.66918
  },
  {
    "id": 6822154,
    "name": "Jōsō",
    "lat": 36.03553,
    "lon": 139.96143
  },
  {
    "id": 6822212,
    "name": "Aisai",
    "lat": 35.16349,
    "lon": 136.73222
  },
  {
    "id": 6822207,
    "name": "Towada",
    "lat": 40.62049,
    "lon": 141.21067
  },
  {
    "id": 11611476,
    "name": "Yame",
    "lat": 33.22792,
    "lon": 130.64873
  },
  {
    "id": 6822171,
    "name": "Kinokawa",
    "lat": 34.26973,
    "lon": 135.41045
  },
  {
    "id": 1851125,
    "name": "Takaishi",
    "lat": 34.51667,
    "lon": 135.43333
  },
  {
    "id": 11612582,
    "name": "Sanyōonoda",
    "lat": 34.03246,
    "lon": 131.16028
  },
  {
    "id": 6822175,
    "name": "Shimotsuke",
    "lat": 36.41323,
    "lon": 139.86622
  },
  {
    "id": 1851259,
    "name": "Tahara",
    "lat": 34.66799,
    "lon": 137.26736
  },
  {
    "id": 11611613,
    "name": "Nagakute",
    "lat": 35.17325,
    "lon": 137.05667
  },
  {
    "id": 6825500,
    "name": "Sennan",
    "lat": 34.34835,
    "lon": 135.26842
  },
  {
    "id": 1847968,
    "name": "Zushi",
    "lat": 35.29483,
    "lon": 139.57812
  },
  {
    "id": 11611625,
    "name": "Hyūga",
    "lat": 32.42272,
    "lon": 131.64093
  },
  {
    "id": 11612554,
    "name": "Uki",
    "lat": 32.62217,
    "lon": 130.66177
  },
  {
    "id": 6822194,
    "name": "Kosai",
    "lat": 34.70053,
    "lon": 137.52253
  },
  {
    "id": 2112980,
    "name": "Date",
    "lat": 37.81667,
    "lon": 140.5
  },
  {
    "id": 11612472,
    "name": "Shirakawa",
    "lat": 37.11954,
    "lon": 140.26211
  },
  {
    "id": 6822112,
    "name": "Chikuma",
    "lat": 36.52715,
    "lon": 138.08943
  },
  {
    "id": 11611610,
    "name": "Ogōri",
    "lat": 33.38738,
    "lon": 130.54865
  },
  {
    "id": 6822149,
    "name": "Minami-Sōma",
    "lat": 37.62908,
    "lon": 140.97868
  },
  {
    "id": 2130054,
    "name": "Kitahiroshima",
    "lat": 42.97583,
    "lon": 141.56722
  },
  {
    "id": 1859094,
    "name": "Koga",
    "lat": 33.73333,
    "lon": 130.46667
  },
  {
    "id": 2129909,
    "name": "Ishikari",
    "lat": 43.23972,
    "lon": 141.35389
  },
  {
    "id": 1850185,
    "name": "Tokoname",
    "lat": 34.88333,
    "lon": 136.85
  },
  {
    "id": 1863173,
    "name": "Hanyū",
    "lat": 36.16667,
    "lon": 139.53333
  },
  {
    "id": 1850207,
    "name": "Toki",
    "lat": 35.35,
    "lon": 137.18333
  },
  {
    "id": 6825499,
    "name": "Sayama",
    "lat": 34.51685,
    "lon": 135.56298
  },
  {
    "id": 2112996,
    "name": "Choshi",
    "lat": 35.73333,
    "lon": 140.83333
  },
  {
    "id": 1853066,
    "name": "Sakurai",
    "lat": 34.5,
    "lon": 135.85
  },
  {
    "id": 1856434,
    "name": "Murakami",
    "lat": 38.23333,
    "lon": 139.48333
  },
  {
    "id": 1861677,
    "name": "Imarichō-kō",
    "lat": 33.27362,
    "lon": 129.87877
  },
  {
    "id": 1858972,
    "name": "Kokubu-matsuki",
    "lat": 31.73333,
    "lon": 130.76667
  },
  {
    "id": 1860122,
    "name": "Kan’onjichō",
    "lat": 34.1276,
    "lon": 133.64598
  },
  {
    "id": 1854979,
    "name": "Nonoichi",
    "lat": 36.53333,
    "lon": 136.61667
  },
  {
    "id": 1863310,
    "name": "Hamada",
    "lat": 34.88333,
    "lon": 132.08333
  },
  {
    "id": 6822106,
    "name": "Bandō",
    "lat": 36.06997,
    "lon": 139.86705
  },
  {
    "id": 1853190,
    "name": "Sakaidechō",
    "lat": 34.32278,
    "lon": 133.8356
  },
  {
    "id": 1865290,
    "name": "Annaka",
    "lat": 36.33011,
    "lon": 138.89585
  },
  {
    "id": 6822217,
    "name": "Minokamo",
    "lat": 35.48199,
    "lon": 137.02166
  },
  {
    "id": 1856456,
    "name": "Mukō",
    "lat": 34.96545,
    "lon": 135.70415
  },
  {
    "id": 1855066,
    "name": "Nōgata",
    "lat": 33.74051,
    "lon": 130.72263
  },
  {
    "id": 1907148,
    "name": "Fussa",
    "lat": 35.73667,
    "lon": 139.32361
  },
  {
    "id": 1864557,
    "name": "Chino",
    "lat": 35.9944,
    "lon": 138.15428
  },
  {
    "id": 11612473,
    "name": "Mizuho",
    "lat": 35.3943,
    "lon": 136.66898
  },
  {
    "id": 2127878,
    "name": "Mutsu",
    "lat": 41.28944,
    "lon": 141.21694
  },
  {
    "id": 1858498,
    "name": "Kudamatsu",
    "lat": 34.00964,
    "lon": 131.86637
  },
  {
    "id": 11611224,
    "name": "Takizawa",
    "lat": 39.8028,
    "lon": 141.13466
  },
  {
    "id": 6825490,
    "name": "Minamiuonuma",
    "lat": 37.08259,
    "lon": 138.87413
  },
  {
    "id": 6822161,
    "name": "Hidaka",
    "lat": 35.91664,
    "lon": 139.36233
  },
  {
    "id": 1852849,
    "name": "Satte",
    "lat": 36.07254,
    "lon": 139.72615
  },
  {
    "id": 6825501,
    "name": "Shijōnawate",
    "lat": 34.73333,
    "lon": 135.68333
  },
  {
    "id": 6822158,
    "name": "Miyakojima",
    "lat": 24.79016,
    "lon": 125.31109
  },
  {
    "id": 11611629,
    "name": "Hamura",
    "lat": 35.76232,
    "lon": 139.31952
  },
  {
    "id": 11612571,
    "name": "Konan",
    "lat": 34.99921,
    "lon": 136.09674
  },
  {
    "id": 1862612,
    "name": "Himimachi",
    "lat": 36.85609,
    "lon": 136.9885
  },
  {
    "id": 1854384,
    "name": "Okaya",
    "lat": 36.05659,
    "lon": 138.0451
  },
  {
    "id": 1851357,
    "name": "Suzaka",
    "lat": 36.65,
    "lon": 138.31667
  },
  {
    "id": 1861244,
    "name": "Iwade",
    "lat": 34.25,
    "lon": 135.31667
  },
  {
    "id": 1858286,
    "name": "Kurihama",
    "lat": 35.22796,
    "lon": 139.70212
  },
  {
    "id": 11274040,
    "name": "Arao",
    "lat": 32.97888,
    "lon": 130.44572
  },
  {
    "id": 1856698,
    "name": "Miyoshi",
    "lat": 34.8,
    "lon": 132.85
  },
  {
    "id": 2131612,
    "name": "Goshogawara",
    "lat": 40.80444,
    "lon": 140.44139
  },
  {
    "id": 2111656,
    "name": "Nihommatsu",
    "lat": 37.58333,
    "lon": 140.43333
  },
  {
    "id": 2112624,
    "name": "Inada",
    "lat": 36.43333,
    "lon": 140.51667
  },
  {
    "id": 1850217,
    "name": "Tōkamachi",
    "lat": 37.13333,
    "lon": 138.76667
  },
  {
    "id": 2111568,
    "name": "Ōami",
    "lat": 35.51667,
    "lon": 140.31667
  },
  {
    "id": 2111749,
    "name": "Naka",
    "lat": 36.05,
    "lon": 140.16667
  },
  {
    "id": 1863023,
    "name": "Hatogaya-honchō",
    "lat": 35.83314,
    "lon": 139.7425
  },
  {
    "id": 1848375,
    "name": "Yokkaichi",
    "lat": 33.53537,
    "lon": 131.32808
  },
  {
    "id": 2111049,
    "name": "Shiogama",
    "lat": 38.31667,
    "lon": 141.03333
  },
  {
    "id": 2110744,
    "name": "Tomiya",
    "lat": 38.39306,
    "lon": 140.88611
  },
  {
    "id": 6825497,
    "name": "Hannan",
    "lat": 34.33333,
    "lon": 135.25
  },
  {
    "id": 1907125,
    "name": "Kamifukuoka",
    "lat": 35.87266,
    "lon": 139.51369
  },
  {
    "id": 2128867,
    "name": "Noshiro",
    "lat": 40.20838,
    "lon": 140.0274
  },
  {
    "id": 1851883,
    "name": "Shiraoka",
    "lat": 36.01839,
    "lon": 139.66034
  },
  {
    "id": 1865412,
    "name": "Kariya",
    "lat": 34.75136,
    "lon": 134.38734
  },
  {
    "id": 1861108,
    "name": "Izumi",
    "lat": 32.08333,
    "lon": 130.36667
  },
  {
    "id": 1863713,
    "name": "Futtsu",
    "lat": 35.3108,
    "lon": 139.81877
  },
  {
    "id": 1851273,
    "name": "Tagawa",
    "lat": 33.63333,
    "lon": 130.8
  },
  {
    "id": 6825492,
    "name": "Sado",
    "lat": 38.02496,
    "lon": 138.35931
  },
  {
    "id": 1907309,
    "name": "Miura",
    "lat": 35.14,
    "lon": 139.61917
  },
  {
    "id": 1855476,
    "name": "Nichinan",
    "lat": 31.6,
    "lon": 131.36667
  },
  {
    "id": 6822195,
    "name": "Susono",
    "lat": 35.17388,
    "lon": 138.90691
  },
  {
    "id": 13132765,
    "name": "Fuchū",
    "lat": 34.38793,
    "lon": 132.51001
  },
  {
    "id": 2111884,
    "name": "Miyako",
    "lat": 39.64691,
    "lon": 141.94057
  },
  {
    "id": 1896348,
    "name": "Hikari",
    "lat": 33.955,
    "lon": 131.95
  },
  {
    "id": 11612557,
    "name": "Kyōtango",
    "lat": 35.60623,
    "lon": 135.04429
  },
  {
    "id": 1864155,
    "name": "Fuchūchō",
    "lat": 34.5735,
    "lon": 133.23513
  },
  {
    "id": 11611475,
    "name": "Yasu",
    "lat": 35.10053,
    "lon": 136.01778
  },
  {
    "id": 1848096,
    "name": "Yūki",
    "lat": 36.3,
    "lon": 139.88333
  },
  {
    "id": 1854530,
    "name": "Ōi",
    "lat": 35.85091,
    "lon": 139.51998
  },
  {
    "id": 1855670,
    "name": "Nanao",
    "lat": 37.04816,
    "lon": 136.96795
  },
  {
    "id": 11612701,
    "name": "Asakura",
    "lat": 33.41439,
    "lon": 130.71877
  },
  {
    "id": 6822155,
    "name": "Midori",
    "lat": 36.44492,
    "lon": 139.28448
  },
  {
    "id": 1859990,
    "name": "Kasaoka",
    "lat": 34.50597,
    "lon": 133.50391
  },
  {
    "id": 9888360,
    "name": "Katanawa",
    "lat": 33.52111,
    "lon": 130.42444
  },
  {
    "id": 1850523,
    "name": "Tateyama",
    "lat": 34.98333,
    "lon": 139.86667
  },
  {
    "id": 7303471,
    "name": "Arashiyama",
    "lat": 35.01481,
    "lon": 135.67755
  },
  {
    "id": 6822100,
    "name": "Tsukubamirai",
    "lat": 35.98411,
    "lon": 140.00929
  },
  {
    "id": 1860626,
    "name": "Kameyama",
    "lat": 34.85,
    "lon": 136.45
  },
  {
    "id": 2111268,
    "name": "Ryōgoku",
    "lat": 35.71667,
    "lon": 140.36667
  },
  {
    "id": 1854667,
    "name": "Ogawa",
    "lat": 34.96667,
    "lon": 136.96667
  },
  {
    "id": 1859492,
    "name": "Kikuchi",
    "lat": 32.98333,
    "lon": 130.81667
  },
  {
    "id": 1848705,
    "name": "Yamaga",
    "lat": 33.01667,
    "lon": 130.68911
  },
  {
    "id": 1851368,
    "name": "Suwa",
    "lat": 36.03799,
    "lon": 138.11308
  },
  {
    "id": 6822101,
    "name": "Omitama",
    "lat": 36.25449,
    "lon": 140.37962
  },
  {
    "id": 11611638,
    "name": "Chikugo",
    "lat": 33.20537,
    "lon": 130.49183
  },
  {
    "id": 10629856,
    "name": "Fujiyoshida",
    "lat": 35.44032,
    "lon": 138.79586
  },
  {
    "id": 6822220,
    "name": "Ena",
    "lat": 35.44722,
    "lon": 137.38332
  },
  {
    "id": 1851155,
    "name": "Takahama",
    "lat": 34.91667,
    "lon": 136.98333
  },
  {
    "id": 6822139,
    "name": "Tonami",
    "lat": 36.62047,
    "lon": 136.94321
  },
  {
    "id": 6822107,
    "name": "Hitachi-ota",
    "lat": 36.5513,
    "lon": 140.52821
  },
  {
    "id": 6822191,
    "name": "Izunokuni",
    "lat": 35.03907,
    "lon": 138.95143
  },
  {
    "id": 1858301,
    "name": "Kurayoshi",
    "lat": 35.43333,
    "lon": 133.81667
  },
  {
    "id": 2113115,
    "name": "Ami",
    "lat": 36.03333,
    "lon": 140.2
  },
  {
    "id": 6822143,
    "name": "Nomimachi",
    "lat": 36.40969,
    "lon": 136.48468
  },
  {
    "id": 6822193,
    "name": "Kikugawa",
    "lat": 34.70291,
    "lon": 138.11978
  },
  {
    "id": 1863540,
    "name": "Gosen",
    "lat": 37.73333,
    "lon": 139.16667
  },
  {
    "id": 6822168,
    "name": "Sanmu",
    "lat": 35.62756,
    "lon": 140.41762
  },
  {
    "id": 1860785,
    "name": "Kainan",
    "lat": 34.15166,
    "lon": 135.21398
  },
  {
    "id": 1907242,
    "name": "Nihammatsu",
    "lat": 35.37278,
    "lon": 139.39167
  },
  {
    "id": 10267209,
    "name": "Wakasugi",
    "lat": 33.60944,
    "lon": 130.52625
  },
  {
    "id": 11612455,
    "name": "Ōamishirasato",
    "lat": 35.51183,
    "lon": 140.35257
  },
  {
    "id": 1861207,
    "name": "Iwakura",
    "lat": 35.28333,
    "lon": 136.86667
  },
  {
    "id": 6822123,
    "name": "Nanto",
    "lat": 36.51274,
    "lon": 136.89352
  },
  {
    "id": 6694821,
    "name": "Nanto-shi",
    "lat": 36.56922,
    "lon": 136.91162
  },
  {
    "id": 1850834,
    "name": "Takeo",
    "lat": 33.19009,
    "lon": 130.02084
  },
  {
    "id": 1850091,
    "name": "Tomioka",
    "lat": 36.25411,
    "lon": 138.89813
  },
  {
    "id": 1852481,
    "name": "Shima",
    "lat": 34.33333,
    "lon": 136.83333
  },
  {
    "id": 2112758,
    "name": "Higashine",
    "lat": 38.43889,
    "lon": 140.40056
  },
  {
    "id": 1861416,
    "name": "Ishigaki",
    "lat": 24.34478,
    "lon": 124.15717
  },
  {
    "id": 1854026,
    "name": "Ono",
    "lat": 34.85,
    "lon": 134.93333
  },
  {
    "id": 2111173,
    "name": "Sawara",
    "lat": 35.88333,
    "lon": 140.5
  },
  {
    "id": 1849306,
    "name": "Umeki",
    "lat": 31.66667,
    "lon": 130.38333
  },
  {
    "id": 1852561,
    "name": "Shido",
    "lat": 34.32333,
    "lon": 134.17333
  },
  {
    "id": 6822108,
    "name": "Inashiki",
    "lat": 35.95633,
    "lon": 140.32356
  },
  {
    "id": 6822116,
    "name": "Takashima",
    "lat": 35.41347,
    "lon": 136.01612
  },
  {
    "id": 1854905,
    "name": "Numata",
    "lat": 36.63333,
    "lon": 139.05
  },
  {
    "id": 11524139,
    "name": "Hokuto",
    "lat": 35.83458,
    "lon": 138.39606
  },
  {
    "id": 1855907,
    "name": "Nakama",
    "lat": 33.81688,
    "lon": 130.70962
  },
  {
    "id": 11612330,
    "name": "Nankoku",
    "lat": 33.56943,
    "lon": 133.64937
  },
  {
    "id": 2128894,
    "name": "Noboribetsu",
    "lat": 42.45215,
    "lon": 141.17914
  },
  {
    "id": 1858858,
    "name": "Komoro",
    "lat": 36.31667,
    "lon": 138.43333
  },
  {
    "id": 1859319,
    "name": "Kitakata",
    "lat": 37.65,
    "lon": 139.86667
  },
  {
    "id": 6862586,
    "name": "Hokuto",
    "lat": 41.81626,
    "lon": 140.63472
  },
  {
    "id": 2112688,
    "name": "Hokota",
    "lat": 36.15,
    "lon": 140.51667
  },
  {
    "id": 1849237,
    "name": "Uozu",
    "lat": 36.8,
    "lon": 137.4
  },
  {
    "id": 11612479,
    "name": "Minamiawaji",
    "lat": 34.27396,
    "lon": 134.77512
  },
  {
    "id": 1854807,
    "name": "Obita",
    "lat": 32.81667,
    "lon": 129.88333
  },
  {
    "id": 2127896,
    "name": "Takikawa",
    "lat": 43.55278,
    "lon": 141.90639
  },
  {
    "id": 1857594,
    "name": "Masuda",
    "lat": 34.66667,
    "lon": 131.85
  },
  {
    "id": 6822173,
    "name": "Inabe",
    "lat": 35.11344,
    "lon": 136.57205
  },
  {
    "id": 8570265,
    "name": "Shinden",
    "lat": 35.99971,
    "lon": 139.62486
  },
  {
    "id": 11612337,
    "name": "Sakura",
    "lat": 36.72072,
    "lon": 139.98779
  },
  {
    "id": 1863418,
    "name": "Hagi",
    "lat": 34.4,
    "lon": 131.41667
  },
  {
    "id": 1851504,
    "name": "Sugito",
    "lat": 36.03107,
    "lon": 139.72636
  },
  {
    "id": 1852046,
    "name": "Shinshiro",
    "lat": 34.9,
    "lon": 137.5
  },
  {
    "id": 2110460,
    "name": "Yuzawa",
    "lat": 39.16667,
    "lon": 140.5
  },
  {
    "id": 1854018,
    "name": "Onoda",
    "lat": 34.00139,
    "lon": 131.18361
  },
  {
    "id": 2128558,
    "name": "Otofuke",
    "lat": 42.99167,
    "lon": 143.20028
  },
  {
    "id": 1859175,
    "name": "Kobayashi",
    "lat": 31.98333,
    "lon": 130.98333
  },
  {
    "id": 2112527,
    "name": "Iwanuma",
    "lat": 38.10472,
    "lon": 140.85944
  },
  {
    "id": 6822223,
    "name": "Nanjō",
    "lat": 26.14447,
    "lon": 127.76697
  },
  {
    "id": 11611221,
    "name": "Himi",
    "lat": 36.84666,
    "lon": 136.98355
  },
  {
    "id": 11611611,
    "name": "Ogi",
    "lat": 33.28028,
    "lon": 130.19503
  },
  {
    "id": 1856545,
    "name": "Morowa",
    "lat": 35.1,
    "lon": 137.06667
  },
  {
    "id": 1854255,
    "name": "Ōkubo-naka",
    "lat": 34.4045,
    "lon": 135.34087
  },
  {
    "id": 11612564,
    "name": "Akaiwa",
    "lat": 34.80986,
    "lon": 134.02153
  },
  {
    "id": 2111248,
    "name": "Sagae",
    "lat": 38.3725,
    "lon": 140.2725
  },
  {
    "id": 1850818,
    "name": "Taketoyo",
    "lat": 34.85,
    "lon": 136.91667
  },
  {
    "id": 8659953,
    "name": "Maruobara",
    "lat": 34.73925,
    "lon": 138.14303
  },
  {
    "id": 1852479,
    "name": "Shimabara",
    "lat": 32.78333,
    "lon": 130.36667
  },
  {
    "id": 11172649,
    "name": "Okino",
    "lat": 32.87009,
    "lon": 130.7917
  },
  {
    "id": 10642464,
    "name": "Nakatogari",
    "lat": 35.13526,
    "lon": 138.9028
  },
  {
    "id": 11612633,
    "name": "Unnan",
    "lat": 35.2431,
    "lon": 132.89989
  },
  {
    "id": 1856878,
    "name": "Mitsuke",
    "lat": 37.53333,
    "lon": 138.93333
  },
  {
    "id": 1853354,
    "name": "Ryūō",
    "lat": 35.65,
    "lon": 138.5
  },
  {
    "id": 1863978,
    "name": "Nishifukuma",
    "lat": 33.76627,
    "lon": 130.47461
  },
  {
    "id": 2112444,
    "name": "Kamaishi",
    "lat": 39.27694,
    "lon": 141.86801
  },
  {
    "id": 11611940,
    "name": "Yatomi",
    "lat": 35.1053,
    "lon": 136.73378
  },
  {
    "id": 2129211,
    "name": "Misawa",
    "lat": 40.68682,
    "lon": 141.38969
  },
  {
    "id": 11612565,
    "name": "Maniwa",
    "lat": 35.10643,
    "lon": 133.72009
  },
  {
    "id": 11612478,
    "name": "Kasai",
    "lat": 34.92633,
    "lon": 134.84533
  },
  {
    "id": 1855863,
    "name": "Nakano",
    "lat": 36.75,
    "lon": 138.36667
  },
  {
    "id": 11612338,
    "name": "Awaji",
    "lat": 34.47769,
    "lon": 134.93065
  },
  {
    "id": 1852163,
    "name": "Shimo-tsuma",
    "lat": 36.18333,
    "lon": 139.96667
  },
  {
    "id": 1861223,
    "name": "Iwai",
    "lat": 36.05,
    "lon": 139.9
  },
  {
    "id": 13132741,
    "name": "Kōta",
    "lat": 34.87482,
    "lon": 137.17086
  },
  {
    "id": 11612560,
    "name": "Minamishimabara",
    "lat": 32.67334,
    "lon": 130.26747
  },
  {
    "id": 1865375,
    "name": "Amagi",
    "lat": 33.41804,
    "lon": 130.65413
  },
  {
    "id": 1851426,
    "name": "Sumoto",
    "lat": 34.34322,
    "lon": 134.88911
  },
  {
    "id": 1860523,
    "name": "Kamikoizumi",
    "lat": 36.26426,
    "lon": 139.42908
  },
  {
    "id": 6822219,
    "name": "Gujō",
    "lat": 35.73691,
    "lon": 136.95852
  },
  {
    "id": 2112232,
    "name": "Kitaibaraki",
    "lat": 36.78671,
    "lon": 140.74901
  },
  {
    "id": 6822126,
    "name": "Kurobe-shi",
    "lat": 36.90123,
    "lon": 137.44955
  },
  {
    "id": 1858866,
    "name": "Komono",
    "lat": 35.0,
    "lon": 136.51667
  },
  {
    "id": 1862034,
    "name": "Ibara",
    "lat": 34.6,
    "lon": 133.46667
  },
  {
    "id": 1851813,
    "name": "Shirone",
    "lat": 37.76354,
    "lon": 139.02199
  },
  {
    "id": 7303145,
    "name": "Amami",
    "lat": 28.3769,
    "lon": 129.49379
  },
  {
    "id": 1855540,
    "name": "Naze",
    "lat": 28.36667,
    "lon": 129.48333
  },
  {
    "id": 10860988,
    "name": "Yomitan",
    "lat": 26.40167,
    "lon": 127.74503
  },
  {
    "id": 1856881,
    "name": "Mitsukaidō",
    "lat": 36.01667,
    "lon": 139.98333
  },
  {
    "id": 2111065,
    "name": "Shinjō",
    "lat": 38.75861,
    "lon": 140.30083
  },
  {
    "id": 11612562,
    "name": "Unzen",
    "lat": 32.77111,
    "lon": 130.24841
  },
  {
    "id": 6822114,
    "name": "Minamiashigara",
    "lat": 35.31947,
    "lon": 139.1096
  },
  {
    "id": 1862230,
    "name": "Hondomachi-hondo",
    "lat": 32.45993,
    "lon": 130.16713
  },
  {
    "id": 1860176,
    "name": "Kannabechō-yahiro",
    "lat": 34.55808,
    "lon": 133.41796
  },
  {
    "id": 1861285,
    "name": "Itoigawa",
    "lat": 37.03333,
    "lon": 137.85
  },
  {
    "id": 11837950,
    "name": "Agano",
    "lat": 37.83605,
    "lon": 139.22332
  },
  {
    "id": 11611935,
    "name": "Katō",
    "lat": 34.92422,
    "lon": 135.02609
  },
  {
    "id": 1926055,
    "name": "Ōzu",
    "lat": 33.5,
    "lon": 132.55
  },
  {
    "id": 1860214,
    "name": "Kanegusuku",
    "lat": 26.19698,
    "lon": 127.72591
  },
  {
    "id": 6822098,
    "name": "Kasumigaura",
    "lat": 36.15326,
    "lon": 140.24635
  },
  {
    "id": 1852901,
    "name": "Sasayama",
    "lat": 35.06667,
    "lon": 135.21667
  },
  {
    "id": 1850499,
    "name": "Tatsunochō-tominaga",
    "lat": 34.86437,
    "lon": 134.552
  },
  {
    "id": 1907190,
    "name": "Minawa",
    "lat": 35.52278,
    "lon": 139.31944
  },
  {
    "id": 1849299,
    "name": "Umi",
    "lat": 33.56826,
    "lon": 130.51009
  },
  {
    "id": 1856560,
    "name": "Morohongō",
    "lat": 35.93556,
    "lon": 139.30444
  },
  {
    "id": 13132798,
    "name": "Tamba-Sasayama",
    "lat": 35.07318,
    "lon": 135.21781
  },
  {
    "id": 1863279,
    "name": "Hamanoichi",
    "lat": 31.71667,
    "lon": 130.73333
  },
  {
    "id": 1857379,
    "name": "Mibu",
    "lat": 36.41667,
    "lon": 139.8
  },
  {
    "id": 6822102,
    "name": "Hitachiomiya",
    "lat": 36.56447,
    "lon": 140.40269
  },
  {
    "id": 1854405,
    "name": "Ōkawa",
    "lat": 33.20566,
    "lon": 130.37527
  },
  {
    "id": 2112802,
    "name": "Hasaki",
    "lat": 35.73333,
    "lon": 140.83333
  },
  {
    "id": 2112521,
    "name": "Iwase",
    "lat": 36.35,
    "lon": 140.1
  },
  {
    "id": 11611946,
    "name": "Bizen",
    "lat": 34.78674,
    "lon": 134.23542
  },
  {
    "id": 6822189,
    "name": "Higashimatsushima",
    "lat": 38.40886,
    "lon": 141.17901
  },
  {
    "id": 1859964,
    "name": "Kaseda-shirakame",
    "lat": 31.41667,
    "lon": 130.31667
  },
  {
    "id": 1862010,
    "name": "Ibusuki",
    "lat": 31.23333,
    "lon": 130.65
  },
  {
    "id": 1857209,
    "name": "Minakuchichō-matoba",
    "lat": 34.96667,
    "lon": 136.16667
  },
  {
    "id": 1848482,
    "name": "Yasugichō",
    "lat": 35.42146,
    "lon": 133.24224
  },
  {
    "id": 2111435,
    "name": "Ōmagari",
    "lat": 39.45,
    "lon": 140.48333
  },
  {
    "id": 11612576,
    "name": "Yoshinogawa",
    "lat": 34.03858,
    "lon": 134.29207
  },
  {
    "id": 1855134,
    "name": "Nishiwaki",
    "lat": 34.98419,
    "lon": 134.97407
  },
  {
    "id": 2129395,
    "name": "Kuroishi",
    "lat": 40.64581,
    "lon": 140.58354
  },
  {
    "id": 11012851,
    "name": "Miyoshidai",
    "lat": 35.83318,
    "lon": 139.54437
  },
  {
    "id": 2111809,
    "name": "Murata",
    "lat": 38.11858,
    "lon": 140.72434
  },
  {
    "id": 1857769,
    "name": "Maibara",
    "lat": 35.31667,
    "lon": 136.28333
  },
  {
    "id": 2129766,
    "name": "Kamiiso",
    "lat": 41.82013,
    "lon": 140.64482
  },
  {
    "id": 1862352,
    "name": "Hitoyoshi",
    "lat": 32.21667,
    "lon": 130.75
  },
  {
    "id": 1856667,
    "name": "Mizunami",
    "lat": 35.36667,
    "lon": 137.25
  },
  {
    "id": 1849782,
    "name": "Tsubata",
    "lat": 36.67012,
    "lon": 136.7403
  },
  {
    "id": 1860234,
    "name": "Kanda",
    "lat": 33.78333,
    "lon": 130.98333
  },
  {
    "id": 1926116,
    "name": "Kawanoechō",
    "lat": 34.01654,
    "lon": 133.57844
  },
  {
    "id": 1849069,
    "name": "Uto",
    "lat": 32.68333,
    "lon": 130.66667
  },
  {
    "id": 6822119,
    "name": "Katsuragi",
    "lat": 34.48562,
    "lon": 135.69698
  },
  {
    "id": 1860191,
    "name": "Kanie",
    "lat": 35.13333,
    "lon": 136.8
  },
  {
    "id": 2110743,
    "name": "Tomobe",
    "lat": 36.35,
    "lon": 140.3
  },
  {
    "id": 1860211,
    "name": "Kanekomachi",
    "lat": 36.41097,
    "lon": 138.99621
  },
  {
    "id": 2130146,
    "name": "Hanawa",
    "lat": 40.18361,
    "lon": 140.78722
  },
  {
    "id": 10645302,
    "name": "Kamizawa",
    "lat": 35.10151,
    "lon": 138.95398
  },
  {
    "id": 8572218,
    "name": "Washinomiya",
    "lat": 36.09916,
    "lon": 139.66041
  },
  {
    "id": 1850746,
    "name": "Tamamura",
    "lat": 36.3,
    "lon": 139.11667
  },
  {
    "id": 1853174,
    "name": "Sakaiminato",
    "lat": 35.53774,
    "lon": 133.23094
  },
  {
    "id": 1848776,
    "name": "Yaita",
    "lat": 36.8,
    "lon": 139.93333
  },
  {
    "id": 9634762,
    "name": "Sugai",
    "lat": 34.75484,
    "lon": 135.79684
  },
  {
    "id": 1849094,
    "name": "Usuki",
    "lat": 33.12342,
    "lon": 131.80401
  },
  {
    "id": 1858902,
    "name": "Komatsushimachō",
    "lat": 34.0,
    "lon": 134.58333
  },
  {
    "id": 11612566,
    "name": "Setouchi",
    "lat": 34.65919,
    "lon": 134.14238
  },
  {
    "id": 2111277,
    "name": "Rifu",
    "lat": 38.33092,
    "lon": 140.97691
  },
  {
    "id": 1852385,
    "name": "Nishishinminato",
    "lat": 36.77957,
    "lon": 137.07576
  },
  {
    "id": 11612459,
    "name": "Miyama",
    "lat": 33.12102,
    "lon": 130.50007
  },
  {
    "id": 11612454,
    "name": "Minamibōsō",
    "lat": 35.03126,
    "lon": 139.92651
  },
  {
    "id": 2130741,
    "name": "Abashiri",
    "lat": 44.02127,
    "lon": 144.26971
  },
  {
    "id": 6822167,
    "name": "Sōsa",
    "lat": 35.71541,
    "lon": 140.55309
  },
  {
    "id": 11612481,
    "name": "Shisō",
    "lat": 34.98107,
    "lon": 134.56398
  },
  {
    "id": 2112409,
    "name": "Kaminoyama",
    "lat": 38.15389,
    "lon": 140.27361
  },
  {
    "id": 6822180,
    "name": "Isumi",
    "lat": 35.23005,
    "lon": 140.40492
  },
  {
    "id": 10353044,
    "name": "Kami",
    "lat": 33.52936,
    "lon": 130.76479
  },
  {
    "id": 2111530,
    "name": "Ōfunato",
    "lat": 39.07167,
    "lon": 141.71667
  },
  {
    "id": 1849038,
    "name": "Uwa",
    "lat": 33.36451,
    "lon": 132.51267
  },
  {
    "id": 2112913,
    "name": "Funaishikawa",
    "lat": 36.46667,
    "lon": 140.56667
  },
  {
    "id": 9197267,
    "name": "Yakami",
    "lat": 34.1385,
    "lon": 134.50185
  },
  {
    "id": 1853433,
    "name": "Ōzu",
    "lat": 32.8804,
    "lon": 130.87161
  },
  {
    "id": 6822170,
    "name": "Tamura",
    "lat": 37.43055,
    "lon": 140.60335
  },
  {
    "id": 1926006,
    "name": "Iyo",
    "lat": 33.75139,
    "lon": 132.70139
  },
  {
    "id": 1848055,
    "name": "Gero",
    "lat": 35.8,
    "lon": 137.23333
  },
  {
    "id": 1855341,
    "name": "Nishihara",
    "lat": 26.25353,
    "lon": 127.74352
  },
  {
    "id": 6822215,
    "name": "Kaizu",
    "lat": 35.20169,
    "lon": 136.63505
  },
  {
    "id": 2130421,
    "name": "Date",
    "lat": 42.46806,
    "lon": 140.86806
  },
  {
    "id": 6822140,
    "name": "Kahoku",
    "lat": 36.75758,
    "lon": 136.71162
  },
  {
    "id": 6822169,
    "name": "Sōma",
    "lat": 37.79283,
    "lon": 140.92941
  },
  {
    "id": 11612333,
    "name": "Awa",
    "lat": 34.09205,
    "lon": 134.28452
  },
  {
    "id": 1854444,
    "name": "Ojiya",
    "lat": 37.3,
    "lon": 138.8
  },
  {
    "id": 1855694,
    "name": "Namerikawa",
    "lat": 36.75965,
    "lon": 137.36215
  },
  {
    "id": 2111441,
    "name": "Okunoya",
    "lat": 36.28333,
    "lon": 140.41667
  },
  {
    "id": 1855891,
    "name": "Nakamura",
    "lat": 32.98333,
    "lon": 132.93333
  },
  {
    "id": 8572879,
    "name": "Ōizumi-gakuenchō",
    "lat": 35.7653,
    "lon": 139.58877
  },
  {
    "id": 6825494,
    "name": "Uonuma",
    "lat": 37.24488,
    "lon": 138.96234
  },
  {
    "id": 2129427,
    "name": "Kuji",
    "lat": 40.18778,
    "lon": 141.76889
  },
  {
    "id": 11612559,
    "name": "Gotō",
    "lat": 32.68418,
    "lon": 128.8068
  },
  {
    "id": 1862505,
    "name": "Hirara",
    "lat": 24.80379,
    "lon": 125.30222
  },
  {
    "id": 1854774,
    "name": "Ōdachō-ōda",
    "lat": 35.19025,
    "lon": 132.50846
  },
  {
    "id": 1863592,
    "name": "Gojō",
    "lat": 34.35,
    "lon": 135.7
  },
  {
    "id": 1849647,
    "name": "Tsuma",
    "lat": 32.1,
    "lon": 131.4
  },
  {
    "id": 1863426,
    "name": "Katsuren-haebaru",
    "lat": 26.33294,
    "lon": 127.87403
  },
  {
    "id": 1864945,
    "name": "Atami",
    "lat": 35.08834,
    "lon": 139.05325
  },
  {
    "id": 13132740,
    "name": "Fusō",
    "lat": 35.35782,
    "lon": 136.90983
  },
  {
    "id": 11611474,
    "name": "Tōon",
    "lat": 33.79427,
    "lon": 132.89011
  },
  {
    "id": 2127515,
    "name": "Wakkanai",
    "lat": 45.40944,
    "lon": 141.67389
  },
  {
    "id": 9633084,
    "name": "Hikiso",
    "lat": 34.54416,
    "lon": 135.7382
  },
  {
    "id": 1857357,
    "name": "Mie",
    "lat": 32.96667,
    "lon": 131.58333
  },
  {
    "id": 1854022,
    "name": "Ono",
    "lat": 35.98106,
    "lon": 136.48727
  },
  {
    "id": 1851713,
    "name": "Shōbara",
    "lat": 34.85,
    "lon": 133.01667
  },
  {
    "id": 1854923,
    "name": "Higashinozoe",
    "lat": 34.7175,
    "lon": 134.88162
  },
  {
    "id": 1857651,
    "name": "Maruoka",
    "lat": 36.1534,
    "lon": 136.27029
  },
  {
    "id": 1861816,
    "name": "Ikaruga",
    "lat": 34.83475,
    "lon": 134.57803
  },
  {
    "id": 2110586,
    "name": "Watari",
    "lat": 38.035,
    "lon": 140.85111
  },
  {
    "id": 11611479,
    "name": "Yamanashi",
    "lat": 35.67152,
    "lon": 138.69827
  },
  {
    "id": 2111016,
    "name": "Shiroishi",
    "lat": 38.00333,
    "lon": 140.61833
  },
  {
    "id": 11612542,
    "name": "Soo",
    "lat": 31.64637,
    "lon": 130.99068
  },
  {
    "id": 2112455,
    "name": "Kakuda",
    "lat": 37.97451,
    "lon": 140.77202
  },
  {
    "id": 1862098,
    "name": "Hotaka",
    "lat": 36.3396,
    "lon": 137.88254
  },
  {
    "id": 2112940,
    "name": "Fujishiro",
    "lat": 35.91667,
    "lon": 140.11667
  },
  {
    "id": 11612540,
    "name": "Minamikyushu",
    "lat": 31.34689,
    "lon": 130.45612
  },
  {
    "id": 6822218,
    "name": "Motosu",
    "lat": 35.48384,
    "lon": 136.67443
  },
  {
    "id": 1852109,
    "name": "Shingū",
    "lat": 33.71399,
    "lon": 130.4313
  },
  {
    "id": 11612541,
    "name": "Minamisatsuma",
    "lat": 31.38999,
    "lon": 130.28343
  },
  {
    "id": 1848243,
    "name": "Yorii",
    "lat": 36.11567,
    "lon": 139.19429
  },
  {
    "id": 11612694,
    "name": "Asakuchi",
    "lat": 34.53484,
    "lon": 133.60302
  },
  {
    "id": 11612342,
    "name": "Yufu",
    "lat": 33.1956,
    "lon": 131.37829
  },
  {
    "id": 1860648,
    "name": "Kameda-honchō",
    "lat": 37.87214,
    "lon": 139.1099
  },
  {
    "id": 1852358,
    "name": "Shimoda",
    "lat": 32.94584,
    "lon": 132.98635
  },
  {
    "id": 2110518,
    "name": "Yōkaichiba",
    "lat": 35.7,
    "lon": 140.55
  },
  {
    "id": 1854492,
    "name": "Ōiso",
    "lat": 35.31558,
    "lon": 139.31625
  },
  {
    "id": 1858249,
    "name": "Kuroda",
    "lat": 35.35,
    "lon": 136.78333
  },
  {
    "id": 1899102,
    "name": "Nagato",
    "lat": 34.38333,
    "lon": 131.2
  },
  {
    "id": 11147658,
    "name": "Shimada",
    "lat": 32.75684,
    "lon": 130.79043
  },
  {
    "id": 1848550,
    "name": "Yanai",
    "lat": 33.96667,
    "lon": 132.11667
  },
  {
    "id": 13132743,
    "name": "Ōharu",
    "lat": 35.17457,
    "lon": 136.82014
  },
  {
    "id": 11612331,
    "name": "Aki-takata",
    "lat": 34.67416,
    "lon": 132.68188
  },
  {
    "id": 1850472,
    "name": "Tawaramoto",
    "lat": 34.5542,
    "lon": 135.79297
  },
  {
    "id": 1848618,
    "name": "Yamashita",
    "lat": 33.56554,
    "lon": 133.70284
  },
  {
    "id": 6822178,
    "name": "Komagane",
    "lat": 35.71657,
    "lon": 137.93745
  },
  {
    "id": 6822104,
    "name": "Namegata",
    "lat": 36.00705,
    "lon": 140.49623
  },
  {
    "id": 2112694,
    "name": "Hizume",
    "lat": 39.55,
    "lon": 141.16667
  },
  {
    "id": 2112297,
    "name": "Kamogawa",
    "lat": 35.0969,
    "lon": 140.1003
  },
  {
    "id": 2110541,
    "name": "Yamoto",
    "lat": 38.42738,
    "lon": 141.21487
  },
  {
    "id": 7303003,
    "name": "Yawatahama",
    "lat": 33.45737,
    "lon": 132.4328
  },
  {
    "id": 1864873,
    "name": "Ayabe",
    "lat": 35.3,
    "lon": 135.25
  },
  {
    "id": 1863356,
    "name": "Hakonegasaki",
    "lat": 35.76944,
    "lon": 139.35111
  },
  {
    "id": 6822203,
    "name": "Katagami",
    "lat": 39.87869,
    "lon": 139.99767
  },
  {
    "id": 10642471,
    "name": "Fushimi",
    "lat": 35.11426,
    "lon": 138.89742
  },
  {
    "id": 1849424,
    "name": "Uekimachi-mōno",
    "lat": 32.89964,
    "lon": 130.68898
  },
  {
    "id": 1862992,
    "name": "Hayama",
    "lat": 35.27651,
    "lon": 139.57733
  },
  {
    "id": 1847983,
    "name": "Zentsujichó",
    "lat": 34.22699,
    "lon": 133.77791
  },
  {
    "id": 11612558,
    "name": "Nantan",
    "lat": 35.1098,
    "lon": 135.49164
  },
  {
    "id": 1851137,
    "name": "Takahashi",
    "lat": 34.78333,
    "lon": 133.61667
  },
  {
    "id": 11612589,
    "name": "Kōshū",
    "lat": 35.72422,
    "lon": 138.77106
  },
  {
    "id": 6822204,
    "name": "Kita-Akita",
    "lat": 40.19956,
    "lon": 140.39388
  },
  {
    "id": 1853192,
    "name": "Sakai-nakajima",
    "lat": 36.26667,
    "lon": 139.25
  },
  {
    "id": 1860458,
    "name": "Kaminokawa",
    "lat": 36.43333,
    "lon": 139.91667
  },
  {
    "id": 2128975,
    "name": "Nemuro",
    "lat": 43.32361,
    "lon": 145.575
  },
  {
    "id": 11612585,
    "name": "Chūō",
    "lat": 35.59465,
    "lon": 138.50275
  },
  {
    "id": 1852915,
    "name": "Sasaguri",
    "lat": 33.61561,
    "lon": 130.55105
  },
  {
    "id": 1862555,
    "name": "Hirado",
    "lat": 33.36853,
    "lon": 129.55247
  },
  {
    "id": 6822196,
    "name": "Omaezaki",
    "lat": 34.59882,
    "lon": 138.21934
  },
  {
    "id": 2111781,
    "name": "Nagai",
    "lat": 38.10361,
    "lon": 140.035
  },
  {
    "id": 1860095,
    "name": "Kanzakimachi-kanzaki",
    "lat": 33.30895,
    "lon": 130.37383
  },
  {
    "id": 11612329,
    "name": "Tsuru",
    "lat": 35.54731,
    "lon": 138.90959
  },
  {
    "id": 10310759,
    "name": "Yurigaoka",
    "lat": 33.84661,
    "lon": 130.62963
  },
  {
    "id": 6822225,
    "name": "Yaese",
    "lat": 26.12733,
    "lon": 127.7432
  },
  {
    "id": 6822206,
    "name": "Hirakawa",
    "lat": 40.58728,
    "lon": 140.57107
  },
  {
    "id": 6822205,
    "name": "Tsugaru",
    "lat": 40.80357,
    "lon": 140.40299
  },
  {
    "id": 11777258,
    "name": "Minase",
    "lat": 34.87724,
    "lon": 135.6651
  },
  {
    "id": 6822192,
    "name": "Izu",
    "lat": 34.97159,
    "lon": 138.94643
  },
  {
    "id": 1855416,
    "name": "Niimi",
    "lat": 34.98333,
    "lon": 133.46667
  },
  {
    "id": 11612692,
    "name": "Ichikikushikino",
    "lat": 31.72934,
    "lon": 130.29305
  },
  {
    "id": 1926101,
    "name": "Masaki-chō",
    "lat": 33.78757,
    "lon": 132.71124
  },
  {
    "id": 1850860,
    "name": "Takehara",
    "lat": 34.33833,
    "lon": 132.91667
  },
  {
    "id": 11611932,
    "name": "Nanyō",
    "lat": 38.04322,
    "lon": 140.11276
  },
  {
    "id": 6825491,
    "name": "Myoko",
    "lat": 37.02534,
    "lon": 138.25561
  },
  {
    "id": 1849367,
    "name": "Ujiie",
    "lat": 36.68333,
    "lon": 139.96667
  },
  {
    "id": 11612327,
    "name": "Iki",
    "lat": 33.78286,
    "lon": 129.7209
  },
  {
    "id": 1861410,
    "name": "Ishigami",
    "lat": 36.25,
    "lon": 139.15
  },
  {
    "id": 13132797,
    "name": "Inami",
    "lat": 34.74807,
    "lon": 134.91284
  },
  {
    "id": 2111824,
    "name": "Motomiya",
    "lat": 37.51391,
    "lon": 140.40063
  },
  {
    "id": 1852588,
    "name": "Shibushi",
    "lat": 31.476,
    "lon": 131.10114
  },
  {
    "id": 8572949,
    "name": "Narimasu",
    "lat": 35.78355,
    "lon": 139.6323
  },
  {
    "id": 1859941,
    "name": "Kashima",
    "lat": 33.10611,
    "lon": 130.09056
  },
  {
    "id": 1853662,
    "name": "Ōtake",
    "lat": 34.20754,
    "lon": 132.22063
  },
  {
    "id": 6822177,
    "name": "Tōmi",
    "lat": 36.35582,
    "lon": 138.36093
  },
  {
    "id": 1850269,
    "name": "Togitsu",
    "lat": 32.83333,
    "lon": 129.85
  },
  {
    "id": 9290061,
    "name": "Kimokawa",
    "lat": 34.87969,
    "lon": 135.36698
  },
  {
    "id": 1860772,
    "name": "Kaitaichi",
    "lat": 34.36667,
    "lon": 132.53333
  },
  {
    "id": 1861454,
    "name": "Isawa",
    "lat": 35.65,
    "lon": 138.63333
  },
  {
    "id": 9017898,
    "name": "Yamaguma",
    "lat": 33.42118,
    "lon": 130.6136
  },
  {
    "id": 1855363,
    "name": "Nirasaki",
    "lat": 35.7,
    "lon": 138.45
  },
  {
    "id": 1854849,
    "name": "Obama",
    "lat": 35.49576,
    "lon": 135.74604
  },
  {
    "id": 1857208,
    "name": "Minamata",
    "lat": 32.21667,
    "lon": 130.4
  },
  {
    "id": 10971146,
    "name": "Machiya",
    "lat": 35.74804,
    "lon": 139.78128
  },
  {
    "id": 11611608,
    "name": "Saito",
    "lat": 32.08199,
    "lon": 131.39957
  },
  {
    "id": 1862130,
    "name": "Hōshakuji",
    "lat": 36.63333,
    "lon": 139.98333
  },
  {
    "id": 1856476,
    "name": "Muikamachi",
    "lat": 37.06667,
    "lon": 138.88333
  },
  {
    "id": 1857751,
    "name": "Maki",
    "lat": 37.75,
    "lon": 138.88333
  },
  {
    "id": 2130534,
    "name": "Bibai",
    "lat": 43.32472,
    "lon": 141.85861
  },
  {
    "id": 1848991,
    "name": "Wadayama",
    "lat": 35.31667,
    "lon": 134.86667
  },
  {
    "id": 6822124,
    "name": "Oyabe",
    "lat": 36.66667,
    "lon": 136.85
  },
  {
    "id": 1854665,
    "name": "Ogawamachi",
    "lat": 36.05342,
    "lon": 139.26612
  },
  {
    "id": 1851440,
    "name": "Sumiyoshi",
    "lat": 34.75,
    "lon": 138.25
  },
  {
    "id": 10979195,
    "name": "Matsubushi",
    "lat": 35.91898,
    "lon": 139.81128
  },
  {
    "id": 2110481,
    "name": "Yoshioka",
    "lat": 38.44139,
    "lon": 140.87639
  },
  {
    "id": 2112016,
    "name": "Makuhari",
    "lat": 35.65,
    "lon": 140.05
  },
  {
    "id": 1850630,
    "name": "Tanuma",
    "lat": 36.36667,
    "lon": 139.58333
  },
  {
    "id": 10267168,
    "name": "Sue",
    "lat": 33.59149,
    "lon": 130.50423
  },
  {
    "id": 1862689,
    "name": "Hiji",
    "lat": 33.37081,
    "lon": 131.53025
  },
  {
    "id": 2129003,
    "name": "Honchō",
    "lat": 41.8944,
    "lon": 140.69386
  },
  {
    "id": 6825493,
    "name": "Tainai",
    "lat": 38.06463,
    "lon": 139.4056
  },
  {
    "id": 10630007,
    "name": "Tsushima",
    "lat": 34.20634,
    "lon": 129.29076
  },
  {
    "id": 1865661,
    "name": "Aioi",
    "lat": 34.80361,
    "lon": 134.46806
  },
  {
    "id": 1864025,
    "name": "Fukiage-fujimi",
    "lat": 36.1,
    "lon": 139.45
  },
  {
    "id": 11612539,
    "name": "Higashikagawa",
    "lat": 34.21024,
    "lon": 134.33653
  },
  {
    "id": 1864652,
    "name": "Chatan",
    "lat": 26.30948,
    "lon": 127.77024
  },
  {
    "id": 1862471,
    "name": "Hiratachō",
    "lat": 35.43333,
    "lon": 132.81667
  },
  {
    "id": 6822122,
    "name": "Ōuda-yamaguchi",
    "lat": 34.45923,
    "lon": 135.95363
  },
  {
    "id": 10311204,
    "name": "Miyaodai",
    "lat": 33.84661,
    "lon": 130.71276
  },
  {
    "id": 13156692,
    "name": "Yahaba",
    "lat": 39.61114,
    "lon": 141.14743
  },
  {
    "id": 11612574,
    "name": "Mima",
    "lat": 34.05493,
    "lon": 134.13963
  },
  {
    "id": 1859234,
    "name": "Kitsuki",
    "lat": 33.41998,
    "lon": 131.61837
  },
  {
    "id": 1926142,
    "name": "Hōjō",
    "lat": 33.97661,
    "lon": 132.77767
  },
  {
    "id": 11397285,
    "name": "Ukiha",
    "lat": 33.35634,
    "lon": 130.74966
  },
  {
    "id": 1849817,
    "name": "Toyoshina",
    "lat": 36.29991,
    "lon": 137.90108
  },
  {
    "id": 1858283,
    "name": "Kurihashi",
    "lat": 36.13333,
    "lon": 139.7
  },
  {
    "id": 2110893,
    "name": "Takahagi",
    "lat": 36.71667,
    "lon": 140.71667
  },
  {
    "id": 1857403,
    "name": "Menuma",
    "lat": 36.22245,
    "lon": 139.38205
  },
  {
    "id": 2112555,
    "name": "Itako",
    "lat": 35.93333,
    "lon": 140.55
  },
  {
    "id": 2111425,
    "name": "Ōmiya",
    "lat": 36.55,
    "lon": 140.41667
  },
  {
    "id": 1862136,
    "name": "Hōryūji",
    "lat": 34.61234,
    "lon": 135.73754
  },
  {
    "id": 1855380,
    "name": "Ninomiya",
    "lat": 35.3015,
    "lon": 139.25581
  },
  {
    "id": 1854186,
    "name": "Ōmachi",
    "lat": 36.5,
    "lon": 137.86667
  },
  {
    "id": 1864894,
    "name": "Awara",
    "lat": 36.22309,
    "lon": 136.19236
  },
  {
    "id": 1847947,
    "name": "Shingū",
    "lat": 33.73333,
    "lon": 135.98333
  },
  {
    "id": 1865207,
    "name": "Arai",
    "lat": 37.00059,
    "lon": 138.2259
  },
  {
    "id": 1850600,
    "name": "Tarui",
    "lat": 35.36667,
    "lon": 136.53333
  },
  {
    "id": 6822213,
    "name": "Yamagata",
    "lat": 35.47619,
    "lon": 136.7721
  },
  {
    "id": 2128983,
    "name": "Nayoro",
    "lat": 44.35056,
    "lon": 142.45778
  },
  {
    "id": 1859765,
    "name": "Katsuyama",
    "lat": 36.06173,
    "lon": 136.50101
  },
  {
    "id": 6324583,
    "name": "Aso",
    "lat": 32.93726,
    "lon": 131.08008
  },
  {
    "id": 8198709,
    "name": "Buzen",
    "lat": 33.61153,
    "lon": 131.13002
  },
  {
    "id": 1851169,
    "name": "Takada",
    "lat": 35.3,
    "lon": 136.56667
  },
  {
    "id": 9199689,
    "name": "Hiragi",
    "lat": 34.2706,
    "lon": 134.13074
  },
  {
    "id": 11611643,
    "name": "Arida",
    "lat": 34.08089,
    "lon": 135.11905
  },
  {
    "id": 1863997,
    "name": "Fukuechō",
    "lat": 32.69732,
    "lon": 128.84561
  },
  {
    "id": 2129324,
    "name": "Makubetsu",
    "lat": 45.37139,
    "lon": 141.82111
  },
  {
    "id": 1856472,
    "name": "Mukai-awagasaki",
    "lat": 36.63246,
    "lon": 136.63726
  },
  {
    "id": 7281819,
    "name": "Fujikawaguchiko",
    "lat": 35.48933,
    "lon": 138.68832
  },
  {
    "id": 1863541,
    "name": "Gose",
    "lat": 34.45,
    "lon": 135.73333
  },
  {
    "id": 1848717,
    "name": "Tosayamadachō-nakano",
    "lat": 33.6,
    "lon": 133.68333
  },
  {
    "id": 2128382,
    "name": "Rumoi",
    "lat": 43.93444,
    "lon": 141.64278
  },
  {
    "id": 11612460,
    "name": "Miyawaka",
    "lat": 33.71706,
    "lon": 130.64117
  },
  {
    "id": 11612561,
    "name": "Saikai",
    "lat": 32.9839,
    "lon": 129.6809
  },
  {
    "id": 11612682,
    "name": "Kunisaki",
    "lat": 33.5547,
    "lon": 131.72796
  },
  {
    "id": 1851390,
    "name": "Susaki",
    "lat": 33.39471,
    "lon": 133.29128
  },
  {
    "id": 1854028,
    "name": "Ōno-hara",
    "lat": 34.28333,
    "lon": 132.26667
  },
  {
    "id": 1857560,
    "name": "Matsubase",
    "lat": 32.65,
    "lon": 130.66667
  },
  {
    "id": 2130332,
    "name": "Fukagawa",
    "lat": 43.70806,
    "lon": 142.03917
  },
  {
    "id": 1861586,
    "name": "Innoshima",
    "lat": 34.28333,
    "lon": 133.18333
  },
  {
    "id": 2110735,
    "name": "Tōno",
    "lat": 39.31667,
    "lon": 141.53333
  },
  {
    "id": 2111999,
    "name": "Mashiko",
    "lat": 36.46667,
    "lon": 140.1
  },
  {
    "id": 1860341,
    "name": "Kamo",
    "lat": 37.66442,
    "lon": 139.03502
  },
  {
    "id": 1862968,
    "name": "Hayashino",
    "lat": 35.0,
    "lon": 134.15
  },
  {
    "id": 1853280,
    "name": "Sagara",
    "lat": 34.68503,
    "lon": 138.20461
  },
  {
    "id": 13132762,
    "name": "Ginan",
    "lat": 35.38834,
    "lon": 136.78483
  },
  {
    "id": 2128147,
    "name": "Shimo-furano",
    "lat": 43.35,
    "lon": 142.38333
  },
  {
    "id": 1864055,
    "name": "Tōyō",
    "lat": 35.6698,
    "lon": 139.81456
  },
  {
    "id": 11612707,
    "name": "Semboku",
    "lat": 39.7093,
    "lon": 140.74654
  },
  {
    "id": 1849183,
    "name": "Ureshinomachi-shimojuku",
    "lat": 33.11358,
    "lon": 130.00292
  },
  {
    "id": 13156699,
    "name": "Tōin",
    "lat": 35.09466,
    "lon": 136.60062
  },
  {
    "id": 2128279,
    "name": "Sarubetsu",
    "lat": 42.87242,
    "lon": 143.3376
  },
  {
    "id": 2111429,
    "name": "Omigawa",
    "lat": 35.85,
    "lon": 140.61667
  },
  {
    "id": 1858041,
    "name": "Kushikino",
    "lat": 31.71667,
    "lon": 130.26667
  },
  {
    "id": 11612328,
    "name": "Tosa",
    "lat": 33.50476,
    "lon": 133.44475
  },
  {
    "id": 2111677,
    "name": "Narutō",
    "lat": 35.6,
    "lon": 140.41667
  },
  {
    "id": 8576625,
    "name": "Noborito",
    "lat": 35.62203,
    "lon": 139.56051
  },
  {
    "id": 1848194,
    "name": "Yoshii",
    "lat": 36.25,
    "lon": 138.98333
  },
  {
    "id": 8611025,
    "name": "Mochibaru",
    "lat": 31.75506,
    "lon": 131.12977
  },
  {
    "id": 9188982,
    "name": "Ōwa",
    "lat": 36.19944,
    "lon": 139.49465
  },
  {
    "id": 6822187,
    "name": "Ninohe",
    "lat": 40.29081,
    "lon": 141.31334
  },
  {
    "id": 9891157,
    "name": "Nakatsukuma",
    "lat": 33.32351,
    "lon": 130.44218
  },
  {
    "id": 1848210,
    "name": "Yoshida-kasugachō",
    "lat": 37.68333,
    "lon": 138.88333
  },
  {
    "id": 1857659,
    "name": "Kamimaruko",
    "lat": 36.31865,
    "lon": 138.27329
  },
  {
    "id": 9291689,
    "name": "Itogawa",
    "lat": 34.02619,
    "lon": 135.25281
  },
  {
    "id": 1861825,
    "name": "Ijūin",
    "lat": 31.61667,
    "lon": 130.4
  },
  {
    "id": 6822201,
    "name": "Oga",
    "lat": 39.871,
    "lon": 139.84926
  },
  {
    "id": 1864180,
    "name": "Enzan",
    "lat": 35.7,
    "lon": 138.73333
  },
  {
    "id": 1848633,
    "name": "Yamazakichō-nakabirose",
    "lat": 35.0,
    "lon": 134.55
  },
  {
    "id": 1865401,
    "name": "Akune",
    "lat": 32.01667,
    "lon": 130.2
  },
  {
    "id": 6822186,
    "name": "Hachimantai",
    "lat": 39.89979,
    "lon": 141.12989
  },
  {
    "id": 1861400,
    "name": "Ishii",
    "lat": 34.06752,
    "lon": 134.44208
  },
  {
    "id": 1854868,
    "name": "Nyūzen",
    "lat": 36.93744,
    "lon": 137.50059
  },
  {
    "id": 1859436,
    "name": "Kinoshita",
    "lat": 35.90059,
    "lon": 137.98777
  },
  {
    "id": 1861261,
    "name": "Itsukaichi",
    "lat": 35.72528,
    "lon": 139.21778
  },
  {
    "id": 1861406,
    "name": "Ishige",
    "lat": 36.11667,
    "lon": 139.96667
  },
  {
    "id": 6822176,
    "name": "Nasukarasuyama",
    "lat": 36.65233,
    "lon": 140.16084
  },
  {
    "id": 1863598,
    "name": "Gohyakkoku",
    "lat": 36.66411,
    "lon": 137.31665
  },
  {
    "id": 1848976,
    "name": "Wajima",
    "lat": 37.40458,
    "lon": 136.89912
  },
  {
    "id": 11611950,
    "name": "Etajima",
    "lat": 34.23863,
    "lon": 132.47967
  },
  {
    "id": 1855087,
    "name": "Ōyanomachi-noboritate",
    "lat": 32.59647,
    "lon": 130.43411
  },
  {
    "id": 1863341,
    "name": "Hakui",
    "lat": 36.88333,
    "lon": 136.78333
  },
  {
    "id": 2112692,
    "name": "Hobaramachi",
    "lat": 37.81667,
    "lon": 140.55
  },
  {
    "id": 11611944,
    "name": "Isa",
    "lat": 32.06716,
    "lon": 130.61182
  },
  {
    "id": 1860321,
    "name": "Kamojimachō-jōgejima",
    "lat": 34.06803,
    "lon": 134.35033
  },
  {
    "id": 13132739,
    "name": "Ōguchi",
    "lat": 35.34146,
    "lon": 136.91108
  },
  {
    "id": 2130050,
    "name": "Hitokawame",
    "lat": 40.63593,
    "lon": 141.4448
  },
  {
    "id": 1853193,
    "name": "Sakai",
    "lat": 36.1,
    "lon": 139.8
  },
  {
    "id": 2129034,
    "name": "Nakashibetsu",
    "lat": 43.54849,
    "lon": 144.97181
  },
  {
    "id": 1863521,
    "name": "Gōtsuchō",
    "lat": 35.00856,
    "lon": 132.2257
  },
  {
    "id": 2112181,
    "name": "Kogota-ekimae",
    "lat": 38.53333,
    "lon": 141.06667
  },
  {
    "id": 1852673,
    "name": "Setakamachi-takayanagi",
    "lat": 33.14858,
    "lon": 130.46548
  },
  {
    "id": 1853564,
    "name": "Ōtsuki",
    "lat": 35.61851,
    "lon": 138.97396
  },
  {
    "id": 1861383,
    "name": "Ishiki",
    "lat": 34.8,
    "lon": 137.01667
  },
  {
    "id": 10793741,
    "name": "Nasu",
    "lat": 37.04209,
    "lon": 140.09379
  },
  {
    "id": 1859335,
    "name": "Kitahama",
    "lat": 35.16667,
    "lon": 135.91667
  },
  {
    "id": 2111461,
    "name": "Ōkawara",
    "lat": 38.05,
    "lon": 140.73361
  },
  {
    "id": 1851282,
    "name": "Tadotsu",
    "lat": 34.275,
    "lon": 133.75
  },
  {
    "id": 1861799,
    "name": "Ikedachō",
    "lat": 34.02849,
    "lon": 133.80616
  },
  {
    "id": 6822144,
    "name": "Matsuura",
    "lat": 33.34058,
    "lon": 129.69504
  },
  {
    "id": 2112903,
    "name": "Funehikimachi-funehiki",
    "lat": 37.44722,
    "lon": 140.5771
  },
  {
    "id": 1854629,
    "name": "Ogōri-shimogō",
    "lat": 34.1,
    "lon": 131.4
  },
  {
    "id": 1863614,
    "name": "Gobō",
    "lat": 33.88153,
    "lon": 135.1696
  },
  {
    "id": 1857260,
    "name": "Mikuni",
    "lat": 36.21494,
    "lon": 136.14832
  },
  {
    "id": 6822198,
    "name": "Nikaho",
    "lat": 39.27077,
    "lon": 139.93949
  },
  {
    "id": 1848113,
    "name": "Yugawara",
    "lat": 35.15,
    "lon": 139.06667
  },
  {
    "id": 1851622,
    "name": "Sobue",
    "lat": 35.25,
    "lon": 136.71667
  },
  {
    "id": 2110891,
    "name": "Takahata",
    "lat": 38.0025,
    "lon": 140.19111
  },
  {
    "id": 1861772,
    "name": "Ikeno",
    "lat": 35.43333,
    "lon": 136.58333
  },
  {
    "id": 1851936,
    "name": "Shirahama",
    "lat": 33.68333,
    "lon": 135.35
  },
  {
    "id": 11611936,
    "name": "Mine",
    "lat": 34.18681,
    "lon": 131.21624
  },
  {
    "id": 9633180,
    "name": "Tatsuno-kita",
    "lat": 34.59677,
    "lon": 135.69285
  },
  {
    "id": 1851935,
    "name": "Shirahamachō-usazakiminami",
    "lat": 34.78333,
    "lon": 134.71667
  },
  {
    "id": 1849407,
    "name": "Uenohara",
    "lat": 35.61667,
    "lon": 139.11667
  },
  {
    "id": 1851170,
    "name": "Bungo-Takada-shi",
    "lat": 33.5567,
    "lon": 131.44506
  },
  {
    "id": 1850307,
    "name": "Tochio-honchō",
    "lat": 37.47642,
    "lon": 138.99513
  },
  {
    "id": 1860750,
    "name": "Kajiki",
    "lat": 31.73333,
    "lon": 130.66667
  },
  {
    "id": 2129163,
    "name": "Mombetsu",
    "lat": 44.3525,
    "lon": 143.3525
  },
  {
    "id": 2127383,
    "name": "Motomachi",
    "lat": 43.82634,
    "lon": 144.09638
  },
  {
    "id": 13132764,
    "name": "Kumano",
    "lat": 34.33284,
    "lon": 132.56967
  },
  {
    "id": 9633110,
    "name": "Kanmaki",
    "lat": 34.56419,
    "lon": 135.70627
  },
  {
    "id": 1851176,
    "name": "Takabō",
    "lat": 34.12828,
    "lon": 134.534
  },
  {
    "id": 1850405,
    "name": "Tennō",
    "lat": 39.9,
    "lon": 139.96667
  },
  {
    "id": 1850791,
    "name": "Takinomiya",
    "lat": 34.24643,
    "lon": 133.92296
  },
  {
    "id": 11611937,
    "name": "Hida",
    "lat": 36.24483,
    "lon": 137.17323
  },
  {
    "id": 6822113,
    "name": "Murayama",
    "lat": 38.46972,
    "lon": 140.41441
  },
  {
    "id": 11777085,
    "name": "Kaminoma",
    "lat": 34.80802,
    "lon": 136.86441
  },
  {
    "id": 1853230,
    "name": "Saikū",
    "lat": 34.53333,
    "lon": 136.63333
  },
  {
    "id": 2128025,
    "name": "Shizunai-furukawachō",
    "lat": 42.33389,
    "lon": 142.36694
  },
  {
    "id": 1854246,
    "name": "Ōkuchi-shinohara",
    "lat": 32.06779,
    "lon": 130.62439
  },
  {
    "id": 1861393,
    "name": "Ishikawa",
    "lat": 26.42333,
    "lon": 127.82139
  },
  {
    "id": 1859998,
    "name": "Kasamatsuchō",
    "lat": 35.36667,
    "lon": 136.76667
  },
  {
    "id": 1848447,
    "name": "Yatsuomachi-higashikumisaka",
    "lat": 36.56667,
    "lon": 137.13333
  },
  {
    "id": 1848852,
    "name": "Yabu",
    "lat": 35.40304,
    "lon": 134.77118
  },
  {
    "id": 6822224,
    "name": "Nakagusuku",
    "lat": 26.25,
    "lon": 127.78333
  },
  {
    "id": 1851711,
    "name": "Shōbu",
    "lat": 36.06667,
    "lon": 139.6
  },
  {
    "id": 1861584,
    "name": "Ino",
    "lat": 33.55,
    "lon": 133.43333
  },
  {
    "id": 1895695,
    "name": "Kushima",
    "lat": 31.48621,
    "lon": 131.2421
  },
  {
    "id": 2110509,
    "name": "Yokoshiba",
    "lat": 35.65,
    "lon": 140.48333
  },
  {
    "id": 9890410,
    "name": "Higashigō",
    "lat": 33.19081,
    "lon": 130.13804
  },
  {
    "id": 1849584,
    "name": "Tsurugi-asahimachi",
    "lat": 36.45,
    "lon": 136.63333
  },
  {
    "id": 1858187,
    "name": "Kurono",
    "lat": 35.46667,
    "lon": 136.63333
  },
  {
    "id": 1857712,
    "name": "Makurazaki",
    "lat": 31.26667,
    "lon": 130.31667
  },
  {
    "id": 2111725,
    "name": "Naka-niida",
    "lat": 38.56861,
    "lon": 140.85361
  },
  {
    "id": 1849850,
    "name": "Toyohama",
    "lat": 34.70933,
    "lon": 136.93425
  },
  {
    "id": 8572880,
    "name": "Ōizumimachi",
    "lat": 35.76478,
    "lon": 139.60216
  },
  {
    "id": 2111704,
    "name": "Namie",
    "lat": 37.48333,
    "lon": 141.0
  },
  {
    "id": 9190392,
    "name": "Ogura",
    "lat": 36.4569,
    "lon": 138.99513
  },
  {
    "id": 2128206,
    "name": "Shibetsu",
    "lat": 43.65899,
    "lon": 145.13197
  },
  {
    "id": 1853486,
    "name": "Ōyama",
    "lat": 34.60359,
    "lon": 138.21719
  },
  {
    "id": 1849661,
    "name": "Tsukumiura",
    "lat": 33.07539,
    "lon": 131.86907
  },
  {
    "id": 1848498,
    "name": "Yashiro",
    "lat": 34.91667,
    "lon": 134.96667
  },
  {
    "id": 1859113,
    "name": "Kodamachō-kodamaminami",
    "lat": 36.18497,
    "lon": 139.13191
  },
  {
    "id": 1852357,
    "name": "Shimoda",
    "lat": 34.67652,
    "lon": 138.94456
  },
  {
    "id": 1865570,
    "name": "Akaike",
    "lat": 33.69189,
    "lon": 130.76531
  },
  {
    "id": 11059676,
    "name": "Sugita",
    "lat": 35.37609,
    "lon": 139.61713
  },
  {
    "id": 1854177,
    "name": "Ōmamachō-ōmama",
    "lat": 36.43181,
    "lon": 139.27534
  },
  {
    "id": 8576482,
    "name": "Ebara",
    "lat": 35.61298,
    "lon": 139.70315
  },
  {
    "id": 1850627,
    "name": "Tanushimarumachi-toyoki",
    "lat": 33.35,
    "lon": 130.68333
  },
  {
    "id": 1862601,
    "name": "Hino",
    "lat": 35.0,
    "lon": 136.25
  },
  {
    "id": 2130306,
    "name": "Furano",
    "lat": 43.35,
    "lon": 142.38333
  },
  {
    "id": 1852102,
    "name": "Shin’ichi",
    "lat": 34.55543,
    "lon": 133.27297
  },
  {
    "id": 13132800,
    "name": "Yachiyo",
    "lat": 36.18229,
    "lon": 139.89096
  },
  {
    "id": 10630004,
    "name": "Shonai",
    "lat": 38.84846,
    "lon": 139.90308
  },
  {
    "id": 13156738,
    "name": "Shōwa",
    "lat": 35.62792,
    "lon": 138.53514
  },
  {
    "id": 1864263,
    "name": "Echigawa",
    "lat": 35.16667,
    "lon": 136.2
  },
  {
    "id": 1859400,
    "name": "Kisai",
    "lat": 36.1,
    "lon": 139.58333
  },
  {
    "id": 1860563,
    "name": "Kamiichi",
    "lat": 36.7,
    "lon": 137.36667
  },
  {
    "id": 2111559,
    "name": "Obanazawa",
    "lat": 38.60333,
    "lon": 140.40194
  },
  {
    "id": 2112108,
    "name": "Kumakura",
    "lat": 37.15252,
    "lon": 140.16845
  },
  {
    "id": 2110538,
    "name": "Yanagawamachi-saiwaichō",
    "lat": 37.85,
    "lon": 140.6
  },
  {
    "id": 2112963,
    "name": "Edosaki",
    "lat": 35.95,
    "lon": 140.31667
  },
  {
    "id": 1857062,
    "name": "Mino",
    "lat": 35.53333,
    "lon": 136.91667
  },
  {
    "id": 2111008,
    "name": "Shisui",
    "lat": 35.71667,
    "lon": 140.26667
  },
  {
    "id": 2129005,
    "name": "Namioka",
    "lat": 40.71069,
    "lon": 140.59048
  },
  {
    "id": 2127910,
    "name": "Takanosu",
    "lat": 40.22268,
    "lon": 140.36611
  },
  {
    "id": 1926150,
    "name": "Haramachi",
    "lat": 33.77037,
    "lon": 132.78977
  },
  {
    "id": 1856828,
    "name": "Miyata",
    "lat": 33.70811,
    "lon": 130.65297
  },
  {
    "id": 1851494,
    "name": "Suibara",
    "lat": 37.84608,
    "lon": 139.23039
  },
  {
    "id": 1860256,
    "name": "Kanaya",
    "lat": 34.82022,
    "lon": 138.12775
  },
  {
    "id": 1849594,
    "name": "Tsuruda",
    "lat": 31.95,
    "lon": 130.48333
  },
  {
    "id": 2111495,
    "name": "Ōhara",
    "lat": 35.24761,
    "lon": 140.39289
  },
  {
    "id": 1851068,
    "name": "Takanabe",
    "lat": 32.13333,
    "lon": 131.5
  },
  {
    "id": 1851952,
    "name": "Shiozawa",
    "lat": 37.03757,
    "lon": 138.84867
  },
  {
    "id": 2113149,
    "name": "Ajiki",
    "lat": 35.83333,
    "lon": 140.23333
  },
  {
    "id": 1861838,
    "name": "Iiyama",
    "lat": 36.85,
    "lon": 138.36667
  },
  {
    "id": 2127955,
    "name": "Sunagawa",
    "lat": 43.48639,
    "lon": 141.90556
  },
  {
    "id": 1848143,
    "name": "Yotsutsuji",
    "lat": 35.53333,
    "lon": 135.1
  },
  {
    "id": 1852192,
    "name": "Shimosuwa",
    "lat": 36.0713,
    "lon": 138.08201
  },
  {
    "id": 1860026,
    "name": "Karuizawa",
    "lat": 36.35,
    "lon": 138.63333
  },
  {
    "id": 1851542,
    "name": "Sueyoshichō-ninokata",
    "lat": 31.65,
    "lon": 131.01667
  },
  {
    "id": 13132744,
    "name": "Hirokawa",
    "lat": 33.24293,
    "lon": 130.55212
  },
  {
    "id": 2128205,
    "name": "Minamishibetsuchō",
    "lat": 44.15399,
    "lon": 142.37307
  },
  {
    "id": 2112182,
    "name": "Kogota",
    "lat": 38.55,
    "lon": 141.05
  },
  {
    "id": 9192643,
    "name": "Yamata",
    "lat": 36.08171,
    "lon": 139.37162
  },
  {
    "id": 1856426,
    "name": "Muramatsu",
    "lat": 37.69257,
    "lon": 139.17127
  },
  {
    "id": 1848281,
    "name": "Yonabaru",
    "lat": 26.20437,
    "lon": 127.75267
  },
  {
    "id": 1926143,
    "name": "Mishōhirajō",
    "lat": 32.96367,
    "lon": 132.5661
  },
  {
    "id": 1863973,
    "name": "Fukumitsu",
    "lat": 36.55751,
    "lon": 136.86945
  },
  {
    "id": 1862026,
    "name": "Ibi",
    "lat": 35.48333,
    "lon": 136.56667
  },
  {
    "id": 1861883,
    "name": "Igusa",
    "lat": 35.96667,
    "lon": 139.46667
  },
  {
    "id": 1855153,
    "name": "Nishitawara",
    "lat": 34.95556,
    "lon": 134.76835
  },
  {
    "id": 1863611,
    "name": "Gōdo",
    "lat": 35.41667,
    "lon": 136.6
  },
  {
    "id": 2112019,
    "name": "Makabe",
    "lat": 36.26667,
    "lon": 140.1
  },
  {
    "id": 1851462,
    "name": "Sukumo",
    "lat": 32.93333,
    "lon": 132.73333
  },
  {
    "id": 1860742,
    "name": "Kajiya",
    "lat": 35.06667,
    "lon": 134.91667
  },