[
  {
    "id": 1528675,
    "name": "Bishkek",
    "lat": 42.87,
    "lon": 74.59
  },
  {
    "id": 1527534,
    "name": "Osh",
    "lat": 40.52828,
    "lon": 72.7985
  },
  {
    "id": 1528249,
    "name": "Jalal-Abad",
    "lat": 40.94498,
    "lon": 72.99313
  },
  {
    "id": 1528121,
    "name": "Karakol",
    "lat": 42.48918,
    "lon": 78.39355
  },
  {
    "id": 1527199,
    "name": "Tokmok",
    "lat": 42.84194,
    "lon": 75.30149
  },
  {
    "id": 1527513,
    "name": "Uzgen",
    "lat": 40.76994,
    "lon": 73.30068
  },
  {
    "id": 1528182,
    "name": "Kara-Balta",
    "lat": 42.81423,
    "lon": 73.84813
  },
  {
    "id": 1527004,
    "name": "Balykchy",
    "lat": 42.46017,
    "lon": 76.18709
  },
  {
    "id": 1527592,
    "name": "Naryn",
    "lat": 41.42832,
    "lon": 75.99568
  },
  {
    "id": 1528717,
    "name": "Bazar-Korgon",
    "lat": 41.0376,
    "lon": 72.74586
  },
  {
    "id": 1527299,
    "name": "Talas",
    "lat": 42.52256,
    "lon": 72.2417
  },
  {
    "id": 1222662,
    "name": "Razzakov",
    "lat": 39.83895,
    "lon": 69.5276
  },
  {
    "id": 1527719,
    "name": "Kyzyl-Kyya",
    "lat": 40.25684,
    "lon": 72.12793
  },
  {
    "id": 1527317,
    "name": "Suzak",
    "lat": 40.8982,
    "lon": 72.90481
  },
  {
    "id": 1528735,
    "name": "Batken",
    "lat": 40.06218,
    "lon": 70.82186
  },
  {
    "id": 1528091,
    "name": "Kara Suu",
    "lat": 40.7046,
    "lon": 72.86666
  },
  {
    "id": 1528283,
    "name": "Iradan",
    "lat": 40.26667,
    "lon": 72.1
  },
  {
    "id": 1527260,
    "name": "Tash-Kumyr",
    "lat": 41.34612,
    "lon": 72.21707
  },
  {
    "id": 1528702,
    "name": "Belovodskoye",
    "lat": 42.82944,
    "lon": 74.1083
  },
  {
    "id": 1528193,
    "name": "Kant",
    "lat": 42.89106,
    "lon": 74.85077
  },
  {
    "id": 1527690,
    "name": "Lebedinovka",
    "lat": 42.88454,
    "lon": 74.67819
  },
  {
    "id": 1538648,
    "name": "Toktogul",
    "lat": 41.87442,
    "lon": 72.94192
  },
  {
    "id": 1527689,
    "name": "Massy",
    "lat": 41.0601,
    "lon": 72.63285
  },
  {
    "id": 1528339,
    "name": "Nookat",
    "lat": 40.26597,
    "lon": 72.61834
  },
  {
    "id": 1528252,
    "name": "Ivanovka",
    "lat": 42.88778,
    "lon": 75.085
  },
  {
    "id": 1527903,
    "name": "Kochkor-Ata",
    "lat": 41.03709,
    "lon": 72.4832
  },
  {
    "id": 8145969,
    "name": "Kara-Kulja",
    "lat": 40.63223,
    "lon": 73.59249
  },
  {
    "id": 1528875,
    "name": "Ala-Buka",
    "lat": 41.4105,
    "lon": 71.48628
  },
  {
    "id": 1527497,
    "name": "Kyzyl-Suu",
    "lat": 42.34211,
    "lon": 78.00644
  },
  {
    "id": 1222562,
    "name": "Suluktu",
    "lat": 39.93652,
    "lon": 69.56779
  },
  {
    "id": 1527103,
    "name": "Uch-Korgon",
    "lat": 40.22881,
    "lon": 72.05924
  },
  {
    "id": 1528796,
    "name": "At-Bashi",
    "lat": 41.16951,
    "lon": 75.80099
  },
  {
    "id": 1528666,
    "name": "Bokombayevskoye",
    "lat": 42.11769,
    "lon": 76.99332
  },
  {
    "id": 1528512,
    "name": "Cholpon-Ata",
    "lat": 42.64944,
    "lon": 77.08225
  },
  {
    "id": 1528052,
    "name": "Kerben",
    "lat": 41.49399,
    "lon": 71.75826
  },
  {
    "id": 1527232,
    "name": "Ak-Suu",
    "lat": 42.49948,
    "lon": 78.52702
  },
  {
    "id": 1528320,
    "name": "Gul’cha",
    "lat": 40.3138,
    "lon": 73.44418
  },
  {
    "id": 1527919,
    "name": "Kyzyl-Adyr",
    "lat": 42.61981,
    "lon": 71.5891
  },
  {
    "id": 1527121,
    "name": "Tyup",
    "lat": 42.7276,
    "lon": 78.36476
  },
  {
    "id": 1222635,
    "name": "Aydarken",
    "lat": 39.94319,
    "lon": 71.34184
  },
  {
    "id": 1528005,
    "name": "Kazarman",
    "lat": 41.40452,
    "lon": 74.02828
  },
  {
    "id": 1528766,
    "name": "Baetovo",
    "lat": 41.26668,
    "lon": 74.95698
  },
  {
    "id": 1528606,
    "name": "Kemin",
    "lat": 42.78611,
    "lon": 75.69167
  },
  {
    "id": 1528234,
    "name": "Kaindy",
    "lat": 42.82469,
    "lon": 73.67585
  },
  {
    "id": 1527496,
    "name": "Pokrovka",
    "lat": 42.7362,
    "lon": 71.60982
  },
  {
    "id": 8377525,
    "name": "Kulundu",
    "lat": 40.10635,
    "lon": 69.64127
  },
  {
    "id": 8375152,
    "name": "Samarkandyk",
    "lat": 39.9981,
    "lon": 70.54589
  },
  {
    "id": 1222708,
    "name": "Andarak",
    "lat": 39.76849,
    "lon": 69.46398
  },
  {
    "id": 1222640,
    "name": "Katran",
    "lat": 39.84434,
    "lon": 70.01474
  },
  {
    "id": 1222683,
    "name": "Daroot-Korgon",
    "lat": 39.55274,
    "lon": 72.20518
  },
  {
    "id": 1527951,
    "name": "Khalmion",
    "lat": 40.21218,
    "lon": 71.63274
  },
  {
    "id": 1527351,
    "name": "Sosnovka",
    "lat": 42.63707,
    "lon": 73.89608
  },
  {
    "id": 1528642,
    "name": "Boz-Beshik",
    "lat": 42.43247,
    "lon": 77.95153
  },
  {
    "id": 1528190,
    "name": "Kanysh-Kyya",
    "lat": 41.76536,
    "lon": 71.09181
  },
  {
    "id": 1528241,
    "name": "Kadzhi-Say",
    "lat": 42.14107,
    "lon": 77.17848
  },
  {
    "id": 1528566,
    "name": "Chayek",
    "lat": 41.92768,
    "lon": 74.51699
  },
  {
    "id": 1527566,
    "name": "Orozbekovo",
    "lat": 40.05689,
    "lon": 71.66945
  },
  {
    "id": 7648391,
    "name": "Pulgon",
    "lat": 40.14724,
    "lon": 71.72962
  },
  {
    "id": 8376054,
    "name": "Kyzyl-Bulak",
    "lat": 40.0517,
    "lon": 71.73726
  },
  {
    "id": 1222618,
    "name": "Korgon",
    "lat": 39.88899,
    "lon": 69.93559
  },
  {
    "id": 1222554,
    "name": "Tayan",
    "lat": 39.9026,
    "lon": 71.10826
  },
  {
    "id": 1528053,
    "name": "Karavan",
    "lat": 40.29513,
    "lon": 72.18627
  },
  {
    "id": 1222606,
    "name": "Kyzyl-Eshme",
    "lat": 39.56559,
    "lon": 72.27153
  },
  {
    "id": 1527170,
    "name": "Tossor",
    "lat": 42.16878,
    "lon": 77.44073
  }
]