[
  {
    "id": 2274895,
    "name": "Monrovia",
    "lat": 6.30054,
    "lon": -10.7969
  },
  {
    "id": 2277060,
    "name": "Gbarnga",
    "lat": 6.99543,
    "lon": -9.47122
  },
  {
    "id": 2278158,
    "name": "Buchanan",
    "lat": 5.87693,
    "lon": -10.04964
  },
  {
    "id": 2277241,
    "name": "Ganta",
    "lat": 7.235,
    "lon": -8.98444
  },
  {
    "id": 2276086,
    "name": "Kakata",
    "lat": 6.53104,
    "lon": -10.35368
  },
  {
    "id": 2272491,
    "name": "Zwedru",
    "lat": 6.06846,
    "lon": -8.13559
  },
  {
    "id": 2276506,
    "name": "Harbel",
    "lat": 6.24683,
    "lon": -10.35642
  },
  {
    "id": 2276492,
    "name": "Harper",
    "lat": 4.3782,
    "lon": -7.71081
  },
  {
    "id": 2274372,
    "name": "Pleebo City",
    "lat": 4.58953,
    "lon": -7.67218
  },
  {
    "id": 2277301,
    "name": "Foya Kamara",
    "lat": 8.36028,
    "lon": -10.20639
  },
  {
    "id": 2272790,
    "name": "New Yekepa",
    "lat": 7.57944,
    "lon": -8.53778
  },
  {
    "id": 2273312,
    "name": "Voinjama",
    "lat": 8.42194,
    "lon": -9.74778
  },
  {
    "id": 2273435,
    "name": "Tubmanburg",
    "lat": 6.87064,
    "lon": -10.8211
  },
  {
    "id": 2274222,
    "name": "Saclepea",
    "lat": 6.9625,
    "lon": -8.84056
  },
  {
    "id": 2276600,
    "name": "Greenville",
    "lat": 5.01133,
    "lon": -9.0388
  },
  {
    "id": 2274129,
    "name": "Sanniquellie",
    "lat": 7.36215,
    "lon": -8.71326
  },
  {
    "id": 2277197,
    "name": "Ganta",
    "lat": 7.30222,
    "lon": -8.53083
  },
  {
    "id": 2276103,
    "name": "Karnplay",
    "lat": 7.26972,
    "lon": -8.50389
  },
  {
    "id": 2272534,
    "name": "Zorzor",
    "lat": 7.77944,
    "lon": -9.43028
  },
  {
    "id": 2274286,
    "name": "River Gbeh",
    "lat": 5.21194,
    "lon": -7.66806
  },
  {
    "id": 2273638,
    "name": "Fish Town",
    "lat": 5.19739,
    "lon": -7.87579
  },
  {
    "id": 2274275,
    "name": "Robertsport",
    "lat": 6.75329,
    "lon": -11.3671
  },
  {
    "id": 2278889,
    "name": "Barclayville",
    "lat": 4.67443,
    "lon": -8.23306
  },
  {
    "id": 2278248,
    "name": "Bopolu",
    "lat": 7.06667,
    "lon": -10.4875
  },
  {
    "id": 2274288,
    "name": "River Cess",
    "lat": 5.45683,
    "lon": -9.58167
  },
  {
    "id": 2278682,
    "name": "Bensonville",
    "lat": 6.44716,
    "lon": -10.61283
  }
]