[
  {
    "id": 2028462,
    "name": "Ulan Bator",
    "lat": 47.90771,
    "lon": 106.88324
  },
  {
    "id": 2031405,
    "name": "Erdenet",
    "lat": 49.03333,
    "lon": 104.08333
  },
  {
    "id": 2031964,
    "name": "Darhan",
    "lat": 49.48667,
    "lon": 105.92278
  },
  {
    "id": 2032054,
    "name": "Choibalsan",
    "lat": 48.07257,
    "lon": 114.53264
  },
  {
    "id": 2029901,
    "name": "Nalayh",
    "lat": 47.76667,
    "lon": 107.28333
  },
  {
    "id": 2029945,
    "name": "Mörön",
    "lat": 49.63417,
    "lon": 100.1625
  },
  {
    "id": 2032533,
    "name": "Bayanhongor",
    "lat": 46.19444,
    "lon": 100.71806
  },
  {
    "id": 1515029,
    "name": "Ulaangom",
    "lat": 49.98111,
    "lon": 92.06667
  },
  {
    "id": 1516048,
    "name": "Khovd",
    "lat": 48.00556,
    "lon": 91.64194
  },
  {
    "id": 2032814,
    "name": "Arvayheer",
    "lat": 46.26389,
    "lon": 102.775
  },
  {
    "id": 1515436,
    "name": "Ölgii",
    "lat": 48.96833,
    "lon": 89.9625
  },
  {
    "id": 2030474,
    "name": "Bogd",
    "lat": 44.67024,
    "lon": 102.17491
  },
  {
    "id": 2032007,
    "name": "Dalandzadgad",
    "lat": 43.57083,
    "lon": 104.425
  },
  {
    "id": 2029656,
    "name": "Undurkhaan",
    "lat": 47.31944,
    "lon": 110.65556
  },
  {
    "id": 2029156,
    "name": "Sühbaatar",
    "lat": 50.23139,
    "lon": 106.20778
  },
  {
    "id": 2028606,
    "name": "Tsetserleg",
    "lat": 47.475,
    "lon": 101.45417
  },
  {
    "id": 2032081,
    "name": "Saynshand",
    "lat": 44.88239,
    "lon": 110.11631
  },
  {
    "id": 2031533,
    "name": "Dzüünharaa",
    "lat": 48.85229,
    "lon": 106.45786
  },
  {
    "id": 2032614,
    "name": "Baruun-Urt",
    "lat": 46.68056,
    "lon": 113.27917
  },
  {
    "id": 1516393,
    "name": "Altai",
    "lat": 46.37222,
    "lon": 96.25833
  },
  {
    "id": 2032201,
    "name": "Bulgan",
    "lat": 48.8125,
    "lon": 103.53472
  },
  {
    "id": 7648817,
    "name": "Zuunmod",
    "lat": 47.70693,
    "lon": 106.95276
  },
  {
    "id": 2031517,
    "name": "Dzuunmod",
    "lat": 47.70694,
    "lon": 106.95278
  },
  {
    "id": 1515007,
    "name": "Uliastay",
    "lat": 47.74167,
    "lon": 96.84444
  },
  {
    "id": 2030065,
    "name": "Mandalgovi",
    "lat": 45.7625,
    "lon": 106.27083
  },
  {
    "id": 8468638,
    "name": "Zamiin Uud",
    "lat": 43.7193,
    "lon": 111.90777
  },
  {
    "id": 2032050,
    "name": "Choyr",
    "lat": 46.36111,
    "lon": 108.36111
  },
  {
    "id": 1515167,
    "name": "Tosontsengel",
    "lat": 48.75667,
    "lon": 98.28389
  },
  {
    "id": 7648891,
    "name": "Kharkhorin",
    "lat": 47.19245,
    "lon": 102.81349
  },
  {
    "id": 2028614,
    "name": "Tsengel",
    "lat": 49.47833,
    "lon": 100.88944
  },
  {
    "id": 2029315,
    "name": "Sharïngol",
    "lat": 49.23733,
    "lon": 106.43005
  },
  {
    "id": 2030316,
    "name": "Hutag",
    "lat": 49.395,
    "lon": 102.69333
  },
  {
    "id": 2031368,
    "name": "Ergel",
    "lat": 43.15,
    "lon": 109.13333
  },
  {
    "id": 2028534,
    "name": "Turt",
    "lat": 51.50725,
    "lon": 100.66257
  },
  {
    "id": 2030570,
    "name": "Hongor",
    "lat": 45.8,
    "lon": 111.2
  },
  {
    "id": 2028429,
    "name": "Ulaanhudag",
    "lat": 47.33333,
    "lon": 104.5
  },
  {
    "id": 2032960,
    "name": "Altanbulag",
    "lat": 50.31556,
    "lon": 106.49861
  }
]