[
  {
    "id": 3352136,
    "name": "Windhoek",
    "lat": -22.55941,
    "lon": 17.08323
  },
  {
    "id": 3353383,
    "name": "Rundu",
    "lat": -17.91796,
    "lon": 19.77314
  },
  {
    "id": 3359638,
    "name": "Walvis Bay",
    "lat": -22.9575,
    "lon": 14.50528
  },
  {
    "id": 3352844,
    "name": "Swakopmund",
    "lat": -22.67842,
    "lon": 14.52663
  },
  {
    "id": 3354021,
    "name": "Oshakati",
    "lat": -17.78833,
    "lon": 15.70436
  },
  {
    "id": 3353540,
    "name": "Rehoboth",
    "lat": -23.317,
    "lon": 17.09
  },
  {
    "id": 877178,
    "name": "Katima Mulilo",
    "lat": -17.50467,
    "lon": 24.27574
  },
  {
    "id": 3353811,
    "name": "Otjiwarongo",
    "lat": -20.46369,
    "lon": 16.64772
  },
  {
    "id": 3354247,
    "name": "Ondangwa",
    "lat": -17.90824,
    "lon": 15.98037
  },
  {
    "id": 3354898,
    "name": "Okahandja",
    "lat": -21.98141,
    "lon": 16.9029
  },
  {
    "id": 3357114,
    "name": "Grootfontein",
    "lat": -19.57328,
    "lon": 18.1003
  },
  {
    "id": 3354147,
    "name": "Ongwediva",
    "lat": -17.77198,
    "lon": 15.76564
  },
  {
    "id": 3356264,
    "name": "Keetmanshoop",
    "lat": -26.57654,
    "lon": 18.13359
  },
  {
    "id": 12718704,
    "name": "Helao Nafidi",
    "lat": -17.39321,
    "lon": 15.89107
  },
  {
    "id": 3352593,
    "name": "Tsumeb",
    "lat": -19.24842,
    "lon": 17.71345
  },
  {
    "id": 3357247,
    "name": "Gobabis",
    "lat": -22.45338,
    "lon": 18.97159
  },
  {
    "id": 3355672,
    "name": "Lüderitz",
    "lat": -26.64807,
    "lon": 15.15383
  },
  {
    "id": 3355595,
    "name": "Mariental",
    "lat": -24.62705,
    "lon": 17.96471
  },
  {
    "id": 3356213,
    "name": "Khorixas",
    "lat": -20.37711,
    "lon": 14.96203
  },
  {
    "id": 3354540,
    "name": "Omaruru",
    "lat": -21.42403,
    "lon": 15.94611
  },
  {
    "id": 3358416,
    "name": "Bethanie",
    "lat": -26.49958,
    "lon": 17.1599
  },
  {
    "id": 3353715,
    "name": "Outjo",
    "lat": -20.10691,
    "lon": 16.15415
  },
  {
    "id": 3352461,
    "name": "Usakos",
    "lat": -22.00219,
    "lon": 15.58601
  },
  {
    "id": 3354077,
    "name": "Opuwo",
    "lat": -18.06068,
    "lon": 13.83998
  },
  {
    "id": 3354071,
    "name": "Oranjemund",
    "lat": -28.55153,
    "lon": 16.42728
  },
  {
    "id": 3353871,
    "name": "Otjimbingwe",
    "lat": -22.35536,
    "lon": 16.12883
  },
  {
    "id": 3371197,
    "name": "Outapi",
    "lat": -17.50375,
    "lon": 14.98383
  },
  {
    "id": 3354897,
    "name": "Okahao",
    "lat": -17.88758,
    "lon": 15.06677
  },
  {
    "id": 3356332,
    "name": "Karibib",
    "lat": -21.93554,
    "lon": 15.85654
  },
  {
    "id": 3352263,
    "name": "Warmbad",
    "lat": -28.44611,
    "lon": 18.73569
  },
  {
    "id": 3357804,
    "name": "Eenhana",
    "lat": -17.48535,
    "lon": 16.3294
  },
  {
    "id": 7116015,
    "name": "Rosh Pinah",
    "lat": -27.96605,
    "lon": 16.76136
  },
  {
    "id": 3353934,
    "name": "Otavi",
    "lat": -19.63805,
    "lon": 17.33986
  },
  {
    "id": 3358670,
    "name": "Arandis",
    "lat": -22.41749,
    "lon": 14.97385
  },
  {
    "id": 3356343,
    "name": "Karasburg",
    "lat": -28.01658,
    "lon": 18.74797
  },
  {
    "id": 12718706,
    "name": "Osire",
    "lat": -21.07391,
    "lon": 17.36599
  },
  {
    "id": 12718705,
    "name": "Ondangwa East",
    "lat": -17.93021,
    "lon": 16.0172
  },
  {
    "id": 3356832,
    "name": "Henties Bay",
    "lat": -22.11609,
    "lon": 14.28394
  },
  {
    "id": 3354876,
    "name": "Okakarara",
    "lat": -20.58755,
    "lon": 17.45942
  },
  {
    "id": 12718702,
    "name": "Aussenkehr",
    "lat": -28.36274,
    "lon": 17.41272
  },
  {
    "id": 3354367,
    "name": "Omuthiya",
    "lat": -18.36463,
    "lon": 16.58146
  },
  {
    "id": 3358666,
    "name": "Aranos",
    "lat": -24.14126,
    "lon": 19.11754
  },
  {
    "id": 3353400,
    "name": "Ruacana",
    "lat": -17.42817,
    "lon": 14.41504
  },
  {
    "id": 3357124,
    "name": "Groot Aub",
    "lat": -22.9385,
    "lon": 17.19534
  },
  {
    "id": 3353989,
    "name": "Oshikuku",
    "lat": -17.63584,
    "lon": 15.48173
  },
  {
    "id": 3357293,
    "name": "Gibeon",
    "lat": -25.12213,
    "lon": 17.76935
  },
  {
    "id": 3356802,
    "name": "Hoachanas",
    "lat": -23.92109,
    "lon": 18.05328
  },
  {
    "id": 3355624,
    "name": "Maltahöhe",
    "lat": -24.83923,
    "lon": 16.9859
  },
  {
    "id": 3354178,
    "name": "Ongandjera",
    "lat": -17.87847,
    "lon": 15.06961
  },
  {
    "id": 3353996,
    "name": "Oshikango",
    "lat": -17.40161,
    "lon": 15.89077
  },
  {
    "id": 3354650,
    "name": "Ekongo",
    "lat": -17.56667,
    "lon": 17.21667
  },
  {
    "id": 3353863,
    "name": "Otjinene",
    "lat": -21.13889,
    "lon": 18.7836
  },
  {
    "id": 3355099,
    "name": "Noordoewer",
    "lat": -28.71817,
    "lon": 17.62147
  },
  {
    "id": 3352934,
    "name": "Stampriet",
    "lat": -24.34494,
    "lon": 18.40464
  },
  {
    "id": 3353962,
    "name": "Oshivelo",
    "lat": -18.61972,
    "lon": 17.16743
  },
  {
    "id": 3356469,
    "name": "Kamanjab",
    "lat": -19.62882,
    "lon": 14.8452
  },
  {
    "id": 3352083,
    "name": "Witvlei",
    "lat": -22.41039,
    "lon": 18.49359
  },
  {
    "id": 3352609,
    "name": "Tses",
    "lat": -25.88489,
    "lon": 18.12469
  },
  {
    "id": 877349,
    "name": "Bagani",
    "lat": -18.11065,
    "lon": 21.61645
  },
  {
    "id": 3358610,
    "name": "Aroab",
    "lat": -26.79744,
    "lon": 19.6527
  },
  {
    "id": 3356049,
    "name": "Koës",
    "lat": -25.93091,
    "lon": 19.12814
  },
  {
    "id": 3352523,
    "name": "Uis",
    "lat": -21.2177,
    "lon": 14.86569
  },
  {
    "id": 876747,
    "name": "Tsumkwe",
    "lat": -19.59363,
    "lon": 20.50203
  },
  {
    "id": 3356487,
    "name": "Kalkfeld",
    "lat": -20.88719,
    "lon": 16.19038
  },
  {
    "id": 3356477,
    "name": "Kalkrand",
    "lat": -24.07367,
    "lon": 17.58635
  },
  {
    "id": 3355748,
    "name": "Leonardville",
    "lat": -23.50462,
    "lon": 18.7912
  },
  {
    "id": 3354654,
    "name": "Okondjatu",
    "lat": -20.98168,
    "lon": 18.22422
  },
  {
    "id": 3357234,
    "name": "Gochas",
    "lat": -24.85762,
    "lon": 18.80137
  },
  {
    "id": 3354850,
    "name": "Okalongo",
    "lat": -17.44006,
    "lon": 15.33234
  },
  {
    "id": 3354676,
    "name": "Okombahe",
    "lat": -21.358,
    "lon": 15.37748
  },
  {
    "id": 3358522,
    "name": "Aus",
    "lat": -26.66557,
    "lon": 16.26109
  },
  {
    "id": 3353231,
    "name": "Schlip",
    "lat": -24.04631,
    "lon": 17.12844
  },
  {
    "id": 3353172,
    "name": "Sesfontein",
    "lat": -19.12279,
    "lon": 13.6205
  },
  {
    "id": 877130,
    "name": "Linyanti",
    "lat": -18.07229,
    "lon": 24.01566
  },
  {
    "id": 3352636,
    "name": "Tsandi",
    "lat": -17.74292,
    "lon": 14.88575
  },
  {
    "id": 3358422,
    "name": "Berseba",
    "lat": -25.9969,
    "lon": 17.76817
  },
  {
    "id": 3354399,
    "name": "Omungwelume",
    "lat": -17.50684,
    "lon": 15.63421
  },
  {
    "id": 10175820,
    "name": "Okanguati",
    "lat": -17.43639,
    "lon": 13.27324
  },
  {
    "id": 3354445,
    "name": "Omitara",
    "lat": -22.28979,
    "lon": 18.00847
  },
  {
    "id": 3358633,
    "name": "Ariamsvlei",
    "lat": -28.11895,
    "lon": 19.83612
  },
  {
    "id": 3355137,
    "name": "Nkurenkuru",
    "lat": -17.64182,
    "lon": 18.61966
  },
  {
    "id": 877338,
    "name": "Bukalo",
    "lat": -17.71799,
    "lon": 24.53049
  },
  {
    "id": 3354518,
    "name": "Omawewozonyanda",
    "lat": -21.60065,
    "lon": 19.41752
  },
  {
    "id": 3357509,
    "name": "Fransfontein",
    "lat": -20.21234,
    "lon": 15.01473
  },
  {
    "id": 12718707,
    "name": "Otjituuo",
    "lat": -19.6409,
    "lon": 18.59454
  },
  {
    "id": 3354965,
    "name": "Ogongo",
    "lat": -17.67866,
    "lon": 15.29608
  },
  {
    "id": 3354170,
    "name": "Ongenga",
    "lat": -17.44165,
    "lon": 15.67389
  },
  {
    "id": 3357074,
    "name": "Grünau",
    "lat": -27.7337,
    "lon": 18.38012
  }
]