[
  {
    "id": 2139521,
    "name": "Nouméa",
    "lat": -22.27407,
    "lng": 166.44884
  },
  {
    "id": 2140066,
    "name": "Mont-Dore",
    "lat": -22.26257,
    "lng": 166.56621
  },
  {
    "id": 2141394,
    "name": "Dumbéa",
    "lat": -22.15757,
    "lng": 166.4572
  },
  {
    "id": 2138981,
    "name": "Païta",
    "lat": -22.13105,
    "lng": 166.35717
  },
  {
    "id": 2137690,
    "name": "Wé",
    "lat": -20.91687,
    "lng": 167.26461
  },
  {
    "id": 2138285,
    "name": "Tadine",
    "lat": -21.54751,
    "lng": 167.88019
  },
  {
    "id": 2141714,
    "name": "Bourail",
    "lat": -21.5669,
    "lng": 165.49736
  },
  {
    "id": 2138717,
    "name": "Poindimié",
    "lat": -20.93714,
    "lng": 165.33121
  },
  {
    "id": 2140691,
    "name": "Koné",
    "lat": -21.05951,
    "lng": 164.86582
  },
  {
    "id": 2141006,
    "name": "Houaïlou",
    "lat": -21.28333,
    "lng": 165.61667
  },
  {
    "id": 10861676,
    "name": "Anse-Vata",
    "lat": -22.30037,
    "lng": 166.44347
  },
  {
    "id": 2141658,
    "name": "Canala",
    "lat": -21.53333,
    "lng": 165.95
  },
  {
    "id": 2141305,
    "name": "Ouvéa",
    "lat": -20.65284,
    "lng": 166.53641
  },
  {
    "id": 2140558,
    "name": "Koumac",
    "lat": -20.56667,
    "lng": 164.28333
  },
  {
    "id": 2140466,
    "name": "La Foa",
    "lat": -21.71079,
    "lng": 165.82764
  },
  {
    "id": 2138103,
    "name": "Thio",
    "lat": -21.61667,
    "lng": 166.21667
  },
  {
    "id": 2138687,
    "name": "Ponérihouen",
    "lat": -21.08333,
    "lng": 165.4
  },
  {
    "id": 2141050,
    "name": "Hienghène",
    "lat": -20.68333,
    "lng": 164.93333
  },
  {
    "id": 2138522,
    "name": "Poya",
    "lat": -21.35,
    "lng": 165.15
  },
  {
    "id": 2138607,
    "name": "Pouébo",
    "lat": -20.4,
    "lng": 164.56667
  },
  {
    "id": 2137873,
    "name": "Touho",
    "lat": -20.79094,
    "lng": 165.24987
  },
  {
    "id": 2137748,
    "name": "Voh",
    "lat": -20.96667,
    "lng": 164.7
  },
  {
    "id": 2141722,
    "name": "Bouloupari",
    "lat": -21.86226,
    "lng": 166.05122
  },
  {
    "id": 2139259,
    "name": "Ouégoa",
    "lat": -20.35,
    "lng": 164.43333
  },
  {
    "id": 2140915,
    "name": "Kaala-Gomén",
    "lat": -20.66667,
    "lng": 164.4
  },
  {
    "id": 2137644,
    "name": "Yaté-Barrage",
    "lat": -22.15,
    "lng": 166.88333
  },
  {
    "id": 2137773,
    "name": "Vao",
    "lat": -22.66645,
    "lng": 167.49627
  },
  {
    "id": 2138592,
    "name": "Pouembout",
    "lat": -21.13333,
    "lng": 164.9
  },
  {
    "id": 2138555,
    "name": "Poum",
    "lat": -20.23333,
    "lng": 164.01667
  },
  {
    "id": 2137713,
    "name": "Wala",
    "lat": -19.71161,
    "lng": 163.64702
  },
  {
    "id": 2138356,
    "name": "Sarraméa",
    "lat": -21.65,
    "lng": 165.85
  },
  {
    "id": 2140110,
    "name": "Moindou",
    "lat": -21.7,
    "lng": 165.68333
  },
  {
    "id": 2140450,
    "name": "La Roche",
    "lat": -21.47799,
    "lng": 168.02593
  }
]