[
  {
    "id": 287286,
    "name": "Muscat",
    "lat": 23.58413,
    "lng": 58.40778
  },
  {
    "id": 288967,
    "name": "Seeb",
    "lat": 23.67027,
    "lng": 58.18911
  },
  {
    "id": 288764,
    "name": "Bawshar",
    "lat": 23.57769,
    "lng": 58.39982
  },
  {
    "id": 287830,
    "name": "‘Ibrī",
    "lat": 23.22573,
    "lng": 56.51572
  },
  {
    "id": 286621,
    "name": "Şalālah",
    "lat": 17.01505,
    "lng": 54.09237
  },
  {
    "id": 286647,
    "name": "Şaḩam",
    "lat": 24.17222,
    "lng": 56.88861
  },
  {
    "id": 289011,
    "name": "Rustaq",
    "lat": 23.39083,
    "lng": 57.42444
  },
  {
    "id": 286282,
    "name": "Sohar",
    "lat": 24.34745,
    "lng": 56.70937
  },
  {
    "id": 288955,
    "name": "As Suwayq",
    "lat": 23.84944,
    "lng": 57.43861
  },
  {
    "id": 289317,
    "name": "Al Buraymī",
    "lat": 24.25088,
    "lng": 55.79312
  },
  {
    "id": 286987,
    "name": "Nizwá",
    "lat": 22.93333,
    "lng": 57.53333
  },
  {
    "id": 286245,
    "name": "Sur",
    "lat": 22.56667,
    "lng": 59.52889
  },
  {
    "id": 288899,
    "name": "Bahlā’",
    "lat": 22.97886,
    "lng": 57.3047
  },
  {
    "id": 289199,
    "name": "Al Khābūrah",
    "lat": 23.97144,
    "lng": 57.09313
  },
  {
    "id": 286402,
    "name": "Shināş",
    "lat": 24.7426,
    "lng": 56.46698
  },
  {
    "id": 286293,
    "name": "Sufālat Samā’il",
    "lat": 23.31667,
    "lng": 58.01667
  },
  {
    "id": 287814,
    "name": "Izkī",
    "lat": 22.93333,
    "lng": 57.76667
  },
  {
    "id": 289174,
    "name": "Liwá",
    "lat": 24.53077,
    "lng": 56.563
  },
  {
    "id": 287832,
    "name": "Ibrā’",
    "lat": 22.69057,
    "lng": 58.53337
  },
  {
    "id": 288721,
    "name": "Bidbid",
    "lat": 23.40787,
    "lng": 58.1283
  },
  {
    "id": 288902,
    "name": "Badīyah",
    "lat": 22.45,
    "lng": 58.8
  },
  {
    "id": 287614,
    "name": "Khasab",
    "lat": 26.17993,
    "lng": 56.24774
  },
  {
    "id": 289433,
    "name": "Adam",
    "lat": 22.37934,
    "lng": 57.52718
  },
  {
    "id": 411849,
    "name": "Yanqul",
    "lat": 23.58645,
    "lng": 56.53969
  },
  {
    "id": 289142,
    "name": "Al Qābil",
    "lat": 22.571,
    "lng": 58.69472
  },
  {
    "id": 288507,
    "name": "Dib Dibba",
    "lat": 26.19778,
    "lng": 56.25778
  },
  {
    "id": 291586,
    "name": "Madḩā’ al Jadīdah",
    "lat": 25.28345,
    "lng": 56.3328
  },
  {
    "id": 287939,
    "name": "Haymā’",
    "lat": 19.95931,
    "lng": 56.27575
  },
  {
    "id": 12470176,
    "name": "Al Wadan",
    "lat": 23.6237,
    "lng": 55.56348
  }
]