[
  {
    "id": 4034561,
    "name": "Faaa",
    "lat": -17.55933,
    "lon": -149.60352
  },
  {
    "id": 4033936,
    "name": "Papeete",
    "lat": -17.5347,
    "lon": -149.56843
  },
  {
    "id": 4033779,
    "name": "Punaauia",
    "lat": -17.63333,
    "lon": -149.6
  },
  {
    "id": 4033838,
    "name": "Pirae",
    "lat": -17.52985,
    "lon": -149.55119
  },
  {
    "id": 4034307,
    "name": "Mahina",
    "lat": -17.50648,
    "lon": -149.48899
  },
  {
    "id": 4034005,
    "name": "Paea",
    "lat": -17.68333,
    "lon": -149.58333
  },
  {
    "id": 4033951,
    "name": "Papao",
    "lat": -17.75,
    "lon": -149.55
  },
  {
    "id": 4034636,
    "name": "Arue",
    "lat": -17.52764,
    "lon": -149.53437
  },
  {
    "id": 4033062,
    "name": "Vaitoare",
    "lat": -16.67618,
    "lon": -151.45743
  },
  {
    "id": 4034745,
    "name": "Afaahiti",
    "lat": -17.74395,
    "lon": -149.32444
  },
  {
    "id": 4033077,
    "name": "Vaitape",
    "lat": -16.50741,
    "lon": -151.74913
  },
  {
    "id": 4034022,
    "name": "Otutara",
    "lat": -17.77207,
    "lon": -149.41341
  },
  {
    "id": 4033958,
    "name": "Paopao",
    "lat": -17.51863,
    "lon": -149.82193
  },
  {
    "id": 4033566,
    "name": "Taunoa",
    "lat": -17.75139,
    "lon": -149.35602
  },
  {
    "id": 4034438,
    "name": "Haapiti",
    "lat": -17.56352,
    "lon": -149.86905
  },
  {
    "id": 4033205,
    "name": "Uturoa",
    "lat": -16.73022,
    "lon": -151.44256
  },
  {
    "id": 4034741,
    "name": "Afareaitu",
    "lat": -17.55,
    "lon": -149.78333
  },
  {
    "id": 4033295,
    "name": "Tohautu",
    "lat": -17.76099,
    "lon": -149.31676
  },
  {
    "id": 4033356,
    "name": "Tiarei",
    "lat": -17.53333,
    "lon": -149.33333
  },
  {
    "id": 4033094,
    "name": "Vairao",
    "lat": -17.78333,
    "lon": -149.28333
  },
  {
    "id": 4033557,
    "name": "Tautira",
    "lat": -17.74744,
    "lon": -149.16123
  },
  {
    "id": 4033514,
    "name": "Teavaro",
    "lat": -17.5,
    "lon": -149.76667
  },
  {
    "id": 4034551,
    "name": "Faanui",
    "lat": -16.48679,
    "lon": -151.74102
  },
  {
    "id": 4033792,
    "name": "Pueu",
    "lat": -17.73831,
    "lon": -149.22376
  },
  {
    "id": 4033910,
    "name": "Papetoai",
    "lat": -17.49538,
    "lon": -149.87437
  },
  {
    "id": 4033375,
    "name": "Tevaitoa",
    "lat": -16.79139,
    "lon": -151.48893
  },
  {
    "id": 4034402,
    "name": "Hitiaa",
    "lat": -17.6,
    "lon": -149.3
  },
  {
    "id": 4020109,
    "name": "Atuona",
    "lat": -9.80342,
    "lon": -139.04202
  },
  {
    "id": 4034548,
    "name": "Faone",
    "lat": -17.66917,
    "lon": -149.30919
  },
  {
    "id": 4034496,
    "name": "Fare",
    "lat": -16.7123,
    "lon": -151.03493
  },
  {
    "id": 4033543,
    "name": "Teahupoo",
    "lat": -17.84645,
    "lon": -149.26682
  },
  {
    "id": 4034688,
    "name": "Anau",
    "lat": -16.50148,
    "lon": -151.72135
  },
  {
    "id": 8063344,
    "name": "Taiohae",
    "lat": -8.91093,
    "lon": -140.09972
  },
  {
    "id": 4034451,
    "name": "Fitii",
    "lat": -16.73535,
    "lon": -151.0327
  },
  {
    "id": 4030556,
    "name": "Rikitea",
    "lat": -23.12322,
    "lon": -134.96858
  },
  {
    "id": 4034188,
    "name": "Moerai",
    "lat": -22.45133,
    "lon": -151.34191
  },
  {
    "id": 4034320,
    "name": "Mahaena",
    "lat": -17.56667,
    "lon": -149.31667
  },
  {
    "id": 4034228,
    "name": "Mataura",
    "lat": -23.34722,
    "lon": -149.48487
  },
  {
    "id": 8554431,
    "name": "Vaiaau",
    "lat": -16.85964,
    "lon": -151.48018
  },
  {
    "id": 4034588,
    "name": "Avera",
    "lat": -22.47814,
    "lon": -151.35126
  },
  {
    "id": 4034590,
    "name": "Avatoru",
    "lat": -14.94172,
    "lon": -147.702
  },
  {
    "id": 4034434,
    "name": "Haapu",
    "lat": -16.79217,
    "lon": -151.01091
  }
]