[
  {
    "id": 756135,
    "name": "Warsaw",
    "lat": 52.22977,
    "lon": 21.01178
  },
  {
    "id": 3093133,
    "name": "Łódź",
    "lat": 51.77058,
    "lon": 19.47395
  },
  {
    "id": 3094802,
    "name": "Kraków",
    "lat": 50.06143,
    "lon": 19.93658
  },
  {
    "id": 3081368,
    "name": "Wrocław",
    "lat": 51.10286,
    "lon": 17.03006
  },
  {
    "id": 3088171,
    "name": "Poznań",
    "lat": 52.40692,
    "lon": 16.92993
  },
  {
    "id": 3099434,
    "name": "Gdańsk",
    "lat": 54.35227,
    "lon": 18.64912
  },
  {
    "id": 3083829,
    "name": "Szczecin",
    "lat": 53.42894,
    "lon": 14.55302
  },
  {
    "id": 3102014,
    "name": "Bydgoszcz",
    "lat": 53.1235,
    "lon": 18.00762
  },
  {
    "id": 765876,
    "name": "Lublin",
    "lat": 51.25058,
    "lon": 22.57009
  },
  {
    "id": 3096472,
    "name": "Katowice",
    "lat": 50.2597,
    "lon": 19.02173
  },
  {
    "id": 776069,
    "name": "Białystok",
    "lat": 53.13333,
    "lon": 23.16433
  },
  {
    "id": 3099424,
    "name": "Gdynia",
    "lat": 54.51889,
    "lon": 18.53188
  },
  {
    "id": 3100946,
    "name": "Częstochowa",
    "lat": 50.79646,
    "lon": 19.12409
  },
  {
    "id": 3085128,
    "name": "Sosnowiec",
    "lat": 50.28682,
    "lon": 19.10385
  },
  {
    "id": 760778,
    "name": "Radom",
    "lat": 51.40253,
    "lon": 21.14714
  },
  {
    "id": 764484,
    "name": "Mokotów",
    "lat": 52.1934,
    "lon": 21.03487
  },
  {
    "id": 769250,
    "name": "Kielce",
    "lat": 50.87033,
    "lon": 20.62752
  },
  {
    "id": 3099230,
    "name": "Gliwice",
    "lat": 50.29761,
    "lon": 18.67658
  },
  {
    "id": 3083271,
    "name": "Toruń",
    "lat": 53.01375,
    "lon": 18.59814
  },
  {
    "id": 3080985,
    "name": "Zabrze",
    "lat": 50.32492,
    "lon": 18.78576
  },
  {
    "id": 3101950,
    "name": "Bytom",
    "lat": 50.34802,
    "lon": 18.93282
  },
  {
    "id": 6545348,
    "name": "Praga Południe",
    "lat": 52.24424,
    "lon": 21.08545
  },
  {
    "id": 3103402,
    "name": "Bielsko-Biala",
    "lat": 49.82245,
    "lon": 19.04686
  },
  {
    "id": 763166,
    "name": "Olsztyn",
    "lat": 53.78376,
    "lon": 20.49272
  },
  {
    "id": 759734,
    "name": "Rzeszów",
    "lat": 50.04132,
    "lon": 21.99901
  },
  {
    "id": 6545326,
    "name": "Ursynów",
    "lat": 52.15051,
    "lon": 21.05041
  },
  {
    "id": 3086800,
    "name": "Ruda Śląska",
    "lat": 50.2584,
    "lon": 18.85632
  },
  {
    "id": 3086586,
    "name": "Rybnik",
    "lat": 50.09713,
    "lon": 18.54179
  },
  {
    "id": 755330,
    "name": "Wola",
    "lat": 52.23477,
    "lon": 20.96004
  },
  {
    "id": 776029,
    "name": "Bielany",
    "lat": 52.29242,
    "lon": 20.93531
  },
  {
    "id": 3082914,
    "name": "Tychy",
    "lat": 50.13717,
    "lon": 18.96641
  },
  {
    "id": 776103,
    "name": "Białołeka",
    "lat": 52.32127,
    "lon": 20.97204
  },
  {
    "id": 3090048,
    "name": "Opole",
    "lat": 50.67119,
    "lon": 17.92604
  },
  {
    "id": 3099759,
    "name": "Elbląg",
    "lat": 54.1522,
    "lon": 19.40884
  },
  {
    "id": 3088825,
    "name": "Płock",
    "lat": 52.54682,
    "lon": 19.70638
  },
  {
    "id": 3082707,
    "name": "Wałbrzych",
    "lat": 50.77141,
    "lon": 16.28432
  },
  {
    "id": 3098722,
    "name": "Gorzów Wielkopolski",
    "lat": 52.73371,
    "lon": 15.22505
  },
  {
    "id": 757065,
    "name": "Targówek",
    "lat": 52.29185,
    "lon": 21.04845
  },
  {
    "id": 776251,
    "name": "Bemowo",
    "lat": 52.2546,
    "lon": 20.90844
  },
  {
    "id": 3081741,
    "name": "Włocławek",
    "lat": 52.64817,
    "lon": 19.0678
  },
  {
    "id": 3080165,
    "name": "Zielona Góra",
    "lat": 51.93548,
    "lon": 15.50643
  },
  {
    "id": 757026,
    "name": "Tarnów",
    "lat": 50.01381,
    "lon": 20.98698
  },
  {
    "id": 3100796,
    "name": "Dąbrowa Górnicza",
    "lat": 50.33394,
    "lon": 19.20479
  },
  {
    "id": 3101619,
    "name": "Chorzów",
    "lat": 50.30582,
    "lon": 18.9742
  },
  {
    "id": 3096880,
    "name": "Kalisz",
    "lat": 51.76109,
    "lon": 18.09102
  },
  {
    "id": 3095049,
    "name": "Koszalin",
    "lat": 54.19438,
    "lon": 16.17222
  },
  {
    "id": 3093692,
    "name": "Legnica",
    "lat": 51.21006,
    "lon": 16.1619
  },
  {
    "id": 758470,
    "name": "Śródmieście",
    "lat": 52.22904,
    "lon": 21.01644
  },
  {
    "id": 3085450,
    "name": "Słupsk",
    "lat": 54.46405,
    "lon": 17.02872
  },
  {
    "id": 3097333,
    "name": "Jaworzno",
    "lat": 50.20528,
    "lon": 19.27498
  },
  {
    "id": 3097391,
    "name": "Jastrzębie Zdrój",
    "lat": 49.95542,
    "lon": 18.57479
  },
  {
    "id": 6545347,
    "name": "Praga Północ",
    "lat": 52.25443,
    "lon": 21.03472
  },
  {
    "id": 3098218,
    "name": "Grudziądz",
    "lat": 53.48411,
    "lon": 18.75366
  },
  {
    "id": 763534,
    "name": "Nowy Sącz",
    "lat": 49.62177,
    "lon": 20.69705
  },
  {
    "id": 763442,
    "name": "Ochota",
    "lat": 52.22096,
    "lon": 20.98526
  },
  {
    "id": 3095321,
    "name": "Konin",
    "lat": 52.22338,
    "lon": 18.25121
  },
  {
    "id": 3088972,
    "name": "Piotrków Trybunalski",
    "lat": 51.40547,
    "lon": 19.70321
  },
  {
    "id": 3097872,
    "name": "Inowrocław",
    "lat": 52.79886,
    "lon": 18.26387
  },
  {
    "id": 3092931,
    "name": "Lubin",
    "lat": 51.40089,
    "lon": 16.20149
  },
  {
    "id": 3097257,
    "name": "Jelenia Góra",
    "lat": 50.89973,
    "lon": 15.72899
  },
  {
    "id": 756092,
    "name": "Wawer",
    "lat": 52.19656,
    "lon": 21.17752
  },
  {
    "id": 759412,
    "name": "Siedlce",
    "lat": 52.16772,
    "lon": 22.29006
  },
  {
    "id": 3089033,
    "name": "Piła",
    "lat": 53.15145,
    "lon": 16.73782
  },
  {
    "id": 762863,
    "name": "Ostrowiec Świętokrzyski",
    "lat": 50.92936,
    "lon": 21.38525
  },
  {
    "id": 3086024,
    "name": "Siemianowice Śląskie",
    "lat": 50.32738,
    "lon": 19.02901
  },
  {
    "id": 3089684,
    "name": "Ostrów Wielkopolski",
    "lat": 51.65501,
    "lon": 17.80686
  },
  {
    "id": 3091232,
    "name": "Mysłowice",
    "lat": 50.20745,
    "lon": 19.16668
  },
  {
    "id": 3084840,
    "name": "Stargard",
    "lat": 53.33672,
    "lon": 15.0499
  },
  {
    "id": 3089578,
    "name": "Pabianice",
    "lat": 51.66446,
    "lon": 19.35473
  },
  {
    "id": 3099112,
    "name": "Gniezno",
    "lat": 52.53481,
    "lon": 17.58259
  },
  {
    "id": 3099654,
    "name": "Fordon",
    "lat": 53.14821,
    "lon": 18.17036
  },
  {
    "id": 757718,
    "name": "Suwałki",
    "lat": 54.11175,
    "lon": 22.93087
  },
  {
    "id": 756867,
    "name": "Tomaszów Mazowiecki",
    "lat": 51.53131,
    "lon": 20.00855
  },
  {
    "id": 761168,
    "name": "Przemyśl",
    "lat": 49.78498,
    "lon": 22.76728
  },
  {
    "id": 758445,
    "name": "Stalowa Wola",
    "lat": 50.58286,
    "lon": 22.05334
  },
  {
    "id": 753866,
    "name": "Zamość",
    "lat": 50.72314,
    "lon": 23.25196
  },
  {
    "id": 3096372,
    "name": "Kędzierzyn-Koźle",
    "lat": 50.34984,
    "lon": 18.22606
  },
  {
    "id": 3099213,
    "name": "Głogów",
    "lat": 51.66361,
    "lon": 16.0845
  },
  {
    "id": 3093524,
    "name": "Leszno",
    "lat": 51.84034,
    "lon": 16.57494
  },
  {
    "id": 3080004,
    "name": "Żory",
    "lat": 50.04523,
    "lon": 18.70062
  },
  {
    "id": 3103709,
    "name": "Bełchatów",
    "lat": 51.36883,
    "lon": 19.35671
  },
  {
    "id": 766027,
    "name": "Łomża",
    "lat": 53.17806,
    "lon": 22.05935
  },
  {
    "id": 3083440,
    "name": "Tarnowskie Góry",
    "lat": 50.44548,
    "lon": 18.86147
  },
  {
    "id": 3084093,
    "name": "Świdnica",
    "lat": 50.84378,
    "lon": 16.48859
  },
  {
    "id": 774558,
    "name": "Chełm",
    "lat": 51.14312,
    "lon": 23.4716
  },
  {
    "id": 3083426,
    "name": "Tczew",
    "lat": 54.09242,
    "lon": 18.77787
  },
  {
    "id": 3089125,
    "name": "Piekary Śląskie",
    "lat": 50.38017,
    "lon": 18.92653
  },
  {
    "id": 764849,
    "name": "Mielec",
    "lat": 50.28709,
    "lon": 21.4239
  },
  {
    "id": 3087584,
    "name": "Racibórz",
    "lat": 50.09195,
    "lon": 18.21928
  },
  {
    "id": 3103719,
    "name": "Będzin",
    "lat": 50.32607,
    "lon": 19.12565
  },
  {
    "id": 3080251,
    "name": "Zgierz",
    "lat": 51.85561,
    "lon": 19.40623
  },
  {
    "id": 776175,
    "name": "Biała Podlaska",
    "lat": 52.03238,
    "lon": 23.11652
  },
  {
    "id": 772621,
    "name": "Ełk",
    "lat": 53.82824,
    "lon": 22.36469
  },
  {
    "id": 3083988,
    "name": "Świętochłowice",
    "lat": 50.29636,
    "lon": 18.91726
  },
  {
    "id": 761228,
    "name": "Pruszków",
    "lat": 52.17072,
    "lon": 20.81214
  },
  {
    "id": 762909,
    "name": "Ostrołęka",
    "lat": 53.08621,
    "lon": 21.57566
  },
  {
    "id": 758390,
    "name": "Starachowice",
    "lat": 51.0374,
    "lon": 21.07126
  },
  {
    "id": 3080526,
    "name": "Zawiercie",
    "lat": 50.48766,
    "lon": 19.41679
  },
  {
    "id": 753142,
    "name": "Żoliborz",
    "lat": 52.26896,
    "lon": 20.98644
  },
  {
    "id": 766555,
    "name": "Legionowo",
    "lat": 52.40149,
    "lon": 20.92664
  },
  {
    "id": 757033,
    "name": "Tarnobrzeg",
    "lat": 50.57304,
    "lon": 21.67937
  },
  {
    "id": 760924,
    "name": "Puławy",
    "lat": 51.41655,
    "lon": 21.96939
  },
  {
    "id": 3081677,
    "name": "Wodzisław Śląski",
    "lat": 50.00377,
    "lon": 18.47205
  },
  {
    "id": 759141,
    "name": "Skarżysko-Kamienna",
    "lat": 51.11311,
    "lon": 20.87162
  },
  {
    "id": 759123,
    "name": "Skierniewice",
    "lat": 51.95485,
    "lon": 20.15837
  },
  {
    "id": 3094170,
    "name": "Kutno",
    "lat": 52.23064,
    "lon": 19.36409
  },
  {
    "id": 767470,
    "name": "Krosno",
    "lat": 49.68866,
    "lon": 21.77058
  },
  {
    "id": 773380,
    "name": "Dębica",
    "lat": 50.05146,
    "lon": 21.41141
  },
  {
    "id": 756320,
    "name": "Ursus",
    "lat": 52.19517,
    "lon": 20.88419
  },
  {
    "id": 3090436,
    "name": "Nysa",
    "lat": 50.47379,
    "lon": 17.33437
  },
  {
    "id": 3084826,
    "name": "Starogard Gdański",
    "lat": 53.96396,
    "lon": 18.52638
  },
  {
    "id": 3082473,
    "name": "Wejherowo",
    "lat": 54.60568,
    "lon": 18.23559
  },
  {
    "id": 774208,
    "name": "Ciechanów",
    "lat": 52.88141,
    "lon": 20.61996
  },
  {
    "id": 3086706,
    "name": "Rumia",
    "lat": 54.57092,
    "lon": 18.38802
  },
  {
    "id": 3087497,
    "name": "Radomsko",
    "lat": 51.06713,
    "lon": 19.44477
  },
  {
    "id": 3080414,
    "name": "Zduńska Wola",
    "lat": 51.59915,
    "lon": 18.93974
  },
  {
    "id": 3085978,
    "name": "Sieradz",
    "lat": 51.59584,
    "lon": 18.73023
  },
  {
    "id": 3095795,
    "name": "Kołobrzeg",
    "lat": 54.17565,
    "lon": 15.58342
  },
  {
    "id": 762788,
    "name": "Otwock",
    "lat": 52.10577,
    "lon": 21.26129
  },
  {
    "id": 775984,
    "name": "Bieńczyce",
    "lat": 50.08809,
    "lon": 20.02786
  },
  {
    "id": 752967,
    "name": "Żyrardów",
    "lat": 52.0488,
    "lon": 20.44599
  },
  {
    "id": 3083955,
    "name": "Świnoujście",
    "lat": 53.91053,
    "lon": 14.24712
  },
  {
    "id": 3102987,
    "name": "Bolesławiec",
    "lat": 51.26418,
    "lon": 15.5697
  },
  {
    "id": 3090764,
    "name": "Nowa Sól",
    "lat": 51.80333,
    "lon": 15.71702
  },
  {
    "id": 757692,
    "name": "Świdnik",
    "lat": 51.21898,
    "lon": 22.69621
  },
  {
    "id": 3101547,
    "name": "Chrzanów",
    "lat": 50.13546,
    "lon": 19.40203
  },
  {
    "id": 3095971,
    "name": "Knurów",
    "lat": 50.21971,
    "lon": 18.65067
  },
  {
    "id": 759591,
    "name": "Sanok",
    "lat": 49.55573,
    "lon": 22.2056
  },
  {
    "id": 3091831,
    "name": "Mikołów",
    "lat": 50.17103,
    "lon": 18.9041
  },
  {
    "id": 3101672,
    "name": "Chojnice",
    "lat": 53.69554,
    "lon": 17.55701
  },
  {
    "id": 3080644,
    "name": "Żary",
    "lat": 51.64205,
    "lon": 15.13727
  },
  {
    "id": 3083826,
    "name": "Szczecinek",
    "lat": 53.70791,
    "lon": 16.69937
  },
  {
    "id": 758682,
    "name": "Sochaczew",
    "lat": 52.22944,
    "lon": 20.23838
  },
  {
    "id": 3102459,
    "name": "Brzeg",
    "lat": 50.86079,
    "lon": 17.4674
  },
  {
    "id": 770293,
    "name": "Jasło",
    "lat": 49.74506,
    "lon": 21.47252
  },
  {
    "id": 3090146,
    "name": "Olkusz",
    "lat": 50.2813,
    "lon": 19.56503
  },
  {
    "id": 3094086,
    "name": "Kwidzyn",
    "lat": 53.72495,
    "lon": 18.93114
  },
  {
    "id": 764679,
    "name": "Mińsk Mazowiecki",
    "lat": 52.17935,
    "lon": 21.57251
  },
  {
    "id": 3090170,
    "name": "Oleśnica",
    "lat": 51.21338,
    "lon": 17.38986
  },
  {
    "id": 3092472,
    "name": "Malbork",
    "lat": 54.03591,
    "lon": 19.0266
  },
  {
    "id": 754800,
    "name": "Wołomin",
    "lat": 52.34006,
    "lon": 21.24207
  },
  {
    "id": 762423,
    "name": "Piaseczno",
    "lat": 52.0814,
    "lon": 21.02397
  },
  {
    "id": 755475,
    "name": "Włochy",
    "lat": 52.17941,
    "lon": 20.94612
  },
  {
    "id": 767623,
    "name": "Kraśnik",
    "lat": 50.9236,
    "lon": 22.22706
  },
  {
    "id": 3101321,
    "name": "Cieszyn",
    "lat": 49.75133,
    "lon": 18.63213
  },
  {
    "id": 770380,
    "name": "Jarosław",
    "lat": 50.01623,
    "lon": 22.67776
  },
  {
    "id": 3093739,
    "name": "Lębork",
    "lat": 54.53921,
    "lon": 17.75012
  },
  {
    "id": 3085151,
    "name": "Sopot",
    "lat": 54.4418,
    "lon": 18.56003
  },
  {
    "id": 3101076,
    "name": "Czechowice-Dziedzice",
    "lat": 49.91342,
    "lon": 19.00479
  },
  {
    "id": 3088461,
    "name": "Police",
    "lat": 53.55214,
    "lon": 14.57182
  },
  {
    "id": 3101057,
    "name": "Czeladź",
    "lat": 50.31542,
    "lon": 19.07824
  },
  {
    "id": 3089658,
    "name": "Oświęcim",
    "lat": 50.03437,
    "lon": 19.21037
  },
  {
    "id": 3099828,
    "name": "Dzierżoniów",
    "lat": 50.7282,
    "lon": 16.65141
  },
  {
    "id": 763523,
    "name": "Nowy Targ",
    "lat": 49.47783,
    "lon": 20.03228
  },
  {
    "id": 3089779,
    "name": "Ostróda",
    "lat": 53.69671,
    "lon": 19.96486
  },
  {
    "id": 3091217,
    "name": "Myszków",
    "lat": 50.5752,
    "lon": 19.32461
  },
  {
    "id": 3080231,
    "name": "Zgorzelec",
    "lat": 51.14942,
    "lon": 15.00835
  },
  {
    "id": 3090205,
    "name": "Oława",
    "lat": 50.9466,
    "lon": 17.2926
  },
  {
    "id": 3097902,
    "name": "Iława",
    "lat": 53.59601,
    "lon": 19.56849
  },
  {
    "id": 3079855,
    "name": "Żywiec",
    "lat": 49.68529,
    "lon": 19.19243
  },
  {
    "id": 8426032,
    "name": "Chełm",
    "lat": 54.34048,
    "lon": 18.61925
  },
  {
    "id": 765749,
    "name": "Łuków",
    "lat": 51.929,
    "lon": 22.37956
  },
  {
    "id": 3085056,
    "name": "Śrem",
    "lat": 52.08868,
    "lon": 17.01508
  },
  {
    "id": 772195,
    "name": "Giżycko",
    "lat": 54.03811,
    "lon": 21.76441
  },
  {
    "id": 8426046,
    "name": "Ujeścisko-Łostowice",
    "lat": 54.32435,
    "lon": 18.60269
  },
  {
    "id": 3093066,
    "name": "Łowicz",
    "lat": 52.10714,
    "lon": 19.94525
  },
  {
    "id": 776597,
    "name": "Augustów",
    "lat": 53.84321,
    "lon": 22.97979
  },
  {
    "id": 3082998,
    "name": "Turek",
    "lat": 52.01548,
    "lon": 18.50055
  },
  {
    "id": 764634,
    "name": "Mława",
    "lat": 53.11278,
    "lon": 20.3841
  },
  {
    "id": 3103476,
    "name": "Bielawa",
    "lat": 50.69075,
    "lon": 16.623
  },
  {
    "id": 3094625,
    "name": "Krotoszyn",
    "lat": 51.69868,
    "lon": 17.43738
  },
  {
    "id": 775758,
    "name": "Bochnia",
    "lat": 49.96905,
    "lon": 20.43028
  },
  {
    "id": 3084130,
    "name": "Swarzędz",
    "lat": 52.41289,
    "lon": 17.08503
  },
  {
    "id": 3098171,
    "name": "Grzegórzki",
    "lat": 50.06423,
    "lon": 19.96761
  },
  {
    "id": 3100974,
    "name": "Czerwionka-Leszczyny",
    "lat": 50.15007,
    "lon": 18.67762
  },
  {
    "id": 3081324,
    "name": "Września",
    "lat": 52.32512,
    "lon": 17.56519
  },
  {
    "id": 771804,
    "name": "Gorlice",
    "lat": 49.65563,
    "lon": 21.16035
  },
  {
    "id": 772227,
    "name": "Gierłoż",
    "lat": 54.08134,
    "lon": 21.49551
  },
  {
    "id": 763556,
    "name": "Nowy Dwór Mazowiecki",
    "lat": 52.43022,
    "lon": 20.71652
  },
  {
    "id": 769274,
    "name": "Kętrzyn",
    "lat": 54.07676,
    "lon": 21.37527
  },
  {
    "id": 3102627,
    "name": "Brodnica",
    "lat": 53.25967,
    "lon": 19.39653
  },
  {
    "id": 3080866,
    "name": "Zakopane",
    "lat": 49.29899,
    "lon": 19.94885
  },
  {
    "id": 8426039,
    "name": "Piecki-Migowo",
    "lat": 54.35698,
    "lon": 18.58174
  },
  {
    "id": 775922,
    "name": "Biłgoraj",
    "lat": 50.54114,
    "lon": 22.72204
  },
  {
    "id": 771401,
    "name": "Grodzisk Mazowiecki",
    "lat": 52.10387,
    "lon": 20.6337
  },
  {
    "id": 754454,
    "name": "Wyszków",
    "lat": 52.59278,
    "lon": 21.4584
  },
  {
    "id": 775986,
    "name": "Bielsk Podlaski",
    "lat": 52.76512,
    "lon": 23.18647
  },
  {
    "id": 3092856,
    "name": "Luboń",
    "lat": 52.34705,
    "lon": 16.89267
  },
  {
    "id": 757357,
    "name": "Szczytno",
    "lat": 53.56259,
    "lon": 20.98747
  },
  {
    "id": 3096003,
    "name": "Kluczbork",
    "lat": 50.97281,
    "lon": 18.21816
  },
  {
    "id": 3082704,
    "name": "Wałcz",
    "lat": 53.27787,
    "lon": 16.47122
  },
  {
    "id": 3084074,
    "name": "Świecie",
    "lat": 53.40953,
    "lon": 18.44742
  },
  {
    "id": 3080944,
    "name": "Żagań",
    "lat": 51.61759,
    "lon": 15.31486
  },
  {
    "id": 3096053,
    "name": "Kłodzko",
    "lat": 50.43488,
    "lon": 16.66145
  },
  {
    "id": 3082712,
    "name": "Wągrowiec",
    "lat": 52.80842,
    "lon": 17.19961
  },
  {
    "id": 3097528,
    "name": "Jarocin",
    "lat": 51.97266,
    "lon": 17.50256
  },
  {
    "id": 3087705,
    "name": "Pszczyna",
    "lat": 49.98037,
    "lon": 18.95382
  },
  {
    "id": 759603,
    "name": "Sandomierz",
    "lat": 50.68265,
    "lon": 21.74898
  },
  {
    "id": 3090768,
    "name": "Nowa Ruda",
    "lat": 50.58008,
    "lon": 16.50164
  },
  {
    "id": 8426041,
    "name": "Przymorze Wielkie",
    "lat": 54.41166,
    "lon": 18.5984
  },
  {
    "id": 3103556,
    "name": "Białogard",
    "lat": 54.00696,
    "lon": 15.98751
  },
  {
    "id": 3095151,
    "name": "Kościan",
    "lat": 52.08829,
    "lon": 16.64866
  },
  {
    "id": 3097367,
    "name": "Jawor",
    "lat": 51.05132,
    "lon": 16.19347
  },
  {
    "id": 3092906,
    "name": "Lubliniec",
    "lat": 50.66897,
    "lon": 18.6844
  },
  {
    "id": 3085807,
    "name": "Skawina",
    "lat": 49.97524,
    "lon": 19.82869
  },
  {
    "id": 3088034,
    "name": "Pruszcz Gdański",
    "lat": 54.26217,
    "lon": 18.63625
  },
  {
    "id": 3095797,
    "name": "Koło",
    "lat": 52.20024,
    "lon": 18.63865
  },
  {
    "id": 776337,
    "name": "Bartoszyce",
    "lat": 54.25354,
    "lon": 20.80819
  },
  {
    "id": 754351,
    "name": "Ząbki",
    "lat": 52.29271,
    "lon": 21.10539
  },
  {
    "id": 8426045,
    "name": "Środmieście",
    "lat": 54.35048,
    "lon": 18.65556
  },
  {
    "id": 3088065,
    "name": "Prudnik",
    "lat": 50.32124,
    "lon": 17.57461
  },
  {
    "id": 3095126,
    "name": "Kościerzyna",
    "lat": 54.12226,
    "lon": 17.98119
  },
  {
    "id": 762381,
    "name": "Piastów",
    "lat": 52.18435,
    "lon": 20.83952
  },
  {
    "id": 3084084,
    "name": "Świebodzice",
    "lat": 50.85974,
    "lon": 16.31966
  },
  {
    "id": 765191,
    "name": "Marki",
    "lat": 52.32065,
    "lon": 21.10474
  },
  {
    "id": 753895,
    "name": "Zambrów",
    "lat": 52.9855,
    "lon": 22.24319
  },
  {
    "id": 765927,
    "name": "Lubartów",
    "lat": 51.46026,
    "lon": 22.60952
  },
  {
    "id": 771506,
    "name": "Grajewo",
    "lat": 53.64728,
    "lon": 22.45537
  },
  {
    "id": 762850,
    "name": "Ostrów Mazowiecka",
    "lat": 52.80245,
    "lon": 21.89507
  },
  {
    "id": 763111,
    "name": "Opoczno",
    "lat": 51.37569,
    "lon": 20.27827
  },
  {
    "id": 3098966,
    "name": "Goleniów",
    "lat": 53.56392,
    "lon": 14.82854
  },
  {
    "id": 3093040,
    "name": "Lubań",
    "lat": 51.12014,
    "lon": 15.28768
  },
  {
    "id": 762021,
    "name": "Płońsk",
    "lat": 52.62348,
    "lon": 20.37552
  },
  {
    "id": 771158,
    "name": "Hajnówka",
    "lat": 52.74328,
    "lon": 23.58122
  },
  {
    "id": 3093785,
    "name": "Łaziska Górne",
    "lat": 50.14952,
    "lon": 18.84215
  },
  {
    "id": 764312,
    "name": "Mrągowo",
    "lat": 53.86437,
    "lon": 21.30507
  },
  {
    "id": 3104115,
    "name": "Andrychów",
    "lat": 49.85497,
    "lon": 19.33834
  },
  {
    "id": 760503,
    "name": "Rembertów",
    "lat": 52.26059,
    "lon": 21.16355
  },
  {
    "id": 3086531,
    "name": "Rydułtowy",
    "lat": 50.05857,
    "lon": 18.41703
  },
  {
    "id": 3085045,
    "name": "Środa Wielkopolska",
    "lat": 52.22843,
    "lon": 17.27617
  },
  {
    "id": 3084062,
    "name": "Świebodzin",
    "lat": 52.24751,
    "lon": 15.53355
  },
  {
    "id": 3096779,
    "name": "Kamienna Góra",
    "lat": 50.78314,
    "lon": 16.03037
  },
  {
    "id": 766583,
    "name": "Łęczna",
    "lat": 51.30121,
    "lon": 22.88135
  },
  {
    "id": 8426048,
    "name": "Wrzeszcz Dolny",
    "lat": 54.38473,
    "lon": 18.61273
  },
  {
    "id": 3082197,
    "name": "Wieluń",
    "lat": 51.22097,
    "lon": 18.56964
  },
  {
    "id": 3088435,
    "name": "Polkowice",
    "lat": 51.50391,
    "lon": 16.07261
  },
  {
    "id": 3087307,
    "name": "Rawicz",
    "lat": 51.60946,
    "lon": 16.85852
  },
  {
    "id": 3098200,
    "name": "Gryfino",
    "lat": 53.25243,
    "lon": 14.48831
  },
  {
    "id": 772748,
    "name": "Działdowo",
    "lat": 53.23958,
    "lon": 20.17004
  },
  {
    "id": 8426050,
    "name": "Wrzeszcz Górny",
    "lat": 54.37978,
    "lon": 18.59539
  },
  {
    "id": 3098625,
    "name": "Gostyń",
    "lat": 51.88247,
    "lon": 17.01225
  },
  {
    "id": 768218,
    "name": "Końskie",
    "lat": 51.19166,
    "lon": 20.40607
  },
  {
    "id": 3089582,
    "name": "Ozorków",
    "lat": 51.96336,
    "lon": 19.29139
  },
  {
    "id": 3101795,
    "name": "Chełmno",
    "lat": 53.34855,
    "lon": 18.4251
  },
  {
    "id": 3104132,
    "name": "Aleksandrów Łódzki",
    "lat": 51.81965,
    "lon": 19.30384
  },
  {
    "id": 756868,
    "name": "Tomaszów Lubelski",
    "lat": 50.44767,
    "lon": 23.41616
  },
  {
    "id": 3084415,
    "name": "Strzelce Opolskie",
    "lat": 50.5107,
    "lon": 18.30056
  },
  {
    "id": 756004,
    "name": "Wesoła",
    "lat": 52.25451,
    "lon": 21.22407
  },
  {
    "id": 762199,
    "name": "Pionki",
    "lat": 51.47604,
    "lon": 21.44995
  },
  {
    "id": 3101680,
    "name": "Chodzież",
    "lat": 52.99505,
    "lon": 16.9198
  },
  {
    "id": 3103365,
    "name": "Bieruń",
    "lat": 50.09,
    "lon": 19.09291
  },
  {
    "id": 3091150,
    "name": "Nakło nad Notecią",
    "lat": 53.14214,
    "lon": 17.60181
  },
  {
    "id": 767605,
    "name": "Krasnystaw",
    "lat": 50.98464,
    "lon": 23.1742
  },
  {
    "id": 3096328,
    "name": "Kęty",
    "lat": 49.88214,
    "lon": 19.22333
  },
  {
    "id": 3082722,
    "name": "Wadowice",
    "lat": 49.88335,
    "lon": 19.49292
  },
  {
    "id": 762120,
    "name": "Pisz",
    "lat": 53.62744,
    "lon": 21.81253
  },
  {
    "id": 758651,
    "name": "Sokółka",
    "lat": 53.40715,
    "lon": 23.50228
  },
  {
    "id": 760917,
    "name": "Pułtusk",
    "lat": 52.7025,
    "lon": 21.08276
  },
  {
    "id": 3087628,
    "name": "Pyskowice",
    "lat": 50.4,
    "lon": 18.63333
  },
  {
    "id": 3098619,
    "name": "Gostynin",
    "lat": 52.42938,
    "lon": 19.46194
  },
  {
    "id": 3085941,
    "name": "Sierpc",
    "lat": 52.8568,
    "lon": 19.66913
  },
  {
    "id": 3083111,
    "name": "Trzebinia",
    "lat": 50.15931,
    "lon": 19.46966
  },
  {
    "id": 755889,
    "name": "Wieliczka",
    "lat": 49.98738,
    "lon": 20.06473
  },
  {
    "id": 3091969,
    "name": "Międzyrzecz",
    "lat": 52.44461,
    "lon": 15.57801
  },
  {
    "id": 770966,
    "name": "Hrubieszów",
    "lat": 50.80502,
    "lon": 23.89251
  },
  {
    "id": 3083878,
    "name": "Szamotuły",
    "lat": 52.61201,
    "lon": 16.57794
  },
  {
    "id": 3093902,
    "name": "Łask",
    "lat": 51.59056,
    "lon": 19.13278
  },
  {
    "id": 3089965,
    "name": "Orzesze",
    "lat": 50.15595,
    "lon": 18.77923
  },
  {
    "id": 757809,
    "name": "Sulejówek",
    "lat": 52.25221,
    "lon": 21.26902
  },
  {
    "id": 3080071,
    "name": "Złotów",
    "lat": 53.36346,
    "lon": 17.04082
  },
  {
    "id": 3102677,
    "name": "Braniewo",
    "lat": 54.37971,
    "lon": 19.81959
  },
  {
    "id": 3095277,
    "name": "Konstantynów Łódzki",
    "lat": 51.74776,
    "lon": 19.32564
  },
  {
    "id": 3094788,
    "name": "Krapkowice",
    "lat": 50.47515,
    "lon": 17.96539
  },
  {
    "id": 766810,
    "name": "Łańcut",
    "lat": 50.06871,
    "lon": 22.22912
  },
  {
    "id": 758626,
    "name": "Sokołów Podlaski",
    "lat": 52.40677,
    "lon": 22.25307
  },
  {
    "id": 3087281,
    "name": "Reda",
    "lat": 54.60528,
    "lon": 18.34717
  },
  {
    "id": 3084241,
    "name": "Sulechów",
    "lat": 52.08362,
    "lon": 15.62513
  },
  {
    "id": 3090403,
    "name": "Oborniki",
    "lat": 52.64739,
    "lon": 16.81406
  },
  {
    "id": 769981,
    "name": "Józefów",
    "lat": 52.13707,
    "lon": 21.23589
  },
  {
    "id": 3093457,
    "name": "Libiąż",
    "lat": 50.10396,
    "lon": 19.31568
  },
  {
    "id": 3095057,
    "name": "Kostrzyn nad Odrą",
    "lat": 52.58713,
    "lon": 14.64953
  },
  {
    "id": 773357,
    "name": "Dęblin",
    "lat": 51.55912,
    "lon": 21.84829
  },
  {
    "id": 760584,
    "name": "Rawa Mazowiecka",
    "lat": 51.76437,
    "lon": 20.25493
  },
  {
    "id": 3091256,
    "name": "Myślenice",
    "lat": 49.83383,
    "lon": 19.9383
  },
  {
    "id": 768905,
    "name": "Kobyłka",
    "lat": 52.33953,
    "lon": 21.19589
  },
  {
    "id": 3088848,
    "name": "Pleszew",
    "lat": 51.89636,
    "lon": 17.78549
  },
  {
    "id": 3085495,
    "name": "Słubice",
    "lat": 52.35088,
    "lon": 14.56065
  },
  {
    "id": 753276,
    "name": "Zielonka",
    "lat": 52.30376,
    "lon": 21.16018
  },
  {
    "id": 3087529,
    "name": "Radlin",
    "lat": 50.0502,
    "lon": 18.47626
  },
  {
    "id": 3087418,
    "name": "Radzionków",
    "lat": 50.40026,
    "lon": 18.90232
  },
  {
    "id": 764862,
    "name": "Międzyrzec Podlaski",
    "lat": 51.9864,
    "lon": 22.78248
  },
  {
    "id": 774747,
    "name": "Busko-Zdrój",
    "lat": 50.47078,
    "lon": 20.71884
  },
  {
    "id": 767814,
    "name": "Kozienice",
    "lat": 51.58294,
    "lon": 21.54779
  },
  {
    "id": 3083185,
    "name": "Trzcianka",
    "lat": 53.04063,
    "lon": 16.45629
  },
  {
    "id": 775183,
    "name": "Brzesko",
    "lat": 49.96911,
    "lon": 20.60606
  },
  {
    "id": 770157,
    "name": "Jędrzejów",
    "lat": 50.63945,
    "lon": 20.30454
  },
  {
    "id": 3103034,
    "name": "Boguszów-Gorce",
    "lat": 50.75514,
    "lon": 16.20494
  },
  {
    "id": 3101943,
    "name": "Bytów",
    "lat": 54.17057,
    "lon": 17.49187
  },
  {
    "id": 3098201,
    "name": "Gryfice",
    "lat": 53.9165,
    "lon": 15.20027
  },
  {
    "id": 761218,
    "name": "Przasnysz",
    "lat": 53.01907,
    "lon": 20.88029
  },
  {
    "id": 3090558,
    "name": "Nowogard",
    "lat": 53.67437,
    "lon": 15.1163
  },
  {
    "id": 3098130,
    "name": "Gubin",
    "lat": 51.94956,
    "lon": 14.72837
  },
  {
    "id": 3086511,
    "name": "Rypin",
    "lat": 53.06603,
    "lon": 19.40941
  },
  {
    "id": 768216,
    "name": "Konstancin-Jeziorna",
    "lat": 52.0938,
    "lon": 21.11761
  },
  {
    "id": 766307,
    "name": "Lidzbark Warmiński",
    "lat": 54.12588,
    "lon": 20.57954
  },
  {
    "id": 3103096,
    "name": "Bogatynia",
    "lat": 50.90747,
    "lon": 14.95634
  },
  {
    "id": 766783,
    "name": "Łapy",
    "lat": 52.9911,
    "lon": 22.88422
  },
  {
    "id": 3091141,
    "name": "Namysłów",
    "lat": 51.07592,
    "lon": 17.72284
  },
  {
    "id": 3093708,
    "name": "Lędziny",
    "lat": 50.14264,
    "lon": 19.13149
  },
  {
    "id": 3082756,
    "name": "Ustka",
    "lat": 54.58048,
    "lon": 16.86194
  },
  {
    "id": 758252,
    "name": "Staszów",
    "lat": 50.56307,
    "lon": 21.16593
  },
  {
    "id": 3084440,
    "name": "Strzegom",
    "lat": 50.96264,
    "lon": 16.35006
  },
  {
    "id": 760680,
    "name": "Radzyń Podlaski",
    "lat": 51.78333,
    "lon": 22.61667
  },
  {
    "id": 3089823,
    "name": "Osowa",
    "lat": 54.43109,
    "lon": 18.46727
  },
  {
    "id": 763291,
    "name": "Olecko",
    "lat": 54.03374,
    "lon": 22.50704
  },
  {
    "id": 772339,
    "name": "Garwolin",
    "lat": 51.89747,
    "lon": 21.61466
  },
  {
    "id": 761131,
    "name": "Przeworsk",
    "lat": 50.05912,
    "lon": 22.49408
  },
  {
    "id": 764749,
    "name": "Milanówek",
    "lat": 52.11879,
    "lon": 20.67155
  },
  {
    "id": 3101613,
    "name": "Choszczno",
    "lat": 53.16905,
    "lon": 15.42054
  },
  {
    "id": 3084085,
    "name": "Świdwin",
    "lat": 53.77464,
    "lon": 15.77671
  },
  {
    "id": 3082751,
    "name": "Ustroń",
    "lat": 49.72153,
    "lon": 18.80198
  },
  {
    "id": 763829,
    "name": "Nisko",
    "lat": 50.51987,
    "lon": 22.13968
  },
  {
    "id": 3080074,
    "name": "Złotoryja",
    "lat": 51.12637,
    "lon": 15.91979
  },
  {
    "id": 3093726,
    "name": "Łęczyca",
    "lat": 52.05959,
    "lon": 19.19972
  },
  {
    "id": 759320,
    "name": "Siemiatycze",
    "lat": 52.42719,
    "lon": 22.86231
  },
  {
    "id": 3101787,
    "name": "Chełmża",
    "lat": 53.18463,
    "lon": 18.60466
  },
  {
    "id": 7303641,
    "name": "Jelcz Laskowice",
    "lat": 51.02134,
    "lon": 17.31649
  },
  {
    "id": 766042,
    "name": "Łomianki",
    "lat": 52.33413,
    "lon": 20.88602
  },
  {
    "id": 760343,
    "name": "Ropczyce",
    "lat": 50.05229,
    "lon": 21.60891
  },
  {
    "id": 3090452,
    "name": "Nowy Tomyśl",
    "lat": 52.3195,
    "lon": 16.12844
  },
  {
    "id": 3085172,
    "name": "Solec Kujawski",
    "lat": 53.08371,
    "lon": 18.22572
  },
  {
    "id": 3099169,
    "name": "Głuchołazy",
    "lat": 50.31505,
    "lon": 17.38355
  },
  {
    "id": 3099180,
    "name": "Głowno",
    "lat": 51.96463,
    "lon": 19.71565
  },
  {
    "id": 3081046,
    "name": "Ząbkowice Śląskie",
    "lat": 50.58969,
    "lon": 16.81239
  },
  {
    "id": 3096525,
    "name": "Kartuzy",
    "lat": 54.33424,
    "lon": 18.19735
  },
  {
    "id": 3101367,
    "name": "Cieplice Śląskie Zdrój",
    "lat": 50.86545,
    "lon": 15.68367
  },
  {
    "id": 3092813,
    "name": "Lubsko",
    "lat": 51.78467,
    "lon": 14.97196
  },
  {
    "id": 8426040,
    "name": "Przymorze Małe",
    "lat": 54.40981,
    "lon": 18.5784
  },
  {
    "id": 3081752,
    "name": "Władysławowo",
    "lat": 54.79086,
    "lon": 18.4009
  },
  {
    "id": 771384,
    "name": "Grójec",
    "lat": 51.86252,
    "lon": 20.86757
  },
  {
    "id": 3093268,
    "name": "Lipno",
    "lat": 52.84436,
    "lon": 19.17852
  },
  {
    "id": 3096338,
    "name": "Kępno",
    "lat": 51.2784,
    "lon": 17.98908
  },
  {
    "id": 3085786,
    "name": "Skoczów",
    "lat": 49.80089,
    "lon": 18.7877
  },
  {
    "id": 3091462,
    "name": "Morąg",
    "lat": 53.91711,
    "lon": 19.92602
  },
  {
    "id": 766301,
    "name": "Limanowa",
    "lat": 49.70594,
    "lon": 20.42204
  },
  {
    "id": 764039,
    "name": "Nidzica",
    "lat": 53.36052,
    "lon": 20.42749
  },
  {
    "id": 3090147,
    "name": "Oliwa",
    "lat": 54.40723,
    "lon": 18.55363
  },
  {
    "id": 8426055,
    "name": "Żabianka-Wejhera-Jelitkowo-Tysiąclecia",
    "lat": 54.42307,
    "lon": 18.57445
  },
  {
    "id": 3085481,
    "name": "Słupca",
    "lat": 52.28733,
    "lon": 17.87192
  },
  {
    "id": 3081300,
    "name": "Wschowa",
    "lat": 51.80705,
    "lon": 16.31663
  },
  {
    "id": 3089670,
    "name": "Ostrzeszów",
    "lat": 51.4264,
    "lon": 17.93355
  },
  {
    "id": 3103824,
    "name": "Barlinek",
    "lat": 52.99464,
    "lon": 15.21864
  },
  {
    "id": 3101660,
    "name": "Chojnów",
    "lat": 51.27373,
    "lon": 15.93661
  },
  {
    "id": 8426038,
    "name": "Orunia-Św. Wojciech-Lipce",
    "lat": 54.31469,
    "lon": 18.63685
  },
  {
    "id": 755726,
    "name": "Wilanów",
    "lat": 52.16311,
    "lon": 21.08748
  },
  {
    "id": 3087701,
    "name": "Pszów",
    "lat": 50.03994,
    "lon": 18.39472
  },
  {
    "id": 3080047,
    "name": "Żnin",
    "lat": 52.84958,
    "lon": 17.71992
  },
  {
    "id": 757323,
    "name": "Szerszenie",
    "lat": 52.3978,
    "lon": 22.95632
  },
  {
    "id": 766332,
    "name": "Leżajsk",
    "lat": 50.26257,
    "lon": 22.41932
  },
  {
    "id": 3082734,
    "name": "Wąbrzeźno",
    "lat": 53.27989,
    "lon": 18.94773
  },
  {
    "id": 3098288,
    "name": "Grodzisk Wielkopolski",
    "lat": 52.22762,
    "lon": 16.36534
  },
  {
    "id": 3100545,
    "name": "Dębno",
    "lat": 52.73901,
    "lon": 14.698
  },
  {
    "id": 771953,
    "name": "Gołdap",
    "lat": 54.30631,
    "lon": 22.30362
  },
  {
    "id": 3099174,
    "name": "Głubczyce",
    "lat": 50.20086,
    "lon": 17.82858
  },
  {
    "id": 3081419,
    "name": "Wolsztyn",
    "lat": 52.11552,
    "lon": 16.11712
  },
  {
    "id": 3083043,
    "name": "Tuchola",
    "lat": 53.58792,
    "lon": 17.85905
  },
  {
    "id": 3085610,
    "name": "Sławno",
    "lat": 54.36276,
    "lon": 16.67888
  },
  {
    "id": 3080389,
    "name": "Zdzieszowice",
    "lat": 50.42482,
    "lon": 18.12349
  },
  {
    "id": 3100933,
    "name": "Człuchów",
    "lat": 53.66722,
    "lon": 17.35883
  },
  {
    "id": 3095413,
    "name": "Koluszki",
    "lat": 51.73872,
    "lon": 19.81994
  },
  {
    "id": 3080102,
    "name": "Złocieniec",
    "lat": 53.53286,
    "lon": 16.01132
  },
  {
    "id": 3100637,
    "name": "Darłowo",
    "lat": 54.42095,
    "lon": 16.4107
  },
  {
    "id": 755474,
    "name": "Włodawa",
    "lat": 51.55,
    "lon": 23.55
  },
  {
    "id": 3087601,
    "name": "Rabka-Zdrój",
    "lat": 49.60889,
    "lon": 19.96654
  },
  {
    "id": 3098925,
    "name": "Golub-Dobrzyń",
    "lat": 53.11087,
    "lon": 19.05381
  },
  {
    "id": 3096090,
    "name": "Kłobuck",
    "lat": 50.90081,
    "lon": 18.93674
  },
  {
    "id": 3087630,
    "name": "Pyrzyce",
    "lat": 53.1462,
    "lon": 14.89257
  },
  {
    "id": 3083632,
    "name": "Szprotawa",
    "lat": 51.56563,
    "lon": 15.53664
  },
  {
    "id": 3098898,
    "name": "Góra",
    "lat": 51.66638,
    "lon": 16.53494
  },
  {
    "id": 765932,
    "name": "Lubaczów",
    "lat": 50.157,
    "lon": 23.12339
  },
  {
    "id": 756046,
    "name": "Węgrów",
    "lat": 52.39954,
    "lon": 22.01634
  },
  {
    "id": 3102456,
    "name": "Brzeg Dolny",
    "lat": 51.27299,
    "lon": 16.70815
  },
  {
    "id": 8426043,
    "name": "Siedlce",
    "lat": 54.34692,
    "lon": 18.61694
  },
  {
    "id": 3091523,
    "name": "Mogilno",
    "lat": 52.65806,
    "lon": 17.95578
  },
  {
    "id": 8426054,
    "name": "Zaspa-Rozstaje",
    "lat": 54.39672,
    "lon": 18.61299
  },
  {
    "id": 3081471,
    "name": "Wolin",
    "lat": 53.84214,
    "lon": 14.61465
  },
  {
    "id": 3084404,
    "name": "Strzelin",
    "lat": 50.78157,
    "lon": 17.06477
  },
  {
    "id": 8426053,
    "name": "Zaspa-Młyniec",
    "lat": 54.39127,
    "lon": 18.59848
  },
  {
    "id": 3091407,
    "name": "Mosina",
    "lat": 52.24543,
    "lon": 16.84709
  },
  {
    "id": 775224,
    "name": "Brwinów",
    "lat": 52.14269,
    "lon": 20.71697
  },
  {
    "id": 3104133,
    "name": "Aleksandrów Kujawski",
    "lat": 52.87659,
    "lon": 18.69345
  },
  {
    "id": 3102390,
    "name": "Brzeziny",
    "lat": 51.80023,
    "lon": 19.75144
  },
  {
    "id": 3081430,
    "name": "Wołów",
    "lat": 51.33656,
    "lon": 16.64429
  },
  {
    "id": 767374,
    "name": "Krynica-Zdrój",
    "lat": 49.42225,
    "lon": 20.95942
  },
  {
    "id": 3089392,
    "name": "Pasłęk",
    "lat": 54.0616,
    "lon": 19.65932
  },
  {
    "id": 3083103,
    "name": "Trzebnica",
    "lat": 51.31076,
    "lon": 17.06331
  },
  {
    "id": 775820,
    "name": "Błonie",
    "lat": 52.19849,
    "lon": 20.61709
  },
  {
    "id": 3094633,
    "name": "Krosno Odrzańskie",
    "lat": 52.05492,
    "lon": 15.09882
  },
  {
    "id": 757178,
    "name": "Szydłowiec",
    "lat": 51.22823,
    "lon": 20.86106
  },
  {
    "id": 3091253,
    "name": "Myślibórz",
    "lat": 52.92382,
    "lon": 14.86785
  },
  {
    "id": 3094831,
    "name": "Kozy",
    "lat": 49.84756,
    "lon": 19.14891
  },
  {
    "id": 756048,
    "name": "Węgorzewo",
    "lat": 54.21567,
    "lon": 21.7372
  },
  {
    "id": 770425,
    "name": "Janów Lubelski",
    "lat": 50.70695,
    "lon": 22.41039
  },
  {
    "id": 762201,
    "name": "Pińczów",
    "lat": 50.52052,
    "lon": 20.52649
  },
  {
    "id": 764917,
    "name": "Miechów",
    "lat": 50.35648,
    "lon": 20.02788
  },
  {
    "id": 3101145,
    "name": "Czarnków",
    "lat": 52.90214,
    "lon": 16.56413
  },
  {
    "id": 763783,
    "name": "Nowa Dęba",
    "lat": 50.42974,
    "lon": 21.75078
  },
  {
    "id": 3081350,
    "name": "Wronki",
    "lat": 52.71051,
    "lon": 16.38044
  },
  {
    "id": 3087691,
    "name": "Puck",
    "lat": 54.7179,
    "lon": 18.40841
  },
  {
    "id": 3081874,
    "name": "Wisła",
    "lat": 49.65629,
    "lon": 18.8591
  },
  {
    "id": 3091788,
    "name": "Milicz",
    "lat": 51.5277,
    "lon": 17.27137
  },
  {
    "id": 773569,
    "name": "Dąbrowa Tarnowska",
    "lat": 50.17462,
    "lon": 20.98633
  },
  {
    "id": 3100139,
    "name": "Drawsko Pomorskie",
    "lat": 53.53056,
    "lon": 15.80967
  },
  {
    "id": 756151,
    "name": "Warka",
    "lat": 51.7843,
    "lon": 21.19091
  },
  {
    "id": 3090613,
    "name": "Nowe Miasto Lubawskie",
    "lat": 53.42079,
    "lon": 19.59515
  },
  {
    "id": 3091983,
    "name": "Międzychód",
    "lat": 52.59882,
    "lon": 15.89696
  },
  {
    "id": 3095192,
    "name": "Koronowo",
    "lat": 53.3137,
    "lon": 17.93698
  },
  {
    "id": 3092080,
    "name": "Miastko",
    "lat": 54.00283,
    "lon": 16.98263
  },
  {
    "id": 3102444,
    "name": "Brzeszcze",
    "lat": 49.98203,
    "lon": 19.15157
  },
  {
    "id": 3102076,
    "name": "Bukowno",
    "lat": 50.26474,
    "lon": 19.45962
  },
  {
    "id": 3094934,
    "name": "Kowary",
    "lat": 50.79313,
    "lon": 15.83559
  },
  {
    "id": 3087072,
    "name": "Rogoźno",
    "lat": 52.75226,
    "lon": 16.99049
  },
  {
    "id": 3101426,
    "name": "Ciechocinek",
    "lat": 52.87908,
    "lon": 18.79505
  },
  {
    "id": 3083921,
    "name": "Syców",
    "lat": 51.30814,
    "lon": 17.71979
  },
  {
    "id": 771870,
    "name": "Góra Kalwaria",
    "lat": 51.97653,
    "lon": 21.21537
  },
  {
    "id": 3081699,
    "name": "Włoszczowa",
    "lat": 50.85256,
    "lon": 19.96593
  },
  {
    "id": 768785,
    "name": "Kolno",
    "lat": 53.41148,
    "lon": 21.92905
  },
  {
    "id": 3093158,
    "name": "Łobez",
    "lat": 53.63918,
    "lon": 15.62129
  },
  {
    "id": 764421,
    "name": "Mońki",
    "lat": 53.40496,
    "lon": 22.79791
  },
  {
    "id": 3100127,
    "name": "Drezdenko",
    "lat": 52.83831,
    "lon": 15.83079
  },
  {
    "id": 773148,
    "name": "Dobre Miasto",
    "lat": 53.98668,
    "lon": 20.39749
  },
  {
    "id": 768805,
    "name": "Kolbuszowa",
    "lat": 50.2441,
    "lon": 21.7761
  },
  {
    "id": 3101968,
    "name": "Bystrzyca Kłodzka",
    "lat": 50.30179,
    "lon": 16.64231
  },
  {
    "id": 775890,
    "name": "Biskupiec",
    "lat": 53.86467,
    "lon": 20.95692
  },
  {
    "id": 3083145,
    "name": "Trzebiatów",
    "lat": 54.06147,
    "lon": 15.26475
  },
  {
    "id": 769539,
    "name": "Karczew",
    "lat": 52.07655,
    "lon": 21.24962
  },
  {
    "id": 762643,
    "name": "Parczew",
    "lat": 51.64021,
    "lon": 22.90057
  },
  {
    "id": 3095856,
    "name": "Kokoszki",
    "lat": 54.35563,
    "lon": 18.49102
  },
  {
    "id": 3090158,
    "name": "Olesno",
    "lat": 50.87698,
    "lon": 18.42094
  },
  {
    "id": 3094303,
    "name": "Kudowa-Zdrój",
    "lat": 50.44297,
    "lon": 16.24397
  },
  {
    "id": 3084237,
    "name": "Sulęcin",
    "lat": 52.44429,
    "lon": 15.11676
  },
  {
    "id": 761546,
    "name": "Poniatowa",
    "lat": 51.17983,
    "lon": 22.13093
  },
  {
    "id": 3085656,
    "name": "Skwierzyna",
    "lat": 52.59914,
    "lon": 15.50652
  },
  {
    "id": 3096986,
    "name": "Wielki Kack",
    "lat": 54.46754,
    "lon": 18.4881
  },
  {
    "id": 3091293,
    "name": "Murowana Goślina",
    "lat": 52.57463,
    "lon": 17.00933
  },
  {
    "id": 3094490,
    "name": "Krzeszowice",
    "lat": 50.14248,
    "lon": 19.63223
  },
  {
    "id": 3084421,
    "name": "Strzelce Krajeńskie",
    "lat": 52.87726,
    "lon": 15.52978
  },
  {
    "id": 765430,
    "name": "Maków Mazowiecki",
    "lat": 52.86493,
    "lon": 21.10053
  },
  {
    "id": 3089583,
    "name": "Ozimek",
    "lat": 50.67944,
    "lon": 18.2137
  },
  {
    "id": 3089340,
    "name": "Pawłowice",
    "lat": 49.96127,
    "lon": 18.71778
  },
  {
    "id": 3103274,
    "name": "Blachownia",
    "lat": 50.78015,
    "lon": 18.96389
  },
  {
    "id": 764194,
    "name": "Nadarzyn",
    "lat": 52.09438,
    "lon": 20.80776
  },
  {
    "id": 3090502,
    "name": "Nowy Dwór Gdański",
    "lat": 54.21305,
    "lon": 19.11771
  },
  {
    "id": 3084300,
    "name": "Sucha Beskidzka",
    "lat": 49.74188,
    "lon": 19.59429
  },
  {
    "id": 3083616,
    "name": "Sztum",
    "lat": 53.92077,
    "lon": 19.03072
  },
  {
    "id": 3094832,
    "name": "Kożuchów",
    "lat": 51.74558,
    "lon": 15.59492
  },
  {
    "id": 3092638,
    "name": "Lwówek Śląski",
    "lat": 51.11074,
    "lon": 15.58582
  },
  {
    "id": 759852,
    "name": "Ryki",
    "lat": 51.62574,
    "lon": 21.93274
  },
  {
    "id": 756280,
    "name": "Ustrzyki Dolne",
    "lat": 49.4304,
    "lon": 22.59381
  },
  {
    "id": 773941,
    "name": "Czarna Białostocka",
    "lat": 53.30509,
    "lon": 23.28146
  },
  {
    "id": 3084288,
    "name": "Suchanino",
    "lat": 54.35493,
    "lon": 18.60406
  },
  {
    "id": 3094585,
    "name": "Kruszwica",
    "lat": 52.67562,
    "lon": 18.33131
  },
  {
    "id": 756120,
    "name": "Wasilków",
    "lat": 53.19909,
    "lon": 23.20776
  },
  {
    "id": 763066,
    "name": "Orneta",
    "lat": 54.11483,
    "lon": 20.13328
  },
  {
    "id": 3089065,
    "name": "Pieszyce",
    "lat": 50.71287,
    "lon": 16.58232
  },
  {
    "id": 3100984,
    "name": "Czersk",
    "lat": 53.79589,
    "lon": 17.97647
  },
  {
    "id": 763903,
    "name": "Niepołomice",
    "lat": 50.04066,
    "lon": 20.22257
  },
  {
    "id": 3080226,
    "name": "Ziębice",
    "lat": 50.60122,
    "lon": 17.04065
  },
  {
    "id": 3093028,
    "name": "Lubawa",
    "lat": 53.50428,
    "lon": 19.74966
  },
  {
    "id": 3086153,
    "name": "Sępólno Krajeńskie",
    "lat": 53.45198,
    "lon": 17.53169
  },
  {
    "id": 3083611,
    "name": "Szubin",
    "lat": 53.00967,
    "lon": 17.74
  },
  {
    "id": 754479,
    "name": "Wysokie Mazowieckie",
    "lat": 52.91661,
    "lon": 22.51712
  },
  {
    "id": 757886,
    "name": "Suchedniów",
    "lat": 51.04776,
    "lon": 20.82922
  },
  {
    "id": 3097688,
    "name": "Janikowo",
    "lat": 52.75328,
    "lon": 18.11328
  },
  {
    "id": 3081495,
    "name": "Wolbrom",
    "lat": 50.37957,
    "lon": 19.75831
  },
  {
    "id": 3087640,
    "name": "Puszczykowo",
    "lat": 52.2857,
    "lon": 16.84925
  },
  {
    "id": 3101812,
    "name": "Chełmek",
    "lat": 50.10163,
    "lon": 19.24801
  },
  {
    "id": 3096765,
    "name": "Kamień Pomorski",
    "lat": 53.96849,
    "lon": 14.77262
  },
  {
    "id": 3079942,
    "name": "Żuromin",
    "lat": 53.06611,
    "lon": 19.90894
  },
  {
    "id": 3079897,
    "name": "Żychlin",
    "lat": 52.24404,
    "lon": 19.62613
  },
  {
    "id": 3090076,
    "name": "Opalenica",
    "lat": 52.30887,
    "lon": 16.41278
  },
  {
    "id": 3095058,
    "name": "Kostrzyn",
    "lat": 52.39847,
    "lon": 17.22811
  },
  {
    "id": 758282,
    "name": "Stary Sącz",
    "lat": 49.56364,
    "lon": 20.63496
  },
  {
    "id": 3081636,
    "name": "Wojkowice",
    "lat": 50.36509,
    "lon": 19.03652
  },
  {
    "id": 3085047,
    "name": "Środa Śląska",
    "lat": 51.16406,
    "lon": 16.59508
  },
  {
    "id": 760684,
    "name": "Radzymin",
    "lat": 52.41592,
    "lon": 21.18415
  },
  {
    "id": 763107,
    "name": "Opole Lubelskie",
    "lat": 51.14775,
    "lon": 21.96897
  },
  {
    "id": 757957,
    "name": "Strzyżów",
    "lat": 49.87074,
    "lon": 21.79413
  },
  {
    "id": 3088273,
    "name": "Poręba",
    "lat": 50.48831,
    "lon": 19.33903
  },
  {
    "id": 3082176,
    "name": "Wieruszów",
    "lat": 51.29488,
    "lon": 18.15547
  },
  {
    "id": 3088477,
    "name": "Połczyn-Zdrój",
    "lat": 53.76424,
    "lon": 16.09574
  },
  {
    "id": 3088749,
    "name": "Pobiedziska",
    "lat": 52.47753,
    "lon": 17.28767
  },
  {
    "id": 3096911,
    "name": "Kalety",
    "lat": 50.5627,
    "lon": 18.8926
  },
  {
    "id": 3098333,
    "name": "Grodków",
    "lat": 50.69836,
    "lon": 17.38449
  },
  {
    "id": 3081604,
    "name": "Wola",
    "lat": 50.01745,
    "lon": 19.12333
  },
  {
    "id": 3088161,
    "name": "Prabuty",
    "lat": 53.755,
    "lon": 19.20547
  },
  {
    "id": 8426036,
    "name": "Nowy Port",
    "lat": 54.40161,
    "lon": 18.66767
  },
  {
    "id": 3097420,
    "name": "Jastrowie",
    "lat": 53.42048,
    "lon": 16.81756
  },
  {
    "id": 3090401,
    "name": "Oborniki Śląskie",
    "lat": 51.30137,
    "lon": 16.91465
  },
  {
    "id": 3080538,
    "name": "Zawadzkie",
    "lat": 50.60503,
    "lon": 18.48467
  },
  {
    "id": 3089282,
    "name": "Pelplin",
    "lat": 53.92834,
    "lon": 18.6977
  },
  {
    "id": 762769,
    "name": "Ożarów Mazowiecki",
    "lat": 52.21039,
    "lon": 20.79716
  },
  {
    "id": 3101722,
    "name": "Chocianów",
    "lat": 51.41867,
    "lon": 15.90172
  },
  {
    "id": 3093439,
    "name": "Lidzbark",
    "lat": 53.26283,
    "lon": 19.82663
  },
  {
    "id": 761652,
    "name": "Połaniec",
    "lat": 50.43324,
    "lon": 21.2812
  },
  {
    "id": 3088135,
    "name": "Praszka",
    "lat": 51.05375,
    "lon": 18.45317
  },
  {
    "id": 3089566,
    "name": "Paczków",
    "lat": 50.46395,
    "lon": 17.00658
  },
  {
    "id": 3097886,
    "name": "Imielin",
    "lat": 50.14534,
    "lon": 19.18599
  },
  {
    "id": 753004,
    "name": "Zwoleń",
    "lat": 51.35542,
    "lon": 21.58768
  },
  {
    "id": 771729,
    "name": "Gorzyce",
    "lat": 50.6672,
    "lon": 21.84013
  },
  {
    "id": 3080295,
    "name": "Zelów",
    "lat": 51.46452,
    "lon": 19.21972
  },
  {
    "id": 3089924,
    "name": "Osiek",
    "lat": 49.95067,
    "lon": 19.26444
  },
  {
    "id": 3088710,
    "name": "Poddębice",
    "lat": 51.89344,
    "lon": 18.9573
  },
  {
    "id": 3083077,
    "name": "Trzemeszno",
    "lat": 52.56139,
    "lon": 17.82311
  },
  {
    "id": 775086,
    "name": "Brzozów",
    "lat": 49.69501,
    "lon": 22.01926
  },
  {
    "id": 3081826,
    "name": "Witkowo",
    "lat": 52.43964,
    "lon": 17.77264
  },
  {
    "id": 3088759,
    "name": "Pniewy",
    "lat": 52.50943,
    "lon": 16.25668
  },
  {
    "id": 3103856,
    "name": "Barcin",
    "lat": 52.86607,
    "lon": 17.94625
  },
  {
    "id": 763165,
    "name": "Olsztynek",
    "lat": 53.58374,
    "lon": 20.28471
  },
  {
    "id": 764276,
    "name": "Mszana Dolna",
    "lat": 49.67432,
    "lon": 20.07992
  },
  {
    "id": 756919,
    "name": "Tłuszcz",
    "lat": 52.43058,
    "lon": 21.43561
  },
  {
    "id": 3102648,
    "name": "Brętowo",
    "lat": 54.37009,
    "lon": 18.57105
  },
  {
    "id": 764100,
    "name": "Nasielsk",
    "lat": 52.58887,
    "lon": 20.80553
  },
  {
    "id": 3101675,
    "name": "Chojna",
    "lat": 52.96389,
    "lon": 14.42797
  },
  {
    "id": 776114,
    "name": "Białobrzegi",
    "lat": 51.64695,
    "lon": 20.95041
  },
  {
    "id": 776384,
    "name": "Barczewo",
    "lat": 53.83055,
    "lon": 20.69112
  },
  {
    "id": 3099120,
    "name": "Gniewkowo",
    "lat": 52.89461,
    "lon": 18.40785
  },
  {
    "id": 765976,
    "name": "Łosice",
    "lat": 52.21129,
    "lon": 22.71801
  },
  {
    "id": 3095194,
    "name": "Kórnik",
    "lat": 52.24772,
    "lon": 17.08949
  },
  {
    "id": 3080495,
    "name": "Zbąszyń",
    "lat": 52.2509,
    "lon": 15.9252
  },
  {
    "id": 3093768,
    "name": "Łazy",
    "lat": 50.42769,
    "lon": 19.39465
  },
  {
    "id": 3082945,
    "name": "Tuszyn",
    "lat": 51.60949,
    "lon": 19.53009
  },
  {
    "id": 760607,
    "name": "Raszyn",
    "lat": 52.15603,
    "lon": 20.9226
  },
  {
    "id": 759504,
    "name": "Sędziszów Małopolski",
    "lat": 50.07069,
    "lon": 21.70062
  },
  {
    "id": 3085970,
    "name": "Sierakowice",
    "lat": 54.3461,
    "lon": 17.89252
  },
  {
    "id": 3102961,
    "name": "Bolszewo",
    "lat": 54.61801,
    "lon": 18.17585
  },
  {
    "id": 3092643,
    "name": "Luzino",
    "lat": 54.56604,
    "lon": 18.10907
  },
  {
    "id": 3083677,
    "name": "Szklarska Poręba",
    "lat": 50.82567,
    "lon": 15.52274
  },
  {
    "id": 3088496,
    "name": "Polanica-Zdrój",
    "lat": 50.40373,
    "lon": 16.51271
  },
  {
    "id": 776252,
    "name": "Bełżyce",
    "lat": 51.17415,
    "lon": 22.28027
  },
  {
    "id": 3085826,
    "name": "Skarszewy",
    "lat": 54.06911,
    "lon": 18.44416
  },
  {
    "id": 3101204,
    "name": "Czaplinek",
    "lat": 53.55775,
    "lon": 16.23333
  },
  {
    "id": 3093136,
    "name": "Łodygowice",
    "lat": 49.72992,
    "lon": 19.13939
  },
  {
    "id": 3085252,
    "name": "Sobótka",
    "lat": 50.89992,
    "lon": 16.74441
  },
  {
    "id": 3085616,
    "name": "Sławków",
    "lat": 50.29943,
    "lon": 19.38967
  },
  {
    "id": 3099146,
    "name": "Głuszyca",
    "lat": 50.68743,
    "lon": 16.37173
  },
  {
    "id": 760632,
    "name": "Rakszawa",
    "lat": 50.16051,
    "lon": 22.23907
  },
  {
    "id": 3098199,
    "name": "Gryfów Śląski",
    "lat": 51.03081,
    "lon": 15.42017
  },
  {
    "id": 3082938,
    "name": "Twardogóra",
    "lat": 51.36487,
    "lon": 17.46878
  },
  {
    "id": 3081818,
    "name": "Witnica",
    "lat": 52.67318,
    "lon": 14.89765
  },
  {
    "id": 763121,
    "name": "Opatów",
    "lat": 50.80058,
    "lon": 21.42538
  },
  {
    "id": 759507,
    "name": "Sędziszów",
    "lat": 50.5659,
    "lon": 20.05563
  },
  {
    "id": 760055,
    "name": "Rudnik nad Sanem",
    "lat": 50.44152,
    "lon": 22.24856
  },
  {
    "id": 3099127,
    "name": "Gniew",
    "lat": 53.83602,
    "lon": 18.8231
  },
  {
    "id": 3089025,
    "name": "Piława Górna",
    "lat": 50.68357,
    "lon": 16.74359
  },
  {
    "id": 3089553,
    "name": "Pajęczno",
    "lat": 51.14449,
    "lon": 18.99612
  },
  {
    "id": 3097339,
    "name": "Jaworze",
    "lat": 49.79351,
    "lon": 18.9479
  },
  {
    "id": 3080652,
    "name": "Żarów",
    "lat": 50.94116,
    "lon": 16.49466
  },
  {
    "id": 3096079,
    "name": "Kłodawa",
    "lat": 52.25447,
    "lon": 18.91352
  },
  {
    "id": 756634,
    "name": "Tuchów",
    "lat": 49.89485,
    "lon": 21.05407
  },
  {
    "id": 3094852,
    "name": "Koźmin Wielkopolski",
    "lat": 51.82712,
    "lon": 17.45391
  },
  {
    "id": 3086134,
    "name": "Sianów",
    "lat": 54.22646,
    "lon": 16.29127
  },
  {
    "id": 770706,
    "name": "Jabłonna",
    "lat": 52.37885,
    "lon": 20.91745
  },
  {
    "id": 3080058,
    "name": "Żmigród",
    "lat": 51.46672,
    "lon": 16.90564
  },
  {
    "id": 3089152,
    "name": "Piechowice",
    "lat": 50.84963,
    "lon": 15.59887
  },
  {
    "id": 3081942,
    "name": "Wilkowice",
    "lat": 49.76282,
    "lon": 19.08973
  },
  {
    "id": 3079969,
    "name": "Żukowo",
    "lat": 54.3422,
    "lon": 18.36476
  },
  {
    "id": 3086435,
    "name": "Rzepin",
    "lat": 52.3464,
    "lon": 14.83227
  },
  {
    "id": 3087954,
    "name": "Przemków",
    "lat": 51.5253,
    "lon": 15.79441
  },
  {
    "id": 766073,
    "name": "Łochów",
    "lat": 52.53076,
    "lon": 21.68158
  },
  {
    "id": 3093027,
    "name": "Lubawka",
    "lat": 50.70456,
    "lon": 16.00026
  },
  {
    "id": 3084194,
    "name": "Sułkowice",
    "lat": 49.84053,
    "lon": 19.80097
  },
  {
    "id": 3084230,
    "name": "Sulejów",
    "lat": 51.35436,
    "lon": 19.88538
  },
  {
    "id": 3099095,
    "name": "Goczałkowice Zdrój",
    "lat": 49.94454,
    "lon": 18.96927
  },
  {
    "id": 3095330,
    "name": "Koniecpol",
    "lat": 50.77468,
    "lon": 19.68896
  },
  {
    "id": 3090951,
    "name": "Niemodlin",
    "lat": 50.642,
    "lon": 17.61932
  },
  {
    "id": 3096240,
    "name": "Kietrz",
    "lat": 50.08042,
    "lon": 18.00432
  },
  {
    "id": 3094408,
    "name": "Krzyż Wielkopolski",
    "lat": 52.88097,
    "lon": 16.01116
  },
  {
    "id": 3094370,
    "name": "Ksawerów",
    "lat": 51.68288,
    "lon": 19.4028
  },
  {
    "id": 764269,
    "name": "Mszczonów",
    "lat": 51.97415,
    "lon": 20.52083
  },
  {
    "id": 763765,
    "name": "Nowa Sarzyna",
    "lat": 50.32086,
    "lon": 22.34456
  },
  {
    "id": 3099923,
    "name": "Działoszyn",
    "lat": 51.11699,
    "lon": 18.86524
  },
  {
    "id": 3081488,
    "name": "Wołczyn",
    "lat": 51.01845,
    "lon": 18.04994
  },
  {
    "id": 3080508,
    "name": "Zawoja",
    "lat": 49.64396,
    "lon": 19.54227
  },
  {
    "id": 3084515,
    "name": "Stronie Śląskie",
    "lat": 50.29554,
    "lon": 16.87397
  },
  {
    "id": 761008,
    "name": "Przysucha",
    "lat": 51.35858,
    "lon": 20.62889
  },
  {
    "id": 773176,
    "name": "Dobczyce",
    "lat": 49.88109,
    "lon": 20.08936
  },
  {
    "id": 761258,
    "name": "Proszowice",
    "lat": 50.19275,
    "lon": 20.28909
  },
  {
    "id": 3094016,
    "name": "Lądek-Zdrój",
    "lat": 50.34371,
    "lon": 16.87946
  },
  {
    "id": 3090660,
    "name": "Nowe",
    "lat": 53.64906,
    "lon": 18.72716
  },
  {
    "id": 3102138,
    "name": "Buk",
    "lat": 52.35532,
    "lon": 16.51958
  },
  {
    "id": 768136,
    "name": "Korczyna",
    "lat": 49.71555,
    "lon": 21.80941
  },
  {
    "id": 3085974,
    "name": "Sieraków",
    "lat": 52.65134,
    "lon": 16.08047
  },
  {
    "id": 3099048,
    "name": "Gogolin",
    "lat": 50.49222,
    "lon": 18.01994
  },
  {
    "id": 3082319,
    "name": "Wieleń",
    "lat": 52.89461,
    "lon": 16.17136
  },
  {
    "id": 772772,
    "name": "Dynów",
    "lat": 49.81506,
    "lon": 22.23388
  },
  {
    "id": 3092186,
    "name": "Matarnia",
    "lat": 54.38563,
    "lon": 18.47282
  },
  {
    "id": 773593,
    "name": "Dąbrowa Białostocka",
    "lat": 53.65364,
    "lon": 23.34792
  },
  {
    "id": 3101161,
    "name": "Czarne",
    "lat": 53.6842,
    "lon": 16.93834
  },
  {
    "id": 757461,
    "name": "Szczawnica",
    "lat": 49.42437,
    "lon": 20.48487
  },
  {
    "id": 3093501,
    "name": "Lewin Brzeski",
    "lat": 50.7487,
    "lon": 17.61688
  },
  {
    "id": 756938,
    "name": "Terespol",
    "lat": 52.0755,
    "lon": 23.61614
  },
  {
    "id": 763028,
    "name": "Orzysz",
    "lat": 53.80967,
    "lon": 21.94811
  },
  {
    "id": 771313,
    "name": "Grybów",
    "lat": 49.62439,
    "lon": 20.94797
  },
  {
    "id": 3103588,
    "name": "Białe Błota",
    "lat": 53.09516,
    "lon": 17.91621
  },
  {
    "id": 3082364,
    "name": "Więcbork",
    "lat": 53.35384,
    "lon": 17.49064
  },
  {
    "id": 3084396,
    "name": "Strzelno",
    "lat": 52.62789,
    "lon": 18.17246
  },
  {
    "id": 758393,
    "name": "Stąporków",
    "lat": 51.13762,
    "lon": 20.57173
  },
  {
    "id": 3096002,
    "name": "Klucze",
    "lat": 50.33565,
    "lon": 19.56236
  },
  {
    "id": 759503,
    "name": "Sejny",
    "lat": 54.10802,
    "lon": 23.34698
  },
  {
    "id": 3086206,
    "name": "Ścinawa",
    "lat": 51.41626,
    "lon": 16.4251
  },
  {
    "id": 3088846,
    "name": "Plewiska",
    "lat": 52.36706,
    "lon": 16.80985
  },
  {
    "id": 3083752,
    "name": "Szczyrk",
    "lat": 49.71724,
    "lon": 19.03183
  },
  {
    "id": 3102652,
    "name": "Brenna",
    "lat": 49.72576,
    "lon": 18.90249
  },
  {
    "id": 3096630,
    "name": "Karlino",
    "lat": 54.03515,
    "lon": 15.87739
  },
  {
    "id": 775717,
    "name": "Boguchwała",
    "lat": 49.98473,
    "lon": 21.94528
  },
  {
    "id": 771348,
    "name": "Grudki",
    "lat": 53.09488,
    "lon": 23.66848
  },
  {
    "id": 3089098,
    "name": "Pieńsk",
    "lat": 51.249,
    "lon": 15.04685
  },
  {
    "id": 762106,
    "name": "Piwniczna-Zdrój",
    "lat": 49.44056,
    "lon": 20.71423
  },
  {
    "id": 3089547,
    "name": "Pakość",
    "lat": 52.80178,
    "lon": 18.0853
  },
  {
    "id": 3087427,
    "name": "Radziejów",
    "lat": 52.62481,
    "lon": 18.52771
  },
  {
    "id": 3099209,
    "name": "Głogówek",
    "lat": 50.35355,
    "lon": 17.86405
  },
  {
    "id": 3092517,
    "name": "Maków Podhalański",
    "lat": 49.73008,
    "lon": 19.67711
  },
  {
    "id": 766137,
    "name": "Lipsko",
    "lat": 51.15954,
    "lon": 21.64933
  },
  {
    "id": 766452,
    "name": "Lesko",
    "lat": 49.4701,
    "lon": 22.33042
  },
  {
    "id": 769346,
    "name": "Kazimierza Wielka",
    "lat": 50.26564,
    "lon": 20.49358
  },
  {
    "id": 3101788,
    "name": "Chełm Śląski",
    "lat": 50.10825,
    "lon": 19.19552
  },
  {
    "id": 770169,
    "name": "Jedlicze",
    "lat": 49.71749,
    "lon": 21.64886
  },
  {
    "id": 3084647,
    "name": "Stęszew",
    "lat": 52.2837,
    "lon": 16.70085
  },
  {
    "id": 3084143,
    "name": "Susz",
    "lat": 53.71743,
    "lon": 19.33645
  },
  {
    "id": 3083835,
    "name": "Szczawno-Zdrój",
    "lat": 50.80352,
    "lon": 16.25655
  },
  {
    "id": 3101220,
    "name": "Czaniec",
    "lat": 49.85071,
    "lon": 19.25354
  },
  {
    "id": 3085391,
    "name": "Śmigiel",
    "lat": 52.01339,
    "lon": 16.52704
  },
  {
    "id": 3099842,
    "name": "Dzierzgoń",
    "lat": 53.92196,
    "lon": 19.34705
  },
  {
    "id": 3101691,
    "name": "Chocznia",
    "lat": 49.87417,
    "lon": 19.45438
  },
  {
    "id": 3091961,
    "name": "Międzyzdroje",
    "lat": 53.92921,
    "lon": 14.45097
  },
  {
    "id": 3094164,
    "name": "Kuźnia Raciborska",
    "lat": 50.20058,
    "lon": 18.31146
  },
  {
    "id": 760727,
    "name": "Radymno",
    "lat": 49.9472,
    "lon": 22.82375
  },
  {
    "id": 772086,
    "name": "Głogów Małopolski",
    "lat": 50.15122,
    "lon": 21.96287
  },
  {
    "id": 774393,
    "name": "Choroszcz",
    "lat": 53.14332,
    "lon": 22.98889
  },
  {
    "id": 3100971,
    "name": "Czerwonak",
    "lat": 52.46459,
    "lon": 16.98169
  },
  {
    "id": 3096444,
    "name": "Kąty Wrocławskie",
    "lat": 51.03098,
    "lon": 16.76767
  },
  {
    "id": 3085925,
    "name": "Siewierz",
    "lat": 50.46657,
    "lon": 19.23028
  },
  {
    "id": 766369,
    "name": "Lesznowola",
    "lat": 52.09095,
    "lon": 20.93479
  },
  {
    "id": 770045,
    "name": "Jeżowe",
    "lat": 50.37486,
    "lon": 22.12749
  },
  {
    "id": 3102969,
    "name": "Bolków",
    "lat": 50.92203,
    "lon": 16.10111
  },
  {
    "id": 774730,
    "name": "Bychawa",
    "lat": 51.01608,
    "lon": 22.53296
  },
  {
    "id": 3089987,
    "name": "Ornontowice",
    "lat": 50.19377,
    "lon": 18.75435
  },
  {
    "id": 3098686,
    "name": "Gościcino",
    "lat": 54.60459,
    "lon": 18.15491
  },
  {
    "id": 3084460,
    "name": "Stryszawa",
    "lat": 49.71327,
    "lon": 19.52185
  },
  {
    "id": 3081158,
    "name": "Wyrzysk",
    "lat": 53.153,
    "lon": 17.26802
  },
  {
    "id": 757452,
    "name": "Szczebrzeszyn",
    "lat": 50.69499,
    "lon": 22.97954
  },
  {
    "id": 3100489,
    "name": "Debrzno",
    "lat": 53.53817,
    "lon": 17.23643
  },
  {
    "id": 3097328,
    "name": "Jaworzyna Śląska",
    "lat": 50.9134,
    "lon": 16.43241
  },
  {
    "id": 3083749,
    "name": "Szczytna",
    "lat": 50.41343,
    "lon": 16.44743
  },
  {
    "id": 760488,
    "name": "Reszel",
    "lat": 54.05042,
    "lon": 21.14585
  },
  {
    "id": 765328,
    "name": "Małkinia Górna",
    "lat": 52.6922,
    "lon": 22.02836
  },
  {
    "id": 3097107,
    "name": "Jordanów",
    "lat": 49.64935,
    "lon": 19.82981
  },
  {
    "id": 763260,
    "name": "Oleszyce",
    "lat": 50.1675,
    "lon": 23.03481
  },
  {
    "id": 3089642,
    "name": "Otmuchów",
    "lat": 50.46627,
    "lon": 17.17348
  },
  {
    "id": 3092276,
    "name": "Markłowice",
    "lat": 50.01695,
    "lon": 18.52098
  },
  {
    "id": 753130,
    "name": "Żołynia",
    "lat": 50.162,
    "lon": 22.30825
  },
  {
    "id": 3095396,
    "name": "Komorniki",
    "lat": 52.3387,
    "lon": 16.81063
  },
  {
    "id": 3084449,
    "name": "Strzałkowo",
    "lat": 52.30701,
    "lon": 17.81811
  },
  {
    "id": 768315,
    "name": "Komorów",
    "lat": 52.1456,
    "lon": 20.81566
  },
  {
    "id": 754195,
    "name": "Zagórz",
    "lat": 49.51457,
    "lon": 22.26706
  },
  {
    "id": 770792,
    "name": "Iłża",
    "lat": 51.16313,
    "lon": 21.23979
  },
  {
    "id": 3090553,
    "name": "Nowogród Bobrzański",
    "lat": 51.79856,
    "lon": 15.2352
  },
  {
    "id": 3097594,
    "name": "Janowiec Wielkopolski",
    "lat": 52.75583,
    "lon": 17.48981
  },
  {
    "id": 3091263,
    "name": "Mysłakowice",
    "lat": 50.84123,
    "lon": 15.77894
  },
  {
    "id": 3101053,
    "name": "Czempiń",
    "lat": 52.14404,
    "lon": 16.76408
  },
  {
    "id": 8426044,
    "name": "Strzyża",
    "lat": 54.38648,
    "lon": 18.58647
  },
  {
    "id": 3080494,
    "name": "Zbąszynek",
    "lat": 52.24315,
    "lon": 15.81654
  },
  {
    "id": 3103364,
    "name": "Bierutów",
    "lat": 51.12443,
    "lon": 17.54607
  },
  {
    "id": 3097301,
    "name": "Jedlina-Zdrój",
    "lat": 50.72005,
    "lon": 16.34645
  },
  {
    "id": 3080369,
    "name": "Zebrzydowice",
    "lat": 49.87793,
    "lon": 18.61127
  },
  {
    "id": 765804,
    "name": "Ludwin",
    "lat": 51.34605,
    "lon": 22.90581
  },
  {
    "id": 3088977,
    "name": "Piotrków Kujawski",
    "lat": 52.55111,
    "lon": 18.49905
  },
  {
    "id": 764241,
    "name": "Muszyna",
    "lat": 49.35661,
    "lon": 20.89718
  },
  {
    "id": 3082192,
    "name": "Wieprz",
    "lat": 49.89093,
    "lon": 19.35688
  },
  {
    "id": 3094525,
    "name": "Krzemieniewo",
    "lat": 51.85905,
    "lon": 16.83354
  },
  {
    "id": 3096576,
    "name": "Karpacz",
    "lat": 50.77669,
    "lon": 15.75594
  },
  {
    "id": 770661,
    "name": "Jadowniki",
    "lat": 49.95884,
    "lon": 20.64434
  },
  {
    "id": 3090597,
    "name": "Nowe Skalmierzyce",
    "lat": 51.71038,
    "lon": 17.99337
  },
  {
    "id": 3090315,
    "name": "Odolanów",
    "lat": 51.57419,
    "lon": 17.67434
  },
  {
    "id": 774207,
    "name": "Ciechanowiec",
    "lat": 52.67828,
    "lon": 22.49815
  },
  {
    "id": 3089310,
    "name": "Pcim",
    "lat": 49.75166,
    "lon": 19.97108
  },
  {
    "id": 771779,
    "name": "Górowo Iławeckie",
    "lat": 54.28559,
    "lon": 20.48886
  },
  {
    "id": 3097865,
    "name": "Istebna",
    "lat": 49.56319,
    "lon": 18.90567
  },
  {
    "id": 766757,
    "name": "Łaskarzew",
    "lat": 51.78993,
    "lon": 21.59122
  },
  {
    "id": 3099992,
    "name": "Duszniki-Zdrój",
    "lat": 50.40327,
    "lon": 16.39091
  },
  {
    "id": 3097472,
    "name": "Jasienica",
    "lat": 49.81312,
    "lon": 18.92155
  },
  {
    "id": 3102162,
    "name": "Budzyń",
    "lat": 52.88954,
    "lon": 16.98812
  },
  {
    "id": 3084195,
    "name": "Sułkowice",
    "lat": 49.81932,
    "lon": 19.35988
  },
  {
    "id": 3080590,
    "name": "Zator",
    "lat": 49.99604,
    "lon": 19.43799
  },
  {
    "id": 3101117,
    "name": "Czarny Bór",
    "lat": 50.77083,
    "lon": 16.1305
  },
  {
    "id": 3097823,
    "name": "Jabłonka",
    "lat": 49.47968,
    "lon": 19.6937
  },
  {
    "id": 3087256,
    "name": "Rędziny",
    "lat": 50.85922,
    "lon": 19.2162
  },
  {
    "id": 3090099,
    "name": "Olszyna",
    "lat": 51.0671,
    "lon": 15.37228
  },
  {
    "id": 770730,
    "name": "Jabłoń Dąbrowa",
    "lat": 52.91037,
    "lon": 22.69665
  },
  {
    "id": 3102488,
    "name": "Brusy",
    "lat": 53.88446,
    "lon": 17.71786
  },
  {
    "id": 760166,
    "name": "Ruciane-Nida",
    "lat": 53.64161,
    "lon": 21.53964
  },
  {
    "id": 3096385,
    "name": "Kcynia",
    "lat": 52.99192,
    "lon": 17.4883
  },
  {
    "id": 3095958,
    "name": "Kobiór",
    "lat": 50.06089,
    "lon": 18.93468
  },
  {
    "id": 753056,
    "name": "Żurawica",
    "lat": 49.82348,
    "lon": 22.78925
  },
  {
    "id": 3102058,
    "name": "Bulowice",
    "lat": 49.8765,
    "lon": 19.28873
  },
  {
    "id": 3081060,
    "name": "Zabierzów",
    "lat": 50.11425,
    "lon": 19.79788
  },
  {
    "id": 762774,
    "name": "Ożarów",
    "lat": 50.88798,
    "lon": 21.66658
  },
  {
    "id": 760844,
    "name": "Raciąż",
    "lat": 52.78152,
    "lon": 20.1177
  },
  {
    "id": 3088931,
    "name": "Pisarzowice",
    "lat": 49.88363,
    "lon": 19.14565
  },
  {
    "id": 3093589,
    "name": "Leśna",
    "lat": 51.02431,
    "lon": 15.26413
  },
  {
    "id": 3094638,
    "name": "Krośniewice",
    "lat": 52.25592,
    "lon": 19.17037
  },
  {
    "id": 758887,
    "name": "Słopnice",
    "lat": 49.68496,
    "lon": 20.34325
  },
  {
    "id": 3085565,
    "name": "Śliwice",
    "lat": 53.70875,
    "lon": 18.1737
  },
  {
    "id": 776053,
    "name": "Biecz",
    "lat": 49.73596,
    "lon": 21.26301
  },
  {
    "id": 3087431,
    "name": "Radziechowy",
    "lat": 49.64651,
    "lon": 19.13115
  },
  {
    "id": 762203,
    "name": "Pilzno",
    "lat": 49.97883,
    "lon": 21.29228
  },
  {
    "id": 757758,
    "name": "Supraśl",
    "lat": 53.20526,
    "lon": 23.33934
  },
  {
    "id": 3102447,
    "name": "Brześć Kujawski",
    "lat": 52.60532,
    "lon": 18.90173
  },
  {
    "id": 768116,
    "name": "Korsze",
    "lat": 54.17002,
    "lon": 21.13915
  },
  {
    "id": 3100283,
    "name": "Dobrzeń Wielki",
    "lat": 50.76844,
    "lon": 17.84652
  },
  {
    "id": 3095926,
    "name": "Kobylnica",
    "lat": 54.43975,
    "lon": 16.99782
  },
  {
    "id": 772270,
    "name": "Gdów",
    "lat": 49.90818,
    "lon": 20.19879
  },
  {
    "id": 3080411,
    "name": "Zduny",
    "lat": 51.6458,
    "lon": 17.37694
  },
  {
    "id": 3084055,
    "name": "Świeradów-Zdrój",
    "lat": 50.9092,
    "lon": 15.34309
  },
  {
    "id": 3081403,
    "name": "Wożniki",
    "lat": 50.58934,
    "lon": 19.05991
  },
  {
    "id": 770008,
    "name": "Józefosław",
    "lat": 52.1005,
    "lon": 21.04629
  },
  {
    "id": 3091901,
    "name": "Mieroszów",
    "lat": 50.66589,
    "lon": 16.18883
  },
  {
    "id": 3094513,
    "name": "Krzepice",
    "lat": 50.97059,
    "lon": 18.72886
  },
  {
    "id": 760516,
    "name": "Rejowiec Fabryczny",
    "lat": 51.11414,
    "lon": 23.24724
  },
  {
    "id": 3095110,
    "name": "Koszęcin",
    "lat": 50.63411,
    "lon": 18.8413
  },
  {
    "id": 3090285,
    "name": "Ogrodzieniec",
    "lat": 50.45177,
    "lon": 19.51987
  },
  {
    "id": 3094052,
    "name": "Łabiszyn",
    "lat": 52.9521,
    "lon": 17.91971
  },
  {
    "id": 3093433,
    "name": "Ligota",
    "lat": 49.89856,
    "lon": 18.9509
  },
  {
    "id": 3091743,
    "name": "Milówka",
    "lat": 49.5554,
    "lon": 19.09072
  },
  {
    "id": 3096852,
    "name": "Kalwaria Zebrzydowska",
    "lat": 49.86759,
    "lon": 19.6772
  },
  {
    "id": 3088281,
    "name": "Poraj",
    "lat": 50.67797,
    "lon": 19.21509
  },
  {
    "id": 3103656,
    "name": "Bestwina",
    "lat": 49.89712,
    "lon": 19.05776
  },
  {
    "id": 3101947,
    "name": "Bytom Odrzański",
    "lat": 51.73062,
    "lon": 15.82362
  },
  {
    "id": 3090470,
    "name": "Nowy Staw",
    "lat": 54.13609,
    "lon": 19.00909
  },
  {
    "id": 3097480,
    "name": "Jasień",
    "lat": 51.75142,
    "lon": 15.01419
  },
  {
    "id": 3098949,
    "name": "Golina",
    "lat": 52.24315,
    "lon": 18.09268
  },
  {
    "id": 3101415,
    "name": "Cięcina",
    "lat": 49.6022,
    "lon": 19.14102
  },
  {
    "id": 3084258,
    "name": "Suchy Las",
    "lat": 52.47308,
    "lon": 16.87745
  },
  {
    "id": 3103179,
    "name": "Bobolice",
    "lat": 53.95508,
    "lon": 16.58893
  },
  {
    "id": 3080533,
    "name": "Zawidów",
    "lat": 51.02546,
    "lon": 15.06213
  },
  {
    "id": 3080674,
    "name": "Żarki",
    "lat": 50.62518,
    "lon": 19.36357
  },
  {
    "id": 3093263,
    "name": "Lipowa",
    "lat": 49.67574,
    "lon": 19.09398
  },
  {
    "id": 3087195,
    "name": "Resko",
    "lat": 53.77307,
    "lon": 15.40607
  },
  {
    "id": 3084213,
    "name": "Borne Sulinowo",
    "lat": 53.57661,
    "lon": 16.53395
  },
  {
    "id": 3091351,
    "name": "Mrocza",
    "lat": 53.24313,
    "lon": 17.60405
  },
  {
    "id": 758905,
    "name": "Słomniki",
    "lat": 50.24012,
    "lon": 20.08224
  },
  {
    "id": 3089048,
    "name": "Pietrzykowice",
    "lat": 49.69634,
    "lon": 19.1599
  },
  {
    "id": 770918,
    "name": "Humniska",
    "lat": 49.67507,
    "lon": 22.05368
  },
  {
    "id": 3083015,
    "name": "Tułowice",
    "lat": 50.59577,
    "lon": 17.65323
  },
  {
    "id": 3096400,
    "name": "Kazimierz Biskupi",
    "lat": 52.311,
    "lon": 18.16581
  },
  {
    "id": 762223,
    "name": "Pilawa",
    "lat": 51.95945,
    "lon": 21.53089
  },
  {
    "id": 3086106,
    "name": "Siechnice",
    "lat": 51.03384,
    "lon": 17.14743
  },
  {
    "id": 3099352,
    "name": "Gilowice",
    "lat": 49.71277,
    "lon": 19.31045
  },
  {
    "id": 3083880,
    "name": "Szamocin",
    "lat": 53.02795,
    "lon": 17.12653
  },
  {
    "id": 774572,
    "name": "Chęciny",
    "lat": 50.80021,
    "lon": 20.46229
  },
  {
    "id": 754329,
    "name": "Żabno",
    "lat": 50.13334,
    "lon": 20.88615
  },
  {
    "id": 3085980,
    "name": "Siepraw",
    "lat": 49.91437,
    "lon": 19.95864
  },
  {
    "id": 3083442,
    "name": "Tarnowo Podgórne",
    "lat": 52.46642,
    "lon": 16.66326
  },
  {
    "id": 3082510,
    "name": "Węgierska Górka",
    "lat": 49.60776,
    "lon": 19.11638
  },
  {
    "id": 8426030,
    "name": "Aniołki",
    "lat": 54.35929,
    "lon": 18.63337
  },
  {
    "id": 3096160,
    "name": "Kleczew",
    "lat": 52.37057,
    "lon": 18.17714
  },
  {
    "id": 769835,
    "name": "Kadzidło",
    "lat": 53.23435,
    "lon": 21.46454
  },
  {
    "id": 3096795,
    "name": "Kamieniec Ząbkowicki",
    "lat": 50.52541,
    "lon": 16.87921
  },
  {
    "id": 3084178,
    "name": "Sułoszowa",
    "lat": 50.26789,
    "lon": 19.73282
  },
  {
    "id": 776080,
    "name": "Biały Dunajec",
    "lat": 49.3738,
    "lon": 20.00898
  },
  {
    "id": 764145,
    "name": "Nałęczów",
    "lat": 51.28581,
    "lon": 22.21539
  },
  {
    "id": 3100976,
    "name": "Czerwieńsk",
    "lat": 52.01289,
    "lon": 15.42317
  },
  {
    "id": 3084142,
    "name": "Suszec",
    "lat": 50.02958,
    "lon": 18.7916
  },
  {
    "id": 3104002,
    "name": "Babimost",
    "lat": 52.16488,
    "lon": 15.82769
  },
  {
    "id": 757388,
    "name": "Szczucin",
    "lat": 50.30957,
    "lon": 21.07444
  },
  {
    "id": 3093350,
    "name": "Lipiany",
    "lat": 53.00336,
    "lon": 14.96919
  },
  {
    "id": 3091686,
    "name": "Mirsk",
    "lat": 50.97054,
    "lon": 15.38567
  },
  {
    "id": 3098030,
    "name": "Hel",
    "lat": 54.60384,
    "lon": 18.80351
  },
  {
    "id": 759151,
    "name": "Skaryszew",
    "lat": 51.31075,
    "lon": 21.25233
  },
  {
    "id": 3087613,
    "name": "Raba Wyżna",
    "lat": 49.56681,
    "lon": 19.87967
  },
  {
    "id": 3096873,
    "name": "Kalisz Pomorski",
    "lat": 53.29908,
    "lon": 15.90631
  },
  {
    "id": 3102252,
    "name": "Buczkowice",
    "lat": 49.72858,
    "lon": 19.06908
  },
  {
    "id": 3093282,
    "name": "Lipnica Wielka",
    "lat": 49.47404,
    "lon": 19.63883
  },
  {
    "id": 770036,
    "name": "Jodłowa",
    "lat": 49.87229,
    "lon": 21.27897
  },
  {
    "id": 765188,
    "name": "Markowa",
    "lat": 50.02633,
    "lon": 22.3316
  },
  {
    "id": 759915,
    "name": "Rybie",
    "lat": 52.15229,
    "lon": 20.93655
  },
  {
    "id": 3097241,
    "name": "Jeleśnia",
    "lat": 49.64246,
    "lon": 19.32701
  },
  {
    "id": 772248,
    "name": "Giedlarowa",
    "lat": 50.22689,
    "lon": 22.40593
  },
  {
    "id": 3088788,
    "name": "Płoty",
    "lat": 53.80182,
    "lon": 15.2667
  },
  {
    "id": 753394,
    "name": "Żelechów",
    "lat": 51.81051,
    "lon": 21.89721
  },
  {
    "id": 3094953,
    "name": "Kowalewo Pomorskie",
    "lat": 53.15432,
    "lon": 18.89868
  },
  {
    "id": 3094690,
    "name": "Krobia",
    "lat": 51.77405,
    "lon": 16.98237
  },
  {
    "id": 3099619,
    "name": "Gąbin",
    "lat": 52.39849,
    "lon": 19.73509
  },
  {
    "id": 3087708,
    "name": "Pszczółki",
    "lat": 54.17304,
    "lon": 18.69787
  },
  {
    "id": 3098959,
    "name": "Goleszów",
    "lat": 49.7358,
    "lon": 18.73675
  },
  {
    "id": 3085637,
    "name": "Sława",
    "lat": 51.87623,
    "lon": 16.07205
  },
  {
    "id": 3090551,
    "name": "Nowogrodziec",
    "lat": 51.19543,
    "lon": 15.39854
  },
  {
    "id": 776178,
    "name": "Biała Piska",
    "lat": 53.61191,
    "lon": 22.06321
  },
  {
    "id": 759470,
    "name": "Serock",
    "lat": 52.51036,
    "lon": 21.0691
  },
  {
    "id": 3100342,
    "name": "Dobrodzień",
    "lat": 50.72874,
    "lon": 18.44501
  },
  {
    "id": 774641,
    "name": "Celestynów",
    "lat": 52.06093,
    "lon": 21.39107
  },
  {
    "id": 3089891,
    "name": "Osiek nad Notecią",
    "lat": 53.1203,
    "lon": 17.29102
  },
  {
    "id": 3088866,
    "name": "Płaza",
    "lat": 50.09988,
    "lon": 19.46451
  },
  {
    "id": 776440,
    "name": "Baniocha",
    "lat": 52.01653,
    "lon": 21.13984
  },
  {
    "id": 774058,
    "name": "Cmolas",
    "lat": 50.29526,
    "lon": 21.74417
  },
  {
    "id": 3088011,
    "name": "Przeciszów",
    "lat": 50.00647,
    "lon": 19.37576
  },
  {
    "id": 755855,
    "name": "Wielopole Skrzyńskie",
    "lat": 49.94564,
    "lon": 21.61491
  },
  {
    "id": 758633,
    "name": "Sokołów Małopolski",
    "lat": 50.22909,
    "lon": 22.11968
  },
  {
    "id": 3085781,
    "name": "Skoki",
    "lat": 52.67222,
    "lon": 17.16107
  },
  {
    "id": 3081839,
    "name": "Witaszyce",
    "lat": 51.94151,
    "lon": 17.56182
  },
  {
    "id": 760347,
    "name": "Ropa",
    "lat": 49.59146,
    "lon": 21.04431
  },
  {
    "id": 772915,
    "name": "Drzewica",
    "lat": 51.45085,
    "lon": 20.47701
  },
  {
    "id": 755810,
    "name": "Wierzbica",
    "lat": 51.2494,
    "lon": 21.08259
  },
  {
    "id": 761028,
    "name": "Przysietnica",
    "lat": 49.73019,
    "lon": 22.05257
  },
  {
    "id": 3084444,
    "name": "Strzebiń",
    "lat": 50.61647,
    "lon": 18.89794
  },
  {
    "id": 3081653,
    "name": "Wojcieszów",
    "lat": 50.95194,
    "lon": 15.92185
  },
  {
    "id": 3089881,
    "name": "Osielsko",
    "lat": 53.18505,
    "lon": 18.08418
  },
  {
    "id": 774504,
    "name": "Chmielnik",
    "lat": 50.6144,
    "lon": 20.75206
  },
  {
    "id": 3097421,
    "name": "Jastarnia",
    "lat": 54.6983,
    "lon": 18.6773
  },
  {
    "id": 3084029,
    "name": "Świerklany Górne",
    "lat": 50.02765,
    "lon": 18.5905
  },
  {
    "id": 757071,
    "name": "Tarczyn",
    "lat": 51.98197,
    "lon": 20.83394
  },
  {
    "id": 3095140,
    "name": "Kościelisko",
    "lat": 49.29073,
    "lon": 19.88929
  },
  {
    "id": 770833,
    "name": "Hyżne",
    "lat": 49.91769,
    "lon": 22.18131
  },
  {
    "id": 764000,
    "name": "Niedrzwica Duża",
    "lat": 51.11462,
    "lon": 22.38911
  },
  {
    "id": 3085069,
    "name": "Spytkowice",
    "lat": 49.99671,
    "lon": 19.51103
  },
  {
    "id": 3097651,
    "name": "Jankowice Rybnickie",
    "lat": 50.04479,
    "lon": 18.54707
  },
  {
    "id": 3097896,
    "name": "Iłowa",
    "lat": 51.5006,
    "lon": 15.1998
  },
  {
    "id": 765313,
    "name": "Małogoszcz",
    "lat": 50.81214,
    "lon": 20.26407
  },
  {
    "id": 3101987,
    "name": "Bystra",
    "lat": 49.76042,
    "lon": 19.05973
  },
  {
    "id": 3089298,
    "name": "Pęczniew",
    "lat": 51.80384,
    "lon": 18.72311
  },
  {
    "id": 3082838,
    "name": "Ujście",
    "lat": 53.05339,
    "lon": 16.73201
  },
  {
    "id": 775423,
    "name": "Borzęcin",
    "lat": 50.0654,
    "lon": 20.71103
  },
  {
    "id": 3083492,
    "name": "Targanice",
    "lat": 49.80575,
    "lon": 19.32444
  },
  {
    "id": 763659,
    "name": "Nowe Miasto nad Pilicą",
    "lat": 51.61812,
    "lon": 20.57619
  },
  {
    "id": 3088290,
    "name": "Porąbka",
    "lat": 49.81716,
    "lon": 19.21835
  },
  {
    "id": 764777,
    "name": "Mikołajki",
    "lat": 53.80288,
    "lon": 21.57011
  },
  {
    "id": 761878,
    "name": "Podkowa Leśna",
    "lat": 52.12237,
    "lon": 20.72665
  },
  {
    "id": 3083814,
    "name": "Szczekociny",
    "lat": 50.62669,
    "lon": 19.825
  },
  {
    "id": 3090245,
    "name": "Okonek",
    "lat": 53.53618,
    "lon": 16.85158
  },
  {
    "id": 3091154,
    "name": "Nakło",
    "lat": 50.4369,
    "lon": 18.91056
  },
  {
    "id": 775359,
    "name": "Brańsk",
    "lat": 52.7444,
    "lon": 22.83774
  },
  {
    "id": 8426047,
    "name": "VII Dwór",
    "lat": 54.39299,
    "lon": 18.57428
  },
  {
    "id": 3090066,
    "name": "Opatówek",
    "lat": 51.73989,
    "lon": 18.21653
  },
  {
    "id": 3088493,
    "name": "Polanka Wielka",
    "lat": 49.98501,
    "lon": 19.32615
  },
  {
    "id": 3083441,
    "name": "Tarnów Opolski",
    "lat": 50.57631,
    "lon": 18.08367
  },
  {
    "id": 3080675,
    "name": "Żarki",
    "lat": 50.08259,
    "lon": 19.35199
  },
  {
    "id": 755090,
    "name": "Wola Żarczycka",
    "lat": 50.2912,
    "lon": 22.25023
  },
  {
    "id": 3084033,
    "name": "Świerklaniec",
    "lat": 50.44237,
    "lon": 18.93734
  },
  {
    "id": 3092867,
    "name": "Lubomia",
    "lat": 50.03972,
    "lon": 18.3082
  },
  {
    "id": 3101467,
    "name": "Chybie",
    "lat": 49.90249,
    "lon": 18.82756
  },
  {
    "id": 3104116,
    "name": "Andrespol",
    "lat": 51.72783,
    "lon": 19.64175
  },
  {
    "id": 3087994,
    "name": "Przedbórz",
    "lat": 51.08789,
    "lon": 19.87384
  },
  {
    "id": 3103780,
    "name": "Barwice",
    "lat": 53.7449,
    "lon": 16.3553
  },
  {
    "id": 3096353,
    "name": "Kępice",
    "lat": 54.24111,
    "lon": 16.88968
  },
  {
    "id": 3097272,
    "name": "Jejkowice",
    "lat": 50.10814,
    "lon": 18.46767
  },
  {
    "id": 3099371,
    "name": "Gierałtowice",
    "lat": 50.22486,
    "lon": 18.73384
  },
  {
    "id": 3093749,
    "name": "Łeba",
    "lat": 54.76099,
    "lon": 17.55547
  },
  {
    "id": 3088096,
    "name": "Prochowice",
    "lat": 51.27307,
    "lon": 16.36532
  },
  {
    "id": 3089832,
    "name": "Ośno Lubuskie",
    "lat": 52.4536,
    "lon": 14.87549
  },
  {
    "id": 3087144,
    "name": "Roczyny",
    "lat": 49.8537,
    "lon": 19.31568
  },
  {
    "id": 3097043,
    "name": "Jugów",
    "lat": 50.62758,
    "lon": 16.51812
  },
  {
    "id": 3096292,
    "name": "Kiełczów",
    "lat": 51.13999,
    "lon": 17.17798
  },
  {
    "id": 776214,
    "name": "Besko",
    "lat": 49.58757,
    "lon": 21.95292
  },
  {
    "id": 773808,
    "name": "Czemierniki",
    "lat": 51.67298,
    "lon": 22.63887
  },
  {
    "id": 767479,
    "name": "Krościenko Wyżne",
    "lat": 49.67946,
    "lon": 21.82898
  },
  {
    "id": 760804,
    "name": "Radgoszcz",
    "lat": 50.2058,
    "lon": 21.11315
  },
  {
    "id": 759815,
    "name": "Rytro",
    "lat": 49.48904,
    "lon": 20.66631
  },
  {
    "id": 761255,
    "name": "Pruchnik",
    "lat": 49.9062,
    "lon": 22.51554
  },
  {
    "id": 770162,
    "name": "Jedlnia-Letnisko",
    "lat": 51.43074,
    "lon": 21.33536
  },
  {
    "id": 3102019,
    "name": "Byczyna",
    "lat": 51.11387,
    "lon": 18.21413
  },
  {
    "id": 3097808,
    "name": "Jabłonowo Pomorskie",
    "lat": 53.39137,
    "lon": 19.15509
  },
  {
    "id": 759007,
    "name": "Skrzyszów",
    "lat": 49.99373,
    "lon": 21.06139
  },
  {
    "id": 3096640,
    "name": "Kargowa",
    "lat": 52.0714,
    "lon": 15.86138
  },
  {
    "id": 3090759,
    "name": "Nowa Wieś",
    "lat": 49.90746,
    "lon": 19.21646
  },
  {
    "id": 3085867,
    "name": "Skała",
    "lat": 50.23052,
    "lon": 19.85363
  },
  {
    "id": 3083263,
    "name": "Toszek",
    "lat": 50.45442,
    "lon": 18.52209
  },
  {
    "id": 764936,
    "name": "Michałowo",
    "lat": 53.03492,
    "lon": 23.60996
  },
  {
    "id": 3092402,
    "name": "Małomice",
    "lat": 51.55597,
    "lon": 15.45004
  },
  {
    "id": 3085158,
    "name": "Sompolno",
    "lat": 52.38832,
    "lon": 18.50282
  },
  {
    "id": 3094813,
    "name": "Krajenka",
    "lat": 53.29759,
    "lon": 16.99079
  },
  {
    "id": 3082931,
    "name": "Tworóg",
    "lat": 50.531,
    "lon": 18.71572
  },
  {
    "id": 3101114,
    "name": "Czarny Dunajec",
    "lat": 49.43663,
    "lon": 19.85161
  },
  {
    "id": 768039,
    "name": "Kosina",
    "lat": 50.07213,
    "lon": 22.32903
  },
  {
    "id": 3087936,
    "name": "Przeróbka",
    "lat": 54.36667,
    "lon": 18.68333
  },
  {
    "id": 3095332,
    "name": "Koniaków",
    "lat": 49.55066,
    "lon": 18.9491
  },
  {
    "id": 759843,
    "name": "Rymanów",
    "lat": 49.57649,
    "lon": 21.86811
  },
  {
    "id": 3098938,
    "name": "Gołkowice",
    "lat": 49.91418,
    "lon": 18.51419
  },
  {
    "id": 3085766,
    "name": "Skórcz",
    "lat": 53.79436,
    "lon": 18.52561
  },
  {
    "id": 3091861,
    "name": "Mieszkowice",
    "lat": 52.7873,
    "lon": 14.49346
  },
  {
    "id": 3091757,
    "name": "Miłosław",
    "lat": 52.20318,
    "lon": 17.48955
  },
  {
    "id": 3091315,
    "name": "Mszana",
    "lat": 49.96939,
    "lon": 18.52793
  },
  {
    "id": 3098815,
    "name": "Górki Wielkie",
    "lat": 49.77971,
    "lon": 18.83117
  },
  {
    "id": 757386,
    "name": "Szczuczyn",
    "lat": 53.5633,
    "lon": 22.28534
  },
  {
    "id": 771150,
    "name": "Halinów",
    "lat": 52.2288,
    "lon": 21.3551
  },
  {
    "id": 3091605,
    "name": "Mnich",
    "lat": 49.88944,
    "lon": 18.80722
  },
  {
    "id": 3085802,
    "name": "Skępe",
    "lat": 52.86798,
    "lon": 19.35604
  },
  {
    "id": 762968,
    "name": "Osobnica",
    "lat": 49.70871,
    "lon": 21.40193
  },
  {
    "id": 3082193,
    "name": "Wieprz",
    "lat": 49.64746,
    "lon": 19.18007
  },
  {
    "id": 7535493,
    "name": "Lubicz Górny",
    "lat": 53.02686,
    "lon": 18.771
  },
  {
    "id": 755390,
    "name": "Wojnicz",
    "lat": 49.958,
    "lon": 20.83785
  },
  {
    "id": 761437,
    "name": "Poronin",
    "lat": 49.33781,
    "lon": 20.00291
  },
  {
    "id": 774304,
    "name": "Chrzanów",
    "lat": 50.77256,
    "lon": 22.60351
  },
  {
    "id": 6565267,
    "name": "Krościenko nad Dunajcem",
    "lat": 49.44081,
    "lon": 20.42624
  },
  {
    "id": 3097233,
    "name": "Jemielnica",
    "lat": 50.54573,
    "lon": 18.37807
  },
  {
    "id": 775840,
    "name": "Blizne",
    "lat": 49.75332,
    "lon": 21.97351
  },
  {
    "id": 769135,
    "name": "Kłaj",
    "lat": 49.99246,
    "lon": 20.29904
  },
  {
    "id": 767653,
    "name": "Krasne",
    "lat": 50.05626,
    "lon": 22.08638
  },
  {
    "id": 3094981,
    "name": "Kowal",
    "lat": 52.53019,
    "lon": 19.14767
  },
  {
    "id": 3082785,
    "name": "Unisław",
    "lat": 53.21241,
    "lon": 18.38622
  },
  {
    "id": 769345,
    "name": "Kazimierz Dolny",
    "lat": 51.31911,
    "lon": 21.95502
  },
  {
    "id": 768861,
    "name": "Kock",
    "lat": 51.63997,
    "lon": 22.44391
  },
  {
    "id": 774505,
    "name": "Chmielnik",
    "lat": 49.97386,
    "lon": 22.14535
  },
  {
    "id": 3095964,
    "name": "Kobiernice",
    "lat": 49.85497,
    "lon": 19.21646
  },
  {
    "id": 3088535,
    "name": "Pogwizdów",
    "lat": 49.80382,
    "lon": 18.60106
  },
  {
    "id": 3086608,
    "name": "Rybarzowice",
    "lat": 49.72956,
    "lon": 19.10162
  },
  {
    "id": 3080101,
    "name": "Złoczew",
    "lat": 51.41719,
    "lon": 18.60363
  },
  {
    "id": 3087401,
    "name": "Rajcza",
    "lat": 49.50927,
    "lon": 19.11278
  },
  {
    "id": 3083410,
    "name": "Tenczynek",
    "lat": 50.11986,
    "lon": 19.61308
  },
  {
    "id": 3085668,
    "name": "Skrzyszów",
    "lat": 49.94873,
    "lon": 18.48879
  },
  {
    "id": 3084030,
    "name": "Świerklany Dolne",
    "lat": 50.01827,
    "lon": 18.57702
  },
  {
    "id": 3084483,
    "name": "Strumień",
    "lat": 49.92103,
    "lon": 18.76637
  },
  {
    "id": 3095013,
    "name": "Kotlin",
    "lat": 51.91913,
    "lon": 17.64825
  },
  {
    "id": 755823,
    "name": "Wierzawice",
    "lat": 50.23623,
    "lon": 22.4509
  },
  {
    "id": 3092162,
    "name": "Mazańcowice",
    "lat": 49.85802,
    "lon": 18.97708
  },
  {
    "id": 3082587,
    "name": "Warta",
    "lat": 51.71049,
    "lon": 18.62483
  },
  {
    "id": 3080271,
    "name": "Żernica",
    "lat": 50.2477,
    "lon": 18.61547
  },
  {
    "id": 775098,
    "name": "Brzóza Królewska",
    "lat": 50.23908,
    "lon": 22.32559
  },
  {
    "id": 765957,
    "name": "Łososina Dolna",
    "lat": 49.74977,
    "lon": 20.63129
  },
  {
    "id": 760745,
    "name": "Radoszyce",
    "lat": 51.07392,
    "lon": 20.25836
  },
  {
    "id": 3098583,
    "name": "Gozdnica",
    "lat": 51.4363,
    "lon": 15.09856
  },
  {
    "id": 757029,
    "name": "Tarnogród",
    "lat": 50.3609,
    "lon": 22.74174
  },
  {
    "id": 756485,
    "name": "Tyczyn",
    "lat": 49.96384,
    "lon": 22.03398
  },
  {
    "id": 3085070,
    "name": "Spytkowice",
    "lat": 49.57744,
    "lon": 19.83341
  },
  {
    "id": 3095421,
    "name": "Kolonowskie",
    "lat": 50.65338,
    "lon": 18.38493
  },
  {
    "id": 770078,
    "name": "Jeziorany",
    "lat": 53.97578,
    "lon": 20.74639
  },
  {
    "id": 3099016,
    "name": "Gołańcz",
    "lat": 52.94326,
    "lon": 17.29995
  },
  {
    "id": 755886,
    "name": "Wieliszew",
    "lat": 52.4513,
    "lon": 20.96827
  },
  {
    "id": 3083017,
    "name": "Tuliszków",
    "lat": 52.07658,
    "lon": 18.29549
  },
  {
    "id": 7302565,
    "name": "Rzgów",
    "lat": 51.66345,
    "lon": 19.49181
  },
  {
    "id": 771165,
    "name": "Haczów",
    "lat": 49.66152,
    "lon": 21.8979
  },
  {
    "id": 764292,
    "name": "Mrozy",
    "lat": 52.16609,
    "lon": 21.80263
  },
  {
    "id": 3104127,
    "name": "Alwernia",
    "lat": 50.06056,
    "lon": 19.53953
  },
  {
    "id": 3088006,
    "name": "Przecław",
    "lat": 53.37447,
    "lon": 14.47251
  },
  {
    "id": 3103696,
    "name": "Bełk",
    "lat": 50.13048,
    "lon": 18.71667
  },
  {
    "id": 3091089,
    "name": "Nekla",
    "lat": 52.36496,
    "lon": 17.41329
  },
  {
    "id": 754069,
    "name": "Zakroczym",
    "lat": 52.43351,
    "lon": 20.61207
  },
  {
    "id": 3092818,
    "name": "Lubraniec",
    "lat": 52.54178,
    "lon": 18.83254
  },
  {
    "id": 3091095,
    "name": "Nędza",
    "lat": 50.16112,
    "lon": 18.31103
  },
  {
    "id": 3089238,
    "name": "Piasek",
    "lat": 50.01055,
    "lon": 18.94807
  },
  {
    "id": 771374,
    "name": "Gromnik",
    "lat": 49.83843,
    "lon": 20.96123
  },
  {
    "id": 3087383,
    "name": "Rakoniewice",
    "lat": 52.13906,
    "lon": 16.27346
  },
  {
    "id": 762361,
    "name": "Piecki",
    "lat": 53.75759,
    "lon": 21.33914
  },
  {
    "id": 3098735,
    "name": "Gorzkowice",
    "lat": 51.21533,
    "lon": 19.59626
  },
  {
    "id": 3081161,
    "name": "Wyry",
    "lat": 50.13296,
    "lon": 18.90052
  },
  {
    "id": 764343,
    "name": "Moszczenica",
    "lat": 49.73668,
    "lon": 21.09238
  },
  {
    "id": 3083788,
    "name": "Szczerców",
    "lat": 51.33319,
    "lon": 19.10977
  },
  {
    "id": 3084464,
    "name": "Stryków",
    "lat": 51.90224,
    "lon": 19.60536
  },
  {
    "id": 753020,
    "name": "Zwierzyniec",
    "lat": 50.614,
    "lon": 22.97512
  },
  {
    "id": 3101289,
    "name": "Cisiec",
    "lat": 49.59213,
    "lon": 19.1054
  },
  {
    "id": 772372,
    "name": "Garbatka-Letnisko",
    "lat": 51.4832,
    "lon": 21.61079
  },
  {
    "id": 3095336,
    "name": "Kończyce Małe",
    "lat": 49.85824,
    "lon": 18.62964
  },
  {
    "id": 3093906,
    "name": "Łasin",
    "lat": 53.51794,
    "lon": 19.08832
  },
  {
    "id": 3098626,
    "name": "Gostyń",
    "lat": 50.10528,
    "lon": 18.88241
  },
  {
    "id": 3101697,
    "name": "Chociwel",
    "lat": 53.46696,
    "lon": 15.33342
  },
  {
    "id": 3080476,
    "name": "Zblewo",
    "lat": 53.93366,
    "lon": 18.32262
  },
  {
    "id": 8426051,
    "name": "Wyspa Sobieszewska",
    "lat": 54.33263,
    "lon": 18.89065
  },
  {
    "id": 3100280,
    "name": "Dobrzyca",
    "lat": 51.86663,
    "lon": 17.60336
  },
  {
    "id": 3097869,
    "name": "Inwałd",
    "lat": 49.86355,
    "lon": 19.39276
  },
  {
    "id": 766373,
    "name": "Leszno",
    "lat": 52.25799,
    "lon": 20.59121
  },
  {
    "id": 763901,
    "name": "Nieporęt",
    "lat": 52.43152,
    "lon": 21.03212
  },
  {
    "id": 3096392,
    "name": "Kaźmierz",
    "lat": 52.51309,
    "lon": 16.58403
  },
  {
    "id": 3092197,
    "name": "Maszewo",
    "lat": 53.49615,
    "lon": 15.06166
  },
  {
    "id": 776172,
    "name": "Biała Rawska",
    "lat": 51.80779,
    "lon": 20.47259
  },
  {
    "id": 3101170,
    "name": "Czarna Woda",
    "lat": 53.84458,
    "lon": 18.10006
  },
  {
    "id": 765673,
    "name": "Łużna",
    "lat": 49.71288,
    "lon": 21.04637
  },
  {
    "id": 3100553,
    "name": "Dębnica Kaszubska",
    "lat": 54.37831,
    "lon": 17.16116
  },
  {
    "id": 3103477,
    "name": "Bielany Wrocławskie",
    "lat": 51.0361,
    "lon": 16.9677
  },
  {
    "id": 3103004,
    "name": "Bojszowy",
    "lat": 50.0578,
    "lon": 19.10145
  },
  {
    "id": 3093150,
    "name": "Łobżenica",
    "lat": 53.26244,
    "lon": 17.25574
  },
  {
    "id": 3087773,
    "name": "Przyszowice",
    "lat": 50.24841,
    "lon": 18.74594
  },
  {
    "id": 3087617,
    "name": "Pyzdry",
    "lat": 52.17056,
    "lon": 17.69005
  },
  {
    "id": 3098015,
    "name": "Henryków",
    "lat": 50.65327,
    "lon": 17.01027
  },
  {
    "id": 3092964,
    "name": "Lubień",
    "lat": 49.71921,
    "lon": 19.97847
  },
  {
    "id": 3086111,
    "name": "Sidzina",
    "lat": 49.59146,
    "lon": 19.71119
  },
  {
    "id": 767720,
    "name": "Kraczkowa",
    "lat": 50.03796,
    "lon": 22.16801
  },
  {
    "id": 774069,
    "name": "Ćmielów",
    "lat": 50.89028,
    "lon": 21.51426
  },
  {
    "id": 769591,
    "name": "Kańczuga",
    "lat": 49.98346,
    "lon": 22.41168
  },
  {
    "id": 3085578,
    "name": "Ślesin",
    "lat": 52.37039,
    "lon": 18.30644
  },
  {
    "id": 754174,
    "name": "Zagórzyce",
    "lat": 50.0169,
    "lon": 21.67517
  },
  {
    "id": 3100400,
    "name": "Dobiegniew",
    "lat": 52.96947,
    "lon": 15.75362
  },
  {
    "id": 3091957,
    "name": "Miejska Górka",
    "lat": 51.65573,
    "lon": 16.95826
  },
  {
    "id": 763945,
    "name": "Niemce",
    "lat": 51.36155,
    "lon": 22.63939
  },
  {
    "id": 3081701,
    "name": "Włoszakowice",
    "lat": 51.92754,
    "lon": 16.36456
  },
  {
    "id": 3089217,
    "name": "Piaski",
    "lat": 51.88497,
    "lon": 17.07293
  },
  {
    "id": 3091988,
    "name": "Międzybrodzie Bialskie",
    "lat": 49.78747,
    "lon": 19.19741
  },
  {
    "id": 3083907,
    "name": "Syrynia",
    "lat": 50.02004,
    "lon": 18.34597
  },
  {
    "id": 776755,
    "name": "Aleksandrów",
    "lat": 50.4663,
    "lon": 22.89225
  },
  {
    "id": 766734,
    "name": "Laskowa",
    "lat": 49.76147,
    "lon": 20.45045
  },
  {
    "id": 3095931,
    "name": "Kobylin",
    "lat": 51.71645,
    "lon": 17.22682
  },
  {
    "id": 3100891,
    "name": "Czyżowice",
    "lat": 49.9849,
    "lon": 18.40433
  },
  {
    "id": 3081036,
    "name": "Żabnica",
    "lat": 49.58139,
    "lon": 19.15621
  },
  {
    "id": 772107,
    "name": "Glinojeck",
    "lat": 52.81983,
    "lon": 20.29198
  },
  {
    "id": 3103989,
    "name": "Baborów",
    "lat": 50.1576,
    "lon": 17.98513
  },
  {
    "id": 757135,
    "name": "Szynwałd",
    "lat": 49.96767,
    "lon": 21.12293
  },
  {
    "id": 3090967,
    "name": "Niemcza",
    "lat": 50.72007,
    "lon": 16.83573
  },
  {
    "id": 3097327,
    "name": "Jaworzynka",
    "lat": 49.54019,
    "lon": 18.86996
  },
  {
    "id": 3101128,
    "name": "Czarnowąsy",
    "lat": 50.72858,
    "lon": 17.89819
  },
  {
    "id": 3086391,
    "name": "Rzyki",
    "lat": 49.81129,
    "lon": 19.39619
  },
  {
    "id": 3092468,
    "name": "Malczyce",
    "lat": 51.22038,
    "lon": 16.49365
  },
  {
    "id": 3083349,
    "name": "Tokarnia",
    "lat": 49.7272,
    "lon": 19.87161
  },
  {
    "id": 773165,
    "name": "Dobra",
    "lat": 49.71793,
    "lon": 20.25347
  },
  {
    "id": 773040,
    "name": "Domaradz",
    "lat": 49.78675,
    "lon": 21.94571
  },
  {
    "id": 769697,
    "name": "Kamienica",
    "lat": 49.57533,
    "lon": 20.34505
  },
  {
    "id": 758371,
    "name": "Stara Wieś",
    "lat": 49.71505,
    "lon": 22.00441
  },
  {
    "id": 753955,
    "name": "Zalesie Górne",
    "lat": 52.02768,
    "lon": 21.03659
  },
  {
    "id": 3080984,
    "name": "Zabrzeg",
    "lat": 49.91619,
    "lon": 18.94292
  },
  {
    "id": 762118,
    "name": "Piszczac",
    "lat": 51.98118,
    "lon": 23.37719
  },
  {
    "id": 3082966,
    "name": "Turza Śląska",
    "lat": 49.97231,
    "lon": 18.43781
  },
  {
    "id": 756688,
    "name": "Trzebownisko",
    "lat": 50.07829,
    "lon": 22.03712
  },
  {
    "id": 767020,
    "name": "Kunów",
    "lat": 50.96156,
    "lon": 21.28058
  },
  {
    "id": 767619,
    "name": "Krasnobród",
    "lat": 50.54551,
    "lon": 23.21308
  },
  {
    "id": 3094189,
    "name": "Kurzętnik",
    "lat": 53.39858,
    "lon": 19.57858
  },
  {
    "id": 3096964,
    "name": "Kaczyce",
    "lat": 49.82752,
    "lon": 18.59161
  },
  {
    "id": 7535582,
    "name": "Izabelin",
    "lat": 52.29992,
    "lon": 20.81729
  },
  {
    "id": 756028,
    "name": "Werbkowice",
    "lat": 50.75373,
    "lon": 23.76411
  },
  {
    "id": 766132,
    "name": "Lisia Góra",
    "lat": 50.08039,
    "lon": 21.04397
  },
  {
    "id": 775796,
    "name": "Bobowa",
    "lat": 49.70866,
    "lon": 20.94767
  },
  {
    "id": 8426037,
    "name": "Olszynka",
    "lat": 54.33747,
    "lon": 18.66732
  },
  {
    "id": 3095833,
    "name": "Kolbudy",
    "lat": 54.26989,
    "lon": 18.46639
  },
  {
    "id": 3082485,
    "name": "Węgorzyno",
    "lat": 53.54101,
    "lon": 15.55964
  },
  {
    "id": 3101592,
    "name": "Chróścice",
    "lat": 50.78076,
    "lon": 17.81227
  },
  {
    "id": 3089882,
    "name": "Osielec",
    "lat": 49.68079,
    "lon": 19.78243
  },
  {
    "id": 3087847,
    "name": "Przygodzice",
    "lat": 51.59195,
    "lon": 17.82412
  },
  {
    "id": 3085520,
    "name": "Słońsk",
    "lat": 52.56345,
    "lon": 14.80526
  },
  {
    "id": 3085414,
    "name": "Smętowo Graniczne",
    "lat": 53.74638,
    "lon": 18.68586
  },
  {
    "id": 771566,
    "name": "Grabownica Starzeńska",
    "lat": 49.65896,
    "lon": 22.07754
  },
  {
    "id": 771477,
    "name": "Grębów",
    "lat": 50.56536,
    "lon": 21.87404
  },
  {
    "id": 768807,
    "name": "Kołbiel",
    "lat": 52.06431,
    "lon": 21.48153
  },
  {
    "id": 767763,
    "name": "Kozłowo",
    "lat": 53.30652,
    "lon": 20.29098
  },
  {
    "id": 764226,
    "name": "Mysiadło",
    "lat": 52.10216,
    "lon": 21.01856
  },
  {
    "id": 757585,
    "name": "Świlcza",
    "lat": 50.07179,
    "lon": 21.89798
  },
  {
    "id": 756084,
    "name": "Wawrzeńczyce",
    "lat": 50.11012,
    "lon": 20.31612
  },
  {
    "id": 755775,
    "name": "Wierzchosławice",
    "lat": 50.02478,
    "lon": 20.85677
  },
  {
    "id": 754090,
    "name": "Zaklików",
    "lat": 50.75769,
    "lon": 22.10226
  },
  {
    "id": 3087287,
    "name": "Recz",
    "lat": 53.25989,
    "lon": 15.54713
  },
  {
    "id": 3082500,
    "name": "Węgliniec",
    "lat": 51.28753,
    "lon": 15.22894
  },
  {
    "id": 760769,
    "name": "Radomyśl Wielki",
    "lat": 50.19693,
    "lon": 21.27693
  },
  {
    "id": 759839,
    "name": "Ryn",
    "lat": 53.9377,
    "lon": 21.54642
  },
  {
    "id": 7534274,
    "name": "Sztutowo",
    "lat": 54.32679,
    "lon": 19.17921
  },
  {
    "id": 3079986,
    "name": "Zubrzyca Górna",
    "lat": 49.56174,
    "lon": 19.64973
  },
  {
    "id": 3092312,
    "name": "Margonin",
    "lat": 52.97335,
    "lon": 17.09464
  },
  {
    "id": 764204,
    "name": "Myszyniec",
    "lat": 53.38055,
    "lon": 21.34961
  },
  {
    "id": 3096687,
    "name": "Kaniów",
    "lat": 49.94316,
    "lon": 19.05098
  },
  {
    "id": 3080929,
    "name": "Zagórów",
    "lat": 52.16835,
    "lon": 17.89561
  },
  {
    "id": 3080925,
    "name": "Zagórze",
    "lat": 50.09449,
    "lon": 19.40357
  },
  {
    "id": 3084527,
    "name": "Straszyn",
    "lat": 54.27214,
    "lon": 18.58114
  },
  {
    "id": 3087112,
    "name": "Rogów",
    "lat": 49.99097,
    "lon": 18.35077
  },
  {
    "id": 3103009,
    "name": "Bojanowo",
    "lat": 51.70749,
    "lon": 16.74827
  },
  {
    "id": 3088492,
    "name": "Polanów",
    "lat": 54.1193,
    "lon": 16.68512
  },
  {
    "id": 769738,
    "name": "Kałuszyn",
    "lat": 52.20669,
    "lon": 21.80838
  },
  {
    "id": 3089876,
    "name": "Osina",
    "lat": 53.60473,
    "lon": 15.0123
  },
  {
    "id": 763401,
    "name": "Odrzykoń",
    "lat": 49.74057,
    "lon": 21.74074
  },
  {
    "id": 755907,
    "name": "Wielbark",
    "lat": 53.39858,
    "lon": 20.94629
  },
  {
    "id": 3092639,
    "name": "Lwówek",
    "lat": 52.44798,
    "lon": 16.18106
  },
  {
    "id": 3100124,
    "name": "Drobin",
    "lat": 52.73775,
    "lon": 19.98928
  },
  {
    "id": 3080156,
    "name": "Zielonki",
    "lat": 50.12091,
    "lon": 19.92156
  },
  {
    "id": 770357,
    "name": "Jasień",
    "lat": 49.96988,
    "lon": 20.5719
  },
  {
    "id": 3082801,
    "name": "Uniejów",
    "lat": 51.97428,
    "lon": 18.79308
  },
  {
    "id": 773453,
    "name": "Daleszyce",
    "lat": 50.80229,
    "lon": 20.80791
  },
  {
    "id": 3103154,
    "name": "Bobrowniki",
    "lat": 50.37985,
    "lon": 18.98661
  },