[
  {
    "id": 281133,
    "name": "Gaza",
    "lat": 31.50161,
    "lng": 34.46672
  },
  {
    "id": 281124,
    "name": "Khān Yūnis",
    "lat": 31.34018,
    "lng": 34.30627
  },
  {
    "id": 281129,
    "name": "Jabālyā",
    "lat": 31.5272,
    "lng": 34.48347
  },
  {
    "id": 285066,
    "name": "Hebron",
    "lat": 31.52935,
    "lng": 35.0938
  },
  {
    "id": 282615,
    "name": "Nablus",
    "lat": 32.22111,
    "lng": 35.25444
  },
  {
    "id": 281102,
    "name": "Rafaḩ",
    "lat": 31.29722,
    "lng": 34.24357
  },
  {
    "id": 281141,
    "name": "Dayr al Balaḩ",
    "lat": 31.41834,
    "lng": 34.34933
  },
  {
    "id": 281145,
    "name": "Bayt Lāhyā",
    "lat": 31.5464,
    "lng": 34.49514
  },
  {
    "id": 281577,
    "name": "Ţūlkarm",
    "lat": 32.31156,
    "lng": 35.0269
  },
  {
    "id": 282239,
    "name": "Ramallah",
    "lat": 31.89964,
    "lng": 35.20422
  },
  {
    "id": 282457,
    "name": "Qalqīlyah",
    "lat": 32.18966,
    "lng": 34.97063
  },
  {
    "id": 281292,
    "name": "Yaţţā",
    "lat": 31.4459,
    "lng": 35.09443
  },
  {
    "id": 285108,
    "name": "Al Bīrah",
    "lat": 31.91001,
    "lng": 35.21645
  },
  {
    "id": 281146,
    "name": "Bayt Ḩānūn",
    "lat": 31.5353,
    "lng": 34.53579
  },
  {
    "id": 281109,
    "name": "An Nuşayrāt",
    "lat": 31.44861,
    "lng": 34.3925
  },
  {
    "id": 281161,
    "name": "Al Burayj",
    "lat": 31.43944,
    "lng": 34.40306
  },
  {
    "id": 283506,
    "name": "Janīn",
    "lat": 32.45943,
    "lng": 35.30086
  },
  {
    "id": 281148,
    "name": "Banī Suhaylā",
    "lat": 31.34337,
    "lng": 34.32337
  },
  {
    "id": 284315,
    "name": "Bethlehem",
    "lat": 31.70487,
    "lng": 35.20376
  },
  {
    "id": 284486,
    "name": "Az̧ Z̧āhirīyah",
    "lat": 31.40967,
    "lng": 34.97329
  },
  {
    "id": 284335,
    "name": "Bayt Ḩanīnā",
    "lat": 31.82999,
    "lng": 35.22539
  },
  {
    "id": 284572,
    "name": "‘Aţārūt",
    "lat": 31.86667,
    "lng": 35.21667
  },
  {
    "id": 281715,
    "name": "Surif City",
    "lat": 31.65078,
    "lng": 35.06439
  },
  {
    "id": 284890,
    "name": "Ar Rām wa Ḑāḩiyat al Barīd",
    "lat": 31.84945,
    "lng": 35.2342
  },
  {
    "id": 283806,
    "name": "Ḩalḩūl",
    "lat": 31.58029,
    "lng": 35.10178
  },
  {
    "id": 284011,
    "name": "Dūrā",
    "lat": 31.50777,
    "lng": 35.02929
  },
  {
    "id": 284899,
    "name": "Jericho",
    "lat": 31.86667,
    "lng": 35.45
  },
  {
    "id": 284431,
    "name": "Banī Na‘īm",
    "lat": 31.51591,
    "lng": 35.16416
  },
  {
    "id": 6967865,
    "name": "Al Qarārah",
    "lat": 31.37389,
    "lng": 34.34085
  },
  {
    "id": 284583,
    "name": "As Samū‘",
    "lat": 31.39671,
    "lng": 35.06611
  },
  {
    "id": 282476,
    "name": "Qabāţīyah",
    "lat": 32.41035,
    "lng": 35.28087
  },
  {
    "id": 283621,
    "name": "Idhnā",
    "lat": 31.55874,
    "lng": 34.97436
  },
  {
    "id": 281165,
    "name": "‘Abasān al Kabīrah",
    "lat": 31.31913,
    "lng": 34.34005
  },
  {
    "id": 281793,
    "name": "Sa‘īr",
    "lat": 31.57855,
    "lng": 35.14017
  },
  {
    "id": 285111,
    "name": "Al ‘Ayzarīyah",
    "lat": 31.77078,
    "lng": 35.26917
  },
  {
    "id": 284446,
    "name": "Balāţah",
    "lat": 32.21207,
    "lng": 35.28561
  },
  {
    "id": 6967990,
    "name": "Az Zuwāydah",
    "lat": 31.43954,
    "lng": 34.38053
  },
  {
    "id": 284324,
    "name": "Bayt Jālā",
    "lat": 31.71545,
    "lng": 35.18788
  },
  {
    "id": 284999,
    "name": "Al Yāmūn",
    "lat": 32.48563,
    "lng": 35.23011
  },
  {
    "id": 281581,
    "name": "Ţūbās",
    "lat": 32.32091,
    "lng": 35.36989
  },
  {
    "id": 7870523,
    "name": "Shokat as-Sufi",
    "lat": 31.25864,
    "lng": 34.28244
  },
  {
    "id": 284304,
    "name": "Bayt Sāḩūr",
    "lat": 31.70095,
    "lng": 35.22631
  },
  {
    "id": 281637,
    "name": "Tarqūmyā",
    "lat": 31.57551,
    "lng": 35.01223
  },
  {
    "id": 281318,
    "name": "Ya‘bad",
    "lat": 32.44566,
    "lng": 35.16822
  },
  {
    "id": 284294,
    "name": "Baytūnyā",
    "lat": 31.8966,
    "lng": 35.17048
  },
  {
    "id": 284329,
    "name": "Bayt Ūmmar",
    "lat": 31.62329,
    "lng": 35.10446
  },
  {
    "id": 284973,
    "name": "‘Anātā",
    "lat": 31.80924,
    "lng": 35.25902
  },
  {
    "id": 8199386,
    "name": "Givat Zeev",
    "lat": 31.86145,
    "lng": 35.16861
  },
  {
    "id": 285279,
    "name": "Abū Dīs",
    "lat": 31.76215,
    "lng": 35.26166
  },
  {
    "id": 282039,
    "name": "Salfīt",
    "lat": 32.08371,
    "lng": 35.18079
  },
  {
    "id": 7890350,
    "name": "Al ‘Ubaydīyah",
    "lat": 31.71697,
    "lng": 35.29007
  },
  {
    "id": 284341,
    "name": "Bayt Fajjār",
    "lat": 31.62443,
    "lng": 35.15457
  },
  {
    "id": 281093,
    "name": "Shūkat aş Şūfī",
    "lat": 31.25997,
    "lng": 34.2826
  },
  {
    "id": 281657,
    "name": "Ţammūn",
    "lat": 32.28347,
    "lng": 35.38367
  },
  {
    "id": 284339,
    "name": "Bayt Fūrīk",
    "lat": 32.17689,
    "lng": 35.33541
  },
  {
    "id": 284557,
    "name": "‘Attīl",
    "lat": 32.36935,
    "lng": 35.07189
  },
  {
    "id": 284893,
    "name": "‘Arrābah",
    "lat": 32.40517,
    "lng": 35.20189
  },
  {
    "id": 7890368,
    "name": "Ad Dawḩah",
    "lat": 31.69948,
    "lng": 35.18047
  },
  {
    "id": 281791,
    "name": "Sīlat al Ḩārithīyah",
    "lat": 32.50847,
    "lng": 35.22752
  },
  {
    "id": 281690,
    "name": "Taffūḩ",
    "lat": 31.53855,
    "lng": 35.04966
  },
  {
    "id": 284100,
    "name": "Dayr al Ghuşūn",
    "lat": 32.35244,
    "lng": 35.07689
  },
  {
    "id": 284347,
    "name": "Bayt Ūlā",
    "lat": 31.59618,
    "lng": 35.0296
  },
  {
    "id": 281119,
    "name": "Khuzā‘ah",
    "lat": 31.30675,
    "lng": 34.3611
  },
  {
    "id": 285061,
    "name": "Al Khaḑir",
    "lat": 31.69405,
    "lng": 35.16685
  },
  {
    "id": 8199420,
    "name": "Oranit",
    "lat": 32.13165,
    "lng": 34.99094
  },
  {
    "id": 284362,
    "name": "Baytā al Fawqā",
    "lat": 32.1426,
    "lng": 35.28774
  },
  {
    "id": 282463,
    "name": "Qaffīn",
    "lat": 32.43274,
    "lng": 35.08266
  },
  {
    "id": 283570,
    "name": "Jaba‘",
    "lat": 32.32409,
    "lng": 35.22133
  },
  {
    "id": 284046,
    "name": "Dhannābah",
    "lat": 32.31341,
    "lng": 35.04144
  },
  {
    "id": 284597,
    "name": "Ash Shuyūkh",
    "lat": 31.57004,
    "lng": 35.15606
  },
  {
    "id": 284271,
    "name": "Bidyā",
    "lat": 32.1146,
    "lng": 35.08028
  },
  {
    "id": 283129,
    "name": "Bayt ‘Awwā",
    "lat": 31.50911,
    "lng": 34.94938
  },
  {
    "id": 284312,
    "name": "Bayt Liqyā",
    "lat": 31.86958,
    "lng": 35.0654
  },
  {
    "id": 284480,
    "name": "‘Azzūn",
    "lat": 32.17496,
    "lng": 35.05752
  },
  {
    "id": 284922,
    "name": "‘Aqrabā",
    "lat": 32.12495,
    "lng": 35.34547
  },
  {
    "id": 284593,
    "name": "‘Aşīrah ash Shamālīyah",
    "lat": 32.25124,
    "lng": 35.26716
  },
  {
    "id": 283361,
    "name": "Kafr Rā‘ī",
    "lat": 32.37398,
    "lng": 35.15451
  },
  {
    "id": 282376,
    "name": "Qaţanah",
    "lat": 31.83366,
    "lng": 35.11894
  },
  {
    "id": 284976,
    "name": "‘Anabtā",
    "lat": 32.30792,
    "lng": 35.11693
  },
  {
    "id": 282477,
    "name": "Qabalān",
    "lat": 32.10182,
    "lng": 35.28938
  },
  {
    "id": 281789,
    "name": "Silwād",
    "lat": 31.97625,
    "lng": 35.2613
  },
  {
    "id": 283246,
    "name": "Khārās",
    "lat": 31.6148,
    "lng": 35.04174
  },
  {
    "id": 282793,
    "name": "Maythalūn",
    "lat": 32.34798,
    "lng": 35.27446
  },
  {
    "id": 284078,
    "name": "Dayr Dibwān",
    "lat": 31.91112,
    "lng": 35.26661
  },
  {
    "id": 283612,
    "name": "‘Illār",
    "lat": 32.37024,
    "lng": 35.10708
  },
  {
    "id": 284461,
    "name": "Bal‘ā",
    "lat": 32.33392,
    "lng": 35.1116
  },
  {
    "id": 6968063,
    "name": "Al Mughrāqah",
    "lat": 31.46587,
    "lng": 34.41208
  },
  {
    "id": 284237,
    "name": "Bīr Zayt",
    "lat": 31.96959,
    "lng": 35.19408
  },
  {
    "id": 282593,
    "name": "Naḩḩālīn",
    "lat": 31.68559,
    "lng": 35.12081
  },
  {
    "id": 6967857,
    "name": "An Naşr",
    "lat": 31.28137,
    "lng": 34.30253
  },
  {
    "id": 281240,
    "name": "Za‘tarah",
    "lat": 31.67361,
    "lng": 35.25662
  },
  {
    "id": 284270,
    "name": "Biddū",
    "lat": 31.83478,
    "lng": 35.14947
  },
  {
    "id": 283521,
    "name": "Jammā‘īn",
    "lat": 32.13164,
    "lng": 35.20403
  },
  {
    "id": 7890847,
    "name": "Dayr Sāmit",
    "lat": 31.52057,
    "lng": 34.97442
  },
  {
    "id": 285034,
    "name": "Az Zaytūnīyah",
    "lat": 31.95403,
    "lng": 35.1624
  },
  {
    "id": 281790,
    "name": "Sīlat az̧ Z̧ahr",
    "lat": 32.31934,
    "lng": 35.18418
  },
  {
    "id": 12156437,
    "name": "Beit El",
    "lat": 31.94153,
    "lng": 35.22241
  },
  {
    "id": 6967863,
    "name": "‘Abasān al Jadīdah",
    "lat": 31.34158,
    "lng": 34.34592
  },
  {
    "id": 283843,
    "name": "Ḩablah",
    "lat": 32.16523,
    "lng": 34.97748
  },
  {
    "id": 283676,
    "name": "Ḩizmā",
    "lat": 31.83337,
    "lng": 35.26315
  },
  {
    "id": 284313,
    "name": "Bayt Līd",
    "lat": 32.26089,
    "lng": 35.13169
  },
  {
    "id": 284194,
    "name": "Birqīn",
    "lat": 32.45461,
    "lng": 35.26076
  },
  {
    "id": 284320,
    "name": "Bayt Kāḩil",
    "lat": 31.57011,
    "lng": 35.06502
  },
  {
    "id": 283636,
    "name": "Ḩuwwārah",
    "lat": 32.15224,
    "lng": 35.25673
  },
  {
    "id": 7870319,
    "name": "Huwara",
    "lat": 32.15242,
    "lng": 35.25659
  },
  {
    "id": 284547,
    "name": "‘Awartā",
    "lat": 32.16108,
    "lng": 35.28388
  },
  {
    "id": 283643,
    "name": "Ḩūsān",
    "lat": 31.70931,
    "lng": 35.13475
  },
  {
    "id": 284105,
    "name": "Dayr Abū Ḑa‘īf",
    "lat": 32.45601,
    "lng": 35.36164
  },
  {
    "id": 281160,
    "name": "Al Fukhkhārī",
    "lat": 31.29278,
    "lng": 34.33061
  },
  {
    "id": 7889665,
    "name": "Banī Zayd",
    "lat": 32.03924,
    "lng": 35.10316
  },
  {
    "id": 281778,
    "name": "Sinjil",
    "lat": 32.03334,
    "lng": 35.26545
  },
  {
    "id": 283133,
    "name": "Jannātah",
    "lat": 31.66959,
    "lng": 35.21961
  },
  {
    "id": 283157,
    "name": "Kharbathā al Mişbāḩ",
    "lat": 31.88546,
    "lng": 35.07185
  },
  {
    "id": 282783,
    "name": "Banī Zayd ash Shārqīyah",
    "lat": 32.04935,
    "lng": 35.16593
  },
  {
    "id": 285127,
    "name": "‘Ajjah",
    "lat": 32.36074,
    "lng": 35.1959
  },
  {
    "id": 283385,
    "name": "Kafr ad Dīk",
    "lat": 32.0671,
    "lng": 35.08287
  },
  {
    "id": 283378,
    "name": "Kafr Dān",
    "lat": 32.47852,
    "lng": 35.25425
  },
  {
    "id": 282034,
    "name": "Sālim",
    "lat": 32.20962,
    "lng": 35.33034
  },
  {
    "id": 284485,
    "name": "Az Zāwiyah",
    "lat": 32.09627,
    "lng": 35.03982
  },
  {
    "id": 281764,
    "name": "Sīrīs",
    "lat": 32.32828,
    "lng": 35.29134
  },
  {
    "id": 284238,
    "name": "Bīr Nabālā",
    "lat": 31.8508,
    "lng": 35.2036
  },
  {
    "id": 282348,
    "name": "Qibyah",
    "lat": 31.97734,
    "lng": 35.00984
  },
  {
    "id": 283444,
    "name": "Al Judayyidah",
    "lat": 32.33541,
    "lng": 35.30107
  },
  {
    "id": 281674,
    "name": "Till",
    "lat": 32.20068,
    "lng": 35.21293
  },
  {
    "id": 6968055,
    "name": "Wādī as Salqā",
    "lat": 31.40048,
    "lng": 34.33754
  },
  {
    "id": 282529,
    "name": "Ni‘līn",
    "lat": 31.94746,
    "lng": 35.02031
  },
  {
    "id": 285070,
    "name": "Al Jīb",
    "lat": 31.85203,
    "lng": 35.18451
  },
  {
    "id": 285033,
    "name": "Al Mazra‘ah ash Sharqīyah",
    "lat": 32.00018,
    "lng": 35.28152
  },
  {
    "id": 282510,
    "name": "Nūbā",
    "lat": 31.609,
    "lng": 35.03455
  },
  {
    "id": 282283,
    "name": "Quşrah",
    "lat": 32.08543,
    "lng": 35.33005
  },
  {
    "id": 284292,
    "name": "Bayt ‘Ūr at Taḩtā",
    "lat": 31.89609,
    "lng": 35.08178
  },
  {
    "id": 283351,
    "name": "Kafr Thulth",
    "lat": 32.1533,
    "lng": 35.04698
  },
  {
    "id": 281808,
    "name": "Shuqbā",
    "lat": 31.98695,
    "lng": 35.04012
  },
  {
    "id": 284426,
    "name": "Bāqah ash Sharqīyah",
    "lat": 32.41032,
    "lng": 35.07054
  },
  {
    "id": 284069,
    "name": "Dayr Jarīr",
    "lat": 31.96636,
    "lng": 35.29261
  },
  {
    "id": 281997,
    "name": "Şānūr",
    "lat": 32.35608,
    "lng": 35.24537
  },
  {
    "id": 284405,
    "name": "Barţa‘ah ash Sharqīyah",
    "lat": 32.47304,
    "lng": 35.0936
  },
  {
    "id": 284376,
    "name": "Battīr",
    "lat": 31.71945,
    "lng": 35.14103
  },
  {
    "id": 285112,
    "name": "Al ‘Awjā",
    "lat": 31.95069,
    "lng": 35.46756
  },
  {
    "id": 283189,
    "name": "Khirbat Abū Falāḩ",
    "lat": 32.01678,
    "lng": 35.30135
  },
  {
    "id": 284326,
    "name": "Bayt ‘Anān",
    "lat": 31.85069,
    "lng": 35.11248
  },
  {
    "id": 283384,
    "name": "Kafr al Labad",
    "lat": 32.29967,
    "lng": 35.10955
  },
  {
    "id": 282069,
    "name": "Şaffā",
    "lat": 31.90563,
    "lng": 35.06094
  },
  {
    "id": 282140,
    "name": "Rūjayb",
    "lat": 32.19061,
    "lng": 35.29332
  },
  {
    "id": 282439,
    "name": "Qarāwat Banī Ḩasan",
    "lat": 32.12568,
    "lng": 35.10061
  },
  {
    "id": 284487,
    "name": "Az Zabābidah",
    "lat": 32.38665,
    "lng": 35.32411
  },
  {
    "id": 284071,
    "name": "Dayr Istiyā",
    "lat": 32.13096,
    "lng": 35.13963
  },
  {
    "id": 284297,
    "name": "Bayt Sūrīk",
    "lat": 31.82424,
    "lng": 35.14936
  },
  {
    "id": 281560,
    "name": "Turmus‘ayyā",
    "lat": 32.03538,
    "lng": 35.28564
  },
  {
    "id": 7891511,
    "name": "Al Karmil",
    "lat": 31.42301,
    "lng": 35.13278
  },
  {
    "id": 7898046,
    "name": "Al Jiftlik",
    "lat": 32.1407,
    "lng": 35.48738
  },
  {
    "id": 284972,
    "name": "‘Anīn",
    "lat": 32.50259,
    "lng": 35.16668
  },
  {
    "id": 284196,
    "name": "Burqah",
    "lat": 32.30177,
    "lng": 35.19263
  },
  {
    "id": 284081,
    "name": "Dayr Ballūţ",
    "lat": 32.06551,
    "lng": 35.02451
  },
  {
    "id": 284868,
    "name": "Arţās",
    "lat": 31.68939,
    "lng": 35.18681
  },
  {
    "id": 283316,
    "name": "Kūbar",
    "lat": 31.98722,
    "lng": 35.15788
  },
  {
    "id": 284187,
    "name": "Brūqīn",
    "lat": 32.07216,
    "lng": 35.09943
  },
  {
    "id": 284343,
    "name": "Bayt Dajan",
    "lat": 32.19303,
    "lng": 35.37127
  },
  {
    "id": 284104,
    "name": "Dayr Abū Mash‘al",
    "lat": 31.99881,
    "lng": 35.06844
  },
  {
    "id": 283971,
    "name": "Faqqū‘ah",
    "lat": 32.48998,
    "lng": 35.40163
  },
  {
    "id": 7915400,
    "name": "Khursā",
    "lat": 31.48232,
    "lng": 35.01742
  },
  {
    "id": 283366,
    "name": "Kafr Qaddūm",
    "lat": 32.22162,
    "lng": 35.14471
  },
  {
    "id": 7890119,
    "name": "Az Za‘ayyim",
    "lat": 31.78852,
    "lng": 35.26511
  },
  {
    "id": 284881,
    "name": "Ar Rīḩīyah",
    "lat": 31.4695,
    "lng": 35.07781
  },
  {
    "id": 282119,
    "name": "Rummanah",
    "lat": 32.52451,
    "lng": 35.2048
  },
  {
    "id": 285103,
    "name": "Al Fandaqūmīyah",
    "lat": 32.3206,
    "lng": 35.20329
  },
  {
    "id": 283077,
    "name": "Ar Ramāḑīn",
    "lat": 31.37952,
    "lng": 34.91246
  },
  {
    "id": 283571,
    "name": "Jaba‘",
    "lat": 31.85727,
    "lng": 35.25868
  },
  {
    "id": 283469,
    "name": "Jayyūs",
    "lat": 32.20125,
    "lng": 35.03416
  },
  {
    "id": 284334,
    "name": "Bayt Ībā",
    "lat": 32.23719,
    "lng": 35.20977
  },
  {
    "id": 283055,
    "name": "Kifil Ḩāris",
    "lat": 32.11827,
    "lng": 35.15719
  },
  {
    "id": 282234,
    "name": "Rammūn",
    "lat": 31.93342,
    "lng": 35.29821
  },
  {
    "id": 285161,
    "name": "‘Ibwayn",
    "lat": 32.03144,
    "lng": 35.19992
  },
  {
    "id": 283918,
    "name": "Far‘ūn",
    "lat": 32.28613,
    "lng": 35.02326
  },
  {
    "id": 281226,
    "name": "Zaytā",
    "lat": 32.3856,
    "lng": 35.05122
  },
  {
    "id": 281965,
    "name": "Şaydā",
    "lat": 32.38489,
    "lng": 35.11856
  },
  {
    "id": 284330,
    "name": "Al Ittiḩād",
    "lat": 31.97552,
    "lng": 35.11595
  },
  {
    "id": 283735,
    "name": "Ḩāris",
    "lat": 32.11424,
    "lng": 35.14192
  },
  {
    "id": 284495,
    "name": "‘Ayn Yabrūd",
    "lat": 31.94918,
    "lng": 35.25122
  },
  {
    "id": 282278,
    "name": "Rābā",
    "lat": 32.38679,
    "lng": 35.38298
  },
  {
    "id": 284328,
    "name": "Baytīn",
    "lat": 31.92674,
    "lng": 35.24098
  },
  {
    "id": 281675,
    "name": "Talfīt",
    "lat": 32.08664,
    "lng": 35.29094
  },
  {
    "id": 283370,
    "name": "Kafr Mālik",
    "lat": 31.9884,
    "lng": 35.30932
  },
  {
    "id": 281293,
    "name": "Yatmā",
    "lat": 32.10889,
    "lng": 35.26909
  },
  {
    "id": 281408,
    "name": "‘Ūrīf",
    "lat": 32.15949,
    "lng": 35.22228
  },
  {
    "id": 281998,
    "name": "Sannīryā",
    "lat": 32.12877,
    "lng": 35.04652
  },
  {
    "id": 6967895,
    "name": "Juḩr ad Dīk",
    "lat": 31.45571,
    "lng": 34.43719
  },
  {
    "id": 284010,
    "name": "Dūrā al Qar‘",
    "lat": 31.95863,
    "lng": 35.22714
  },
  {
    "id": 282108,
    "name": "Sabasţīyah",
    "lat": 32.27562,
    "lng": 35.19873
  },
  {
    "id": 281982,
    "name": "Şarrah",
    "lat": 32.2097,
    "lng": 35.19147
  },
  {
    "id": 283245,
    "name": "Kharbathā Banī Ḩārith",
    "lat": 31.94508,
    "lng": 35.07194
  },
  {
    "id": 282230,
    "name": "Rantīs",
    "lat": 32.02797,
    "lng": 35.01879
  },
  {
    "id": 284295,
    "name": "Bayt Imrīn",
    "lat": 32.29301,
    "lng": 35.2161
  },
  {
    "id": 6967877,
    "name": "Umm an Naşr",
    "lat": 31.56085,
    "lng": 34.51863
  },
  {
    "id": 284298,
    "name": "Bayt Sīrā",
    "lat": 31.8878,
    "lng": 35.04623
  },
  {
    "id": 284054,
    "name": "Dayr Sharaf",
    "lat": 32.25326,
    "lng": 35.18893
  },
  {
    "id": 282438,
    "name": "Qarāwat Banī Zayd",
    "lat": 32.0547,
    "lng": 35.12908
  },
  {
    "id": 284489,
    "name": "‘Azmūţ",
    "lat": 32.22297,
    "lng": 35.30989
  },
  {
    "id": 281662,
    "name": "Ţallūzah",
    "lat": 32.27056,
    "lng": 35.29496
  },
  {
    "id": 7890843,
    "name": "Bayt Maqdum",
    "lat": 31.53537,
    "lng": 34.97192
  },
  {
    "id": 7870669,
    "name": "al-Kum",
    "lat": 31.53123,
    "lng": 34.96064
  },
  {
    "id": 281979,
    "name": "Şarţah",
    "lat": 32.10447,
    "lng": 35.09198
  },
  {
    "id": 284214,
    "name": "Būrīn",
    "lat": 32.18452,
    "lng": 35.25015
  },
  {
    "id": 12156577,
    "name": "Ganei Modi'in",
    "lat": 31.92892,
    "lng": 35.01656
  },
  {
    "id": 283373,
    "name": "Kafr Jammāl",
    "lat": 32.22551,
    "lng": 35.04337
  },
  {
    "id": 7895641,
    "name": "Al Bādhān",
    "lat": 32.25857,
    "lng": 35.33247
  },
  {
    "id": 283812,
    "name": "Ḩajjah",
    "lat": 32.20427,
    "lng": 35.13077
  },
  {
    "id": 282997,
    "name": "Al Lubban ash Sharqīyah",
    "lat": 32.07011,
    "lng": 35.2403
  },
  {
    "id": 283540,
    "name": "Jalbūn",
    "lat": 32.45957,
    "lng": 35.41516
  },
  {
    "id": 283365,
    "name": "Kafr Qallīl",
    "lat": 32.19351,
    "lng": 35.28284
  },
  {
    "id": 282423,
    "name": "Qaryūt",
    "lat": 32.07004,
    "lng": 35.29432
  },
  {
    "id": 283176,
    "name": "Al Burj",
    "lat": 31.43609,
    "lng": 34.91697
  },
  {
    "id": 283040,
    "name": "Kufayrit",
    "lat": 32.4438,
    "lng": 35.20184
  },
  {
    "id": 283976,
    "name": "Faḩmah",
    "lat": 32.38291,
    "lng": 35.17912
  },
  {
    "id": 283609,
    "name": "Immātīn",
    "lat": 32.19164,
    "lng": 35.15836
  },
  {
    "id": 284594,
    "name": "‘Aşīrah al Qiblīyah",
    "lat": 32.17842,
    "lng": 35.21569
  },
  {
    "id": 285024,
    "name": "Al Mughayyir",
    "lat": 32.0192,
    "lng": 35.34783
  },
  {
    "id": 281623,
    "name": "Tayāsīr",
    "lat": 32.34042,
    "lng": 35.39604
  },
  {
    "id": 284524,
    "name": "‘Aynabūs",
    "lat": 32.14706,
    "lng": 35.24513
  },
  {
    "id": 282540,
    "name": "Nazlat ‘Īsá",
    "lat": 32.41562,
    "lng": 35.05888
  },
  {
    "id": 283449,
    "name": "Jīt",
    "lat": 32.21431,
    "lng": 35.17081
  },
  {
    "id": 284563,
    "name": "‘Aţārah",
    "lat": 32.00058,
    "lng": 35.20466
  },
  {
    "id": 284197,
    "name": "Burqah",
    "lat": 31.89682,
    "lng": 35.2543
  },
  {
    "id": 284581,
    "name": "As Sāwiyah",
    "lat": 32.08537,
    "lng": 35.25782
  },
  {
    "id": 7891506,
    "name": "Rābūd",
    "lat": 31.43909,
    "lng": 35.0162
  },
  {
    "id": 281297,
    "name": "Yāşīd",
    "lat": 32.29688,
    "lng": 35.27757
  },
  {
    "id": 284099,
    "name": "Dayr al Ḩaţab",
    "lat": 32.21734,
    "lng": 35.32127
  },
  {
    "id": 282740,
    "name": "Mislīyah",
    "lat": 32.38613,
    "lng": 35.2878
  },
  {
    "id": 285023,
    "name": "Al Mughayyir",
    "lat": 32.42228,
    "lng": 35.38476
  },
  {
    "id": 281819,
    "name": "Shūfah",
    "lat": 32.27551,
    "lng": 35.08135
  },
  {
    "id": 284013,
    "name": "Dūmā",
    "lat": 32.05632,
    "lng": 35.36705
  },
  {
    "id": 7890846,
    "name": "Khallat ad Dār",
    "lat": 31.49737,
    "lng": 35.11362
  },
  {
    "id": 282872,
    "name": "Mardā",
    "lat": 32.11381,
    "lng": 35.19536
  },
  {
    "id": 284904,
    "name": "Al ‘Araqa",
    "lat": 32.47057,
    "lng": 35.20027
  },
  {
    "id": 7891283,
    "name": "Bayt ‘Amrah",
    "lat": 31.4502,
    "lng": 35.04952
  },
  {
    "id": 284558,
    "name": "Aţ Ţaybah",
    "lat": 32.51494,
    "lng": 35.18574
  },
  {
    "id": 282941,
    "name": "Majdal Banī Fāḑil",
    "lat": 32.08357,
    "lng": 35.36378
  },
  {
    "id": 284085,
    "name": "Dayr as Sūdān",
    "lat": 32.03213,
    "lng": 35.14845
  },
  {
    "id": 281227,
    "name": "Zaytā Jammā‘īn",
    "lat": 32.13698,
    "lng": 35.18595
  },
  {
    "id": 284284,
    "name": "Bazzāryah",
    "lat": 32.30798,
    "lng": 35.16593
  },
  {
    "id": 7889501,
    "name": "Jinşāfūţ",
    "lat": 32.17916,
    "lng": 35.13038
  },
  {
    "id": 281207,
    "name": "Zubūbah",
    "lat": 32.54346,
    "lng": 35.22274
  },
  {
    "id": 282265,
    "name": "Rāfāt",
    "lat": 31.87096,
    "lng": 35.19182
  },
  {
    "id": 285069,
    "name": "Al Judayrah",
    "lat": 31.85587,
    "lng": 35.19706
  },
  {
    "id": 285285,
    "name": "‘Ābūd",
    "lat": 32.01637,
    "lng": 35.06833
  },
  {
    "id": 284072,
    "name": "Dayr Ibzī‘",
    "lat": 31.91727,
    "lng": 35.12105
  },
  {
    "id": 282237,
    "name": "Rāmīn",
    "lat": 32.2852,
    "lng": 35.14951
  },
  {
    "id": 283547,
    "name": "Al Jalamah",
    "lat": 32.50821,
    "lng": 35.31317
  },
  {
    "id": 285009,
    "name": "Al Qubaybah",
    "lat": 31.83886,
    "lng": 35.13678
  },
  {
    "id": 282837,
    "name": "Masḩah",
    "lat": 32.10828,
    "lng": 35.05096
  },
  {
    "id": 284888,
    "name": "‘Arrānah",
    "lat": 32.4972,
    "lng": 35.32271
  },
  {
    "id": 283536,
    "name": "Jalqamūs",
    "lat": 32.42464,
    "lng": 35.36421
  },
  {
    "id": 282264,
    "name": "Rāfāt",
    "lat": 32.07806,
    "lng": 35.04417
  },
  {
    "id": 283142,
    "name": "Ash Shaykh Sa‘d",
    "lat": 31.73721,
    "lng": 35.25742
  },
  {
    "id": 283614,
    "name": "Iktābah",
    "lat": 32.3266,
    "lng": 35.05262
  },
  {
    "id": 284065,
    "name": "Dayr Qiddīs",
    "lat": 31.94862,
    "lng": 35.04437
  },
  {
    "id": 7891144,
    "name": "Aş Şūrrah",
    "lat": 31.47097,
    "lng": 34.99897
  },
  {
    "id": 283159,
    "name": "Al Majd",
    "lat": 31.48095,
    "lng": 34.95063
  },
  {
    "id": 283120,
    "name": "Dayr al ‘Asal al Fawqā",
    "lat": 31.46832,
    "lng": 34.93832
  },
  {
    "id": 281236,
    "name": "Zawātā",
    "lat": 32.24611,
    "lng": 35.2265
  },
  {
    "id": 284933,
    "name": "‘Anzah",
    "lat": 32.35916,
    "lng": 35.22011
  },
  {
    "id": 6968050,
    "name": "Al Muşaddar",
    "lat": 31.41052,
    "lng": 34.37802
  },
  {
    "id": 7890813,
    "name": "Bayt ‘Īnūn",
    "lat": 31.5587,
    "lng": 35.1244
  },
  {
    "id": 7871005,
    "name": "Azun Atme",
    "lat": 32.12167,
    "lng": 35.02036
  },
  {
    "id": 282980,
    "name": "Mādamā",
    "lat": 32.18588,
    "lng": 35.23114
  },
  {
    "id": 284331,
    "name": "Bayt Iksā",
    "lat": 31.81732,
    "lng": 35.17934
  },
  {
    "id": 284598,
    "name": "Ash Shuhadā’",
    "lat": 32.42949,
    "lng": 35.27112
  },
  {
    "id": 283379,
    "name": "Kafr ‘Ayn",
    "lat": 32.04758,
    "lng": 35.12038
  },
  {
    "id": 283464,
    "name": "Jifnā",
    "lat": 31.96192,
    "lng": 35.21338
  },
  {
    "id": 282284,
    "name": "Qūşīn",
    "lat": 32.23829,
    "lng": 35.18297
  },
  {
    "id": 284269,
    "name": "Bil‘īn",
    "lat": 31.92835,
    "lng": 35.07204
  },
  {
    "id": 282185,
    "name": "Rās Karkar",
    "lat": 31.9424,
    "lng": 35.10773
  },
  {
    "id": 283099,
    "name": "Imrīsh",
    "lat": 31.46895,
    "lng": 35.00819
  },
  {
    "id": 284342,
    "name": "Bayt Duqqū",
    "lat": 31.85911,
    "lng": 35.13124
  },
  {
    "id": 284427,
    "name": "Bāqat al Ḩaţab",
    "lat": 32.20434,
    "lng": 35.11433
  },
  {
    "id": 284415,
    "name": "Bardalah",
    "lat": 32.38632,
    "lng": 35.48084
  },
  {
    "id": 281295,
    "name": "Yāsūf",
    "lat": 32.10841,
    "lng": 35.23784
  },
  {
    "id": 284540,
    "name": "Ūşarīn",
    "lat": 32.12499,
    "lng": 35.30999
  },
  {
    "id": 282746,
    "name": "Mirkah",
    "lat": 32.39583,
    "lng": 35.23807
  },
  {
    "id": 283155,
    "name": "An Naşşārīyah",
    "lat": 32.23647,
    "lng": 35.38711
  },
  {
    "id": 284515,
    "name": "‘Ayn ‘Arīk",
    "lat": 31.90613,
    "lng": 35.14254
  },
  {
    "id": 284939,
    "name": "An Nāqūrah",
    "lat": 32.26506,
    "lng": 35.20135
  },
  {
    "id": 283180,
    "name": "Shuyūkh al ‘Arrūb",
    "lat": 31.61735,
    "lng": 35.14366
  },
  {
    "id": 284936,
    "name": "An Nazlah ash Sharqīyah",
    "lat": 32.41072,
    "lng": 35.10916
  },
  {
    "id": 283419,
    "name": "Jūrat ash Sham‘ah",
    "lat": 31.65051,
    "lng": 35.17001
  },
  {
    "id": 282687,
    "name": "Mikhmās",
    "lat": 31.8721,
    "lng": 35.27596
  },
  {
    "id": 285049,
    "name": "Al Lubban al Gharbī",
    "lat": 32.03504,
    "lng": 35.03928
  },
  {
    "id": 283386,
    "name": "Kafr ‘Abbūsh",
    "lat": 32.22353,
    "lng": 35.08504
  },
  {
    "id": 7890393,
    "name": "‘Arab ar Rashāydah",
    "lat": 31.57112,
    "lng": 35.23227
  },
  {
    "id": 284559,
    "name": "Aţ Ţaybah",
    "lat": 31.95388,
    "lng": 35.2998
  },
  {
    "id": 284308,
    "name": "Bayt Qād",
    "lat": 32.46968,
    "lng": 35.35626
  },
  {
    "id": 7897890,
    "name": "Az Zubaydāt",
    "lat": 32.1733,
    "lng": 35.53005
  },
  {
    "id": 7890385,
    "name": "Wādī Raḩḩāl",
    "lat": 31.66516,
    "lng": 35.16727
  },
  {
    "id": 7890366,
    "name": "Khallat Ḩamāmah",
    "lat": 31.7216,
    "lng": 35.19243
  },
  {
    "id": 7890353,
    "name": "Khallat an Nu‘mān",
    "lat": 31.71749,
    "lng": 35.24227
  },
  {
    "id": 283286,
    "name": "Khallat al Mayyah",
    "lat": 31.44222,
    "lng": 35.14286
  },
  {
    "id": 285220,
    "name": "Abū Qashsh",
    "lat": 31.94883,
    "lng": 35.18426
  },
  {
    "id": 283408,
    "name": "Jūrīsh",
    "lat": 32.10188,
    "lng": 35.32188
  },
  {
    "id": 284228,
    "name": "Budrus",
    "lat": 31.96687,
    "lng": 34.99425
  },
  {
    "id": 283165,
    "name": "Karmah",
    "lat": 31.45185,
    "lng": 35.02714
  },
  {
    "id": 283955,
    "name": "Farkhah",
    "lat": 32.06878,
    "lng": 35.15286
  },
  {
    "id": 284556,
    "name": "Aţ Ţīrah",
    "lat": 31.87022,
    "lng": 35.12682
  },
  {
    "id": 283101,
    "name": "Marāḩ Rabbāḩ",
    "lat": 31.63406,
    "lng": 35.18688
  },
  {
    "id": 7895292,
    "name": "Bīr al Bāshā",
    "lat": 32.42022,
    "lng": 35.23013
  },
  {
    "id": 285032,
    "name": "Al Midyah",
    "lat": 31.93592,
    "lng": 35.005
  },
  {
    "id": 7891142,
    "name": "Al Ḩīlah",
    "lat": 31.47454,
    "lng": 35.10742
  },
  {
    "id": 11778032,
    "name": "Itamar",
    "lat": 32.17474,
    "lng": 35.30941
  },
  {
    "id": 284935,
    "name": "An Nuway‘imah",
    "lat": 31.89212,
    "lng": 35.43549
  },
  {
    "id": 285126,
    "name": "‘Ajjūl",
    "lat": 32.02232,
    "lng": 35.17969
  },
  {
    "id": 283123,
    "name": "Bayt Ta‘mar",
    "lat": 31.67927,
    "lng": 35.23986
  },
  {
    "id": 7890844,
    "name": "Al Buq‘ah",
    "lat": 31.54199,
    "lng": 35.14279
  },
  {
    "id": 282461,
    "name": "Qalandiyā",
    "lat": 31.86289,
    "lng": 35.20815
  },
  {
    "id": 284962,
    "name": "An Nabī Ilyās",
    "lat": 32.18482,
    "lng": 35.0176
  },
  {
    "id": 281356,
    "name": "Wādī Fūkīn",
    "lat": 31.70701,
    "lng": 35.10366
  },
  {
    "id": 285071,
    "name": "Al Jāniyah",
    "lat": 31.93848,
    "lng": 35.12142
  },
  {
    "id": 7896869,
    "name": "‘Ayn al Bayḑā",
    "lat": 32.38051,
    "lng": 35.50838
  },
  {
    "id": 285113,
    "name": "Al ‘Aţţārah",
    "lat": 32.32571,
    "lng": 35.16373
  },
  {
    "id": 283096,
    "name": "Qalqas",
    "lat": 31.49212,
    "lng": 35.09535
  },
  {
    "id": 282342,
    "name": "Qīrah",
    "lat": 32.12214,
    "lng": 35.17173
  },
  {
    "id": 283362,
    "name": "Kafr Qūd",
    "lat": 32.45661,
    "lng": 35.22649
  },
  {
    "id": 281548,
    "name": "Ūdalah",
    "lat": 32.15363,
    "lng": 35.27646
  },
  {
    "id": 283128,
    "name": "Bayt Ḩasan",
    "lat": 32.2376,
    "lng": 35.40407
  },
  {
    "id": 283353,
    "name": "Kafr Şūr",
    "lat": 32.24366,
    "lng": 35.06394
  },
  {
    "id": 7891512,
    "name": "Khallat Şāliḩ",
    "lat": 31.42013,
    "lng": 35.11516
  },
  {
    "id": 283348,
    "name": "Kafr Zībād",
    "lat": 32.22583,
    "lng": 35.07179
  },
  {
    "id": 285102,
    "name": "Al Faşāyil",
    "lat": 32.02509,
    "lng": 35.44351
  },
  {
    "id": 284291,
    "name": "Bayt Wazan",
    "lat": 32.23105,
    "lng": 35.21576
  },
  {
    "id": 285091,
    "name": "Al Hāshimīyah",
    "lat": 32.46392,
    "lng": 35.21938
  },
  {
    "id": 281716,
    "name": "Surdā",
    "lat": 31.93709,
    "lng": 35.20321
  },
  {
    "id": 7890391,
    "name": "Al Manīyah",
    "lat": 31.61851,
    "lng": 35.22115
  },
  {
    "id": 283130,
    "name": "Bayt Amīn",
    "lat": 32.13147,
    "lng": 35.02138
  },
  {
    "id": 283181,
    "name": "Al ‘Aqrabānīyah",
    "lat": 32.25231,
    "lng": 35.37836
  },
  {
    "id": 281605,
    "name": "Ti‘innik",
    "lat": 32.51956,
    "lng": 35.21966
  },
  {
    "id": 281486,
    "name": "Umm at Tūt",
    "lat": 32.43234,
    "lng": 35.34418
  },
  {
    "id": 283146,
    "name": "Bayt ar Rūsh al Fawqā",
    "lat": 31.45203,
    "lng": 34.9265
  },
  {
    "id": 284889,
    "name": "Ar Rāmah",
    "lat": 32.35922,
    "lng": 35.17122
  },
  {
    "id": 283076,
    "name": "Umm Salmūnah",
    "lat": 31.64457,
    "lng": 35.16674
  },
  {
    "id": 281219,
    "name": "Zabdah",
    "lat": 32.45077,
    "lng": 35.12958
  },
  {
    "id": 284938,
    "name": "An Nazlah al Gharbīyah",
    "lat": 32.4027,
    "lng": 35.08455
  },
  {
    "id": 283166,
    "name": "Al Jārūshīyah",
    "lat": 32.34698,
    "lng": 35.05009
  },
  {
    "id": 281566,
    "name": "Ţūrah al Gharbīyah",
    "lat": 32.46884,
    "lng": 35.15247
  },
  {
    "id": 283580,
    "name": "Iskākā",
    "lat": 32.10361,
    "lng": 35.22472
  },
  {
    "id": 283071,
    "name": "Qilā‘ Zaytā",
    "lat": 31.55294,
    "lng": 35.12077
  },
  {
    "id": 284076,
    "name": "Dayr Ghazālah",
    "lat": 32.49586,
    "lng": 35.35104
  },
  {
    "id": 7890747,
    "name": "Ḩattā",
    "lat": 31.6188,
    "lng": 35.02361
  },
  {
    "id": 284067,
    "name": "Dayr Niz̧ām",
    "lat": 32.00282,
    "lng": 35.11437
  },
  {
    "id": 284293,
    "name": "Bayt ‘Ūr al Fawqā",
    "lat": 31.88527,
    "lng": 35.11535
  },
  {
    "id": 283371,
    "name": "Kafr Lāqif",
    "lat": 32.18342,
    "lng": 35.09073
  },
  {
    "id": 283579,
    "name": "‘Aslah",
    "lat": 32.17326,
    "lng": 35.03551
  },
  {
    "id": 283139,
    "name": "Sikkah",
    "lat": 31.49161,
    "lng": 34.94305
  },
  {
    "id": 7891507,
    "name": "Umm Laşafā",
    "lat": 31.43597,
    "lng": 35.15613
  },
  {
    "id": 7891145,
    "name": "Zīf",
    "lat": 31.46693,
    "lng": 35.13671
  },
  {
    "id": 281951,
    "name": "Shabtīn",
    "lat": 31.97327,
    "lng": 35.04976
  },
  {
    "id": 285149,
    "name": "‘Ayn ad Duyūk al Fawqā",
    "lat": 31.88709,
    "lng": 35.42721
  },
  {
    "id": 7891286,
    "name": "Umm ad Daraj",
    "lat": 31.44538,
    "lng": 35.20071
  },
  {
    "id": 284501,
    "name": "‘Ayn Qīniyā",
    "lat": 31.92653,
    "lng": 35.14994
  },
  {
    "id": 284909,
    "name": "‘Arabbūnah",
    "lat": 32.51129,
    "lng": 35.36291
  },
  {
    "id": 7915247,
    "name": "Al Ma‘şarah",
    "lat": 31.65534,
    "lng": 35.17928
  },
  {
    "id": 7891289,
    "name": "Ad Dayrāt",
    "lat": 31.4438,
    "lng": 35.16352
  },
  {
    "id": 7890388,
    "name": "Wādī an Nīş",
    "lat": 31.65387,
    "lng": 35.16152
  },
  {
    "id": 281235,
    "name": "Az Zāwiyah",
    "lat": 32.37596,
    "lng": 35.23166
  },
  {
    "id": 283592,
    "name": "‘Irāq Būrīn",
    "lat": 32.20081,
    "lng": 35.24159
  },
  {
    "id": 283106,
    "name": "Kurzah",
    "lat": 31.44052,
    "lng": 35.00001
  },
  {
    "id": 282068,
    "name": "Saffārīn",
    "lat": 32.26225,
    "lng": 35.11028
  },
  {
    "id": 285100,
    "name": "Al Funduq",
    "lat": 32.19055,
    "lng": 35.13709
  },
  {
    "id": 7890005,
    "name": "Badiw al Mu‘arrajāt",
    "lat": 31.92548,
    "lng": 35.31833
  },
  {
    "id": 281773,
    "name": "Şīr",
    "lat": 32.36342,
    "lng": 35.31529
  },
  {
    "id": 283459,
    "name": "Jiljīlīyā",
    "lat": 32.02986,
    "lng": 35.22297
  },
  {
    "id": 7890120,
    "name": "‘Arab al Jahālīn",
    "lat": 31.75926,
    "lng": 35.285
  },
  {
    "id": 7889510,
    "name": "‘Izbat Salmān",
    "lat": 32.14222,
    "lng": 34.99829
  },
  {
    "id": 282859,
    "name": "Marj Na‘jah",
    "lat": 32.18486,
    "lng": 35.53898
  },
  {
    "id": 7891143,
    "name": "Wādī ash Shājinah",
    "lat": 31.47057,
    "lng": 35.03151
  },
  {
    "id": 284498,
    "name": "‘Ayn Sīnyā",
    "lat": 31.97127,
    "lng": 35.22781
  },
  {
    "id": 283149,
    "name": "Nazlat ash Shaykh Zayd",
    "lat": 32.46247,
    "lng": 35.17503
  },
  {
    "id": 284332,
    "name": "Bayt Ijzā",
    "lat": 31.84675,
    "lng": 35.15173
  },
  {
    "id": 7890118,
    "name": "Al Ka‘ābinah (Tajammu‘ Badawī)",
    "lat": 31.80725,
    "lng": 35.3277
  },
  {
    "id": 7890845,
    "name": "Al Buwayrah",
    "lat": 31.48794,
    "lng": 35.11665
  },
  {
    "id": 7890389,
    "name": "Marāḩ Ma‘allā",
    "lat": 31.64925,
    "lng": 35.17478
  },
  {
    "id": 7890367,
    "name": "Bi’r ‘Awnah",
    "lat": 31.71974,
    "lng": 35.17848
  },
  {
    "id": 281317,
    "name": "Yabrūd",
    "lat": 31.9733,
    "lng": 35.24516
  },
  {
    "id": 283964,
    "name": "Far‘atā",
    "lat": 32.19072,
    "lng": 35.16605
  },
  {
    "id": 7891282,
    "name": "Ḩadb al ‘Alqah",
    "lat": 31.4555,
    "lng": 34.99493
  },
  {
    "id": 283972,
    "name": "Falāmyah",
    "lat": 32.22498,
    "lng": 35.02291
  },
  {
    "id": 283137,
    "name": "Ţarrāmah",
    "lat": 31.48081,
    "lng": 35.03252
  },
  {
    "id": 284215,
    "name": "Burhām",
    "lat": 31.98964,
    "lng": 35.17412
  },
  {
    "id": 281441,
    "name": "Umm Şafā",
    "lat": 32.00889,
    "lng": 35.16461
  },
  {
    "id": 7891147,
    "name": "Al Buwayb",
    "lat": 31.46396,
    "lng": 35.15227
  },
  {
    "id": 7891504,
    "name": "Khashm ad Daraj",
    "lat": 31.41627,
    "lng": 35.23948
  },
  {
    "id": 7890377,
    "name": "Khallat al Lūzah",
    "lat": 31.6737,
    "lng": 35.20272
  },
  {
    "id": 7891717,
    "name": "‘Arab al Furayjāt",
    "lat": 31.35638,
    "lng": 34.92072
  },
  {
    "id": 7893467,
    "name": "Umm Dār",
    "lat": 32.4571,
    "lng": 35.13661
  },
  {
    "id": 283119,
    "name": "Dayr al ‘Asal at Taḩtā",
    "lat": 31.47329,
    "lng": 34.94461
  },
  {
    "id": 7896871,
    "name": "Ath Thaghrah",
    "lat": 32.33004,
    "lng": 35.38979
  },
  {
    "id": 284882,
    "name": "Ar Rās",
    "lat": 32.25134,
    "lng": 35.062
  },
  {
    "id": 284951,
    "name": "An Nabī Şāliḩ",
    "lat": 32.01638,
    "lng": 35.12403
  },
  {
    "id": 7891508,
    "name": "Umm al Khayr",
    "lat": 31.42544,
    "lng": 35.1957
  },
  {
    "id": 7893468,
    "name": "Al Khuljān",
    "lat": 32.45428,
    "lng": 35.14427
  },
  {
    "id": 283615,
    "name": "Ijnisinyā",
    "lat": 32.27332,
    "lng": 35.21586
  }
]