[
  {
    "id": 290030,
    "name": "Doha",
    "lat": 25.28545,
    "lon": 51.53096
  },
  {
    "id": 289888,
    "name": "Ar Rayyān",
    "lat": 25.29194,
    "lon": 51.42444
  },
  {
    "id": 289545,
    "name": "Umm Ghuwaylīnah",
    "lat": 25.58716,
    "lon": 51.14986
  },
  {
    "id": 289523,
    "name": "Umm Şalāl Muḩammad",
    "lat": 25.41524,
    "lon": 51.40647
  },
  {
    "id": 289716,
    "name": "Mu‘aydhir Rawḑat Rāshid",
    "lat": 25.2617,
    "lon": 51.39684
  },
  {
    "id": 289915,
    "name": "Al Wakrah",
    "lat": 25.17151,
    "lon": 51.60337
  },
  {
    "id": 289698,
    "name": "Nu‘ayjah",
    "lat": 25.24617,
    "lon": 51.53227
  },
  {
    "id": 289962,
    "name": "Al Khawr",
    "lat": 25.68389,
    "lon": 51.50583
  },
  {
    "id": 289877,
    "name": "Ash Shīḩānīyah",
    "lat": 25.37088,
    "lon": 51.22264
  },
  {
    "id": 289813,
    "name": "Dukhān",
    "lat": 25.42485,
    "lon": 50.78227
  },
  {
    "id": 289525,
    "name": "Musay‘īd",
    "lat": 24.99226,
    "lon": 51.55067
  },
  {
    "id": 289739,
    "name": "Madīnat ash Shamāl",
    "lat": 26.12933,
    "lon": 51.2009
  },
  {
    "id": 289913,
    "name": "Al Wukayr",
    "lat": 25.15107,
    "lon": 51.53718
  },
  {
    "id": 289884,
    "name": "Ar Ruways",
    "lat": 26.13978,
    "lon": 51.21493
  },
  {
    "id": 289548,
    "name": "Umm Bāb",
    "lat": 25.21417,
    "lon": 50.80722
  },
  {
    "id": 289993,
    "name": "Al Ghuwayrīyah",
    "lat": 25.82882,
    "lon": 51.24567
  },
  {
    "id": 289975,
    "name": "Al Jumaylīyah",
    "lat": 25.61068,
    "lon": 51.09108
  },
  {
    "id": 406787,
    "name": "Fuwayriţ",
    "lat": 26.02565,
    "lon": 51.36971
  },
  {
    "id": 398806,
    "name": "Abū Samrah",
    "lat": 24.7437,
    "lon": 50.83174
  }
]