[
  {
    "id": 2253354,
    "name": "Dakar",
    "lat": 14.6937,
    "lon": -17.44406
  },
  {
    "id": 2244322,
    "name": "Touba",
    "lat": 14.85,
    "lon": -15.88333
  },
  {
    "id": 2246678,
    "name": "Pikine",
    "lat": 14.76457,
    "lon": -17.39071
  },
  {
    "id": 2595778,
    "name": "Guédiawaye",
    "lat": 14.77446,
    "lon": -17.40212
  },
  {
    "id": 2244802,
    "name": "Thiès",
    "lat": 14.78944,
    "lon": -16.92602
  },
  {
    "id": 2250805,
    "name": "Kaolack",
    "lat": 14.15197,
    "lon": -16.07259
  },
  {
    "id": 2246512,
    "name": "Rufisque",
    "lat": 14.71542,
    "lon": -17.27334
  },
  {
    "id": 2248477,
    "name": "Mbour",
    "lat": 14.42196,
    "lon": -16.96375
  },
  {
    "id": 2246452,
    "name": "Saint-Louis",
    "lat": 16.01793,
    "lon": -16.48962
  },
  {
    "id": 2244799,
    "name": "Thiès Nones",
    "lat": 14.78333,
    "lon": -16.96667
  },
  {
    "id": 2243940,
    "name": "Ziguinchor",
    "lat": 12.56801,
    "lon": -16.27326
  },
  {
    "id": 2252309,
    "name": "Diourbel",
    "lat": 14.64792,
    "lon": -16.24363
  },
  {
    "id": 2244991,
    "name": "Tambacounda",
    "lat": 13.77073,
    "lon": -13.66734
  },
  {
    "id": 2249222,
    "name": "Louga",
    "lat": 15.61867,
    "lon": -16.22436
  },
  {
    "id": 2249782,
    "name": "Kolda",
    "lat": 12.8939,
    "lon": -14.94125
  },
  {
    "id": 2244386,
    "name": "Tivaouane",
    "lat": 14.95186,
    "lon": -16.8152
  },
  {
    "id": 2248698,
    "name": "Mbaké",
    "lat": 14.79032,
    "lon": -15.90803
  },
  {
    "id": 2244616,
    "name": "Tiébo",
    "lat": 14.63333,
    "lon": -16.23333
  },
  {
    "id": 2248385,
    "name": "Méri Mbaké",
    "lat": 14.75,
    "lon": -15.91667
  },
  {
    "id": 2246544,
    "name": "Richard-Toll",
    "lat": 16.4625,
    "lon": -15.70083
  },
  {
    "id": 2252132,
    "name": "Dougnane",
    "lat": 14.95856,
    "lon": -16.86999
  },
  {
    "id": 2254154,
    "name": "Bargny",
    "lat": 14.69707,
    "lon": -17.23015
  },
  {
    "id": 2251007,
    "name": "Kaffrine",
    "lat": 14.10594,
    "lon": -15.5508
  },
  {
    "id": 2247381,
    "name": "Nguékhokh",
    "lat": 14.51255,
    "lon": -17.00447
  },
  {
    "id": 2595640,
    "name": "Diamniadio",
    "lat": 14.72051,
    "lon": -17.1816
  },
  {
    "id": 2251084,
    "name": "Joal",
    "lat": 14.17309,
    "lon": -16.84929
  },
  {
    "id": 2253277,
    "name": "Dara",
    "lat": 15.34844,
    "lon": -15.47993
  },
  {
    "id": 2244177,
    "name": "Vélingara",
    "lat": 13.15,
    "lon": -14.11667
  },
  {
    "id": 2245709,
    "name": "Sébikhotane",
    "lat": 14.74521,
    "lon": -17.13783
  },
  {
    "id": 2595222,
    "name": "Sali",
    "lat": 14.44111,
    "lon": -17.01944
  },
  {
    "id": 2247298,
    "name": "Niakoul Rab",
    "lat": 14.78421,
    "lon": -17.27361
  },
  {
    "id": 2248515,
    "name": "Mboro",
    "lat": 15.14051,
    "lon": -16.88682
  },
  {
    "id": 2251911,
    "name": "Fatick",
    "lat": 14.33236,
    "lon": -16.40513
  },
  {
    "id": 7670740,
    "name": "Bambey",
    "lat": 14.70074,
    "lon": -16.45911
  },
  {
    "id": 2248433,
    "name": "Médina Gounas",
    "lat": 13.13607,
    "lon": -13.75566
  },
  {
    "id": 11101616,
    "name": "N’diareme limamoulaye",
    "lat": 14.78148,
    "lon": -17.3841
  },
  {
    "id": 2247813,
    "name": "Ndibène Dahra",
    "lat": 15.3338,
    "lon": -15.4766
  },
  {
    "id": 2245704,
    "name": "Sédhiou",
    "lat": 12.70806,
    "lon": -15.55694
  },
  {
    "id": 2249554,
    "name": "Koungheul",
    "lat": 13.98333,
    "lon": -14.8
  },
  {
    "id": 2250645,
    "name": "Kédougou",
    "lat": 12.55561,
    "lon": -12.18076
  },
  {
    "id": 2253901,
    "name": "Bignona",
    "lat": 12.81028,
    "lon": -16.22639
  },
  {
    "id": 2248752,
    "name": "Matam",
    "lat": 15.65587,
    "lon": -13.25544
  },
  {
    "id": 2248409,
    "name": "Mékhé",
    "lat": 15.1097,
    "lon": -16.6218
  },
  {
    "id": 2246922,
    "name": "Ouro Sogui",
    "lat": 15.60588,
    "lon": -13.3223
  },
  {
    "id": 2250982,
    "name": "Kahone",
    "lat": 14.15838,
    "lon": -16.03572
  },
  {
    "id": 2252685,
    "name": "Diaoubé",
    "lat": 12.91667,
    "lon": -14.16667
  },
  {
    "id": 2246608,
    "name": "Poukham Un",
    "lat": 14.35751,
    "lon": -16.41235
  },
  {
    "id": 2246606,
    "name": "Pout",
    "lat": 14.77099,
    "lon": -17.06107
  },
  {
    "id": 2250677,
    "name": "Kayar",
    "lat": 14.91893,
    "lon": -17.11978
  },
  {
    "id": 2253375,
    "name": "Dagana",
    "lat": 16.47667,
    "lon": -15.6
  },
  {
    "id": 2249550,
    "name": "Koungneul Sossé",
    "lat": 13.96667,
    "lon": -14.81667
  },
  {
    "id": 2247157,
    "name": "Nioro du Rip",
    "lat": 13.75,
    "lon": -15.8
  },
  {
    "id": 2251230,
    "name": "Guinguinéo",
    "lat": 14.26667,
    "lon": -15.95
  },
  {
    "id": 2249901,
    "name": "Khombole",
    "lat": 14.76361,
    "lon": -16.6916
  },
  {
    "id": 2247684,
    "name": "Ndioum",
    "lat": 16.51293,
    "lon": -14.64706
  },
  {
    "id": 2244786,
    "name": "Thiadiaye",
    "lat": 14.42038,
    "lon": -16.70258
  },
  {
    "id": 2250659,
    "name": "Kébémer",
    "lat": 15.365,
    "lon": -16.4339
  },
  {
    "id": 2249281,
    "name": "Linguère",
    "lat": 15.3953,
    "lon": -15.1193
  },
  {
    "id": 2251688,
    "name": "Gandiaye",
    "lat": 14.24362,
    "lon": -16.27231
  },
  {
    "id": 2251470,
    "name": "Goudomp",
    "lat": 12.57778,
    "lon": -15.87222
  },
  {
    "id": 2249576,
    "name": "Koumpentoum",
    "lat": 13.98333,
    "lon": -14.56667
  },
  {
    "id": 2251490,
    "name": "Gossas Village",
    "lat": 14.48409,
    "lon": -16.11377
  },
  {
    "id": 2250668,
    "name": "Kbombole",
    "lat": 14.76667,
    "lon": -16.7
  },
  {
    "id": 2250849,
    "name": "Kanel",
    "lat": 15.4916,
    "lon": -13.17627
  },
  {
    "id": 2244797,
    "name": "Thilogne",
    "lat": 15.92389,
    "lon": -13.65778
  },
  {
    "id": 8030383,
    "name": "Mermoz Boabab",
    "lat": 14.70649,
    "lon": -17.47581
  },
  {
    "id": 2245241,
    "name": "Sokone",
    "lat": 13.88333,
    "lon": -16.36667
  },
  {
    "id": 2250773,
    "name": "Karang",
    "lat": 13.60778,
    "lon": -16.42694
  },
  {
    "id": 2247520,
    "name": "Nganda",
    "lat": 13.83333,
    "lon": -15.41667
  },
  {
    "id": 2245427,
    "name": "Sintiou Bamambé",
    "lat": 15.36736,
    "lon": -13.13471
  },
  {
    "id": 2249892,
    "name": "Kidira",
    "lat": 14.45668,
    "lon": -12.21659
  },
  {
    "id": 2254441,
    "name": "Bakel",
    "lat": 14.90238,
    "lon": -12.45935
  },
  {
    "id": 2247660,
    "name": "Ndofane",
    "lat": 13.91667,
    "lon": -15.93333
  },
  {
    "id": 2246780,
    "name": "Passi",
    "lat": 13.98333,
    "lon": -16.26667
  },
  {
    "id": 12640235,
    "name": "Madina Wandifa",
    "lat": 13.05794,
    "lon": -15.64319
  },
  {
    "id": 2246274,
    "name": "Sangalkam",
    "lat": 14.78023,
    "lon": -17.22761
  },
  {
    "id": 6650652,
    "name": "Podor",
    "lat": 16.64892,
    "lon": -14.96073
  },
  {
    "id": 2246523,
    "name": "Ross-Bétio",
    "lat": 16.27333,
    "lon": -16.13778
  },
  {
    "id": 2252473,
    "name": "Diofior",
    "lat": 14.1899,
    "lon": -16.66089
  },
  {
    "id": 2249545,
    "name": "Kounkané",
    "lat": 12.93333,
    "lon": -14.08333
  },
  {
    "id": 2250306,
    "name": "Keur Madiabel",
    "lat": 13.85,
    "lon": -16.06667
  },
  {
    "id": 2247341,
    "name": "Nguidjlone",
    "lat": 15.94052,
    "lon": -13.35138
  },
  {
    "id": 2244497,
    "name": "Tilogne Tokossel",
    "lat": 15.96667,
    "lon": -13.6
  },
  {
    "id": 2254689,
    "name": "Amady Ounaré",
    "lat": 15.34714,
    "lon": -13.01647
  },
  {
    "id": 2246522,
    "name": "Rosso",
    "lat": 16.42028,
    "lon": -15.79834
  },
  {
    "id": 2248777,
    "name": "Marsassoum",
    "lat": 12.8275,
    "lon": -15.98056
  },
  {
    "id": 2247507,
    "name": "Ngaparou",
    "lat": 14.46419,
    "lon": -17.05619
  },
  {
    "id": 2251178,
    "name": "Haïré Lao",
    "lat": 16.39697,
    "lon": -14.32196
  },
  {
    "id": 2246637,
    "name": "Poponguine",
    "lat": 14.55735,
    "lon": -17.11396
  },
  {
    "id": 2244436,
    "name": "Tionk Essil",
    "lat": 12.78556,
    "lon": -16.52167
  },
  {
    "id": 2245608,
    "name": "Sibassor",
    "lat": 14.18645,
    "lon": -16.15947
  },
  {
    "id": 2246861,
    "name": "Pal",
    "lat": 15.9139,
    "lon": -16.2599
  },
  {
    "id": 2251292,
    "name": "Guéoul",
    "lat": 15.48333,
    "lon": -16.35
  },
  {
    "id": 2248788,
    "name": "Malèm Hodar",
    "lat": 14.08701,
    "lon": -15.2923
  },
  {
    "id": 2247044,
    "name": "Waoundé",
    "lat": 15.26367,
    "lon": -12.86821
  },
  {
    "id": 2252606,
    "name": "Diawara",
    "lat": 15.02196,
    "lon": -12.54374
  },
  {
    "id": 2247994,
    "name": "Ndiagne",
    "lat": 15.4094,
    "lon": -16.0707
  },
  {
    "id": 2252804,
    "name": "Ndiamakouta",
    "lat": 13.31667,
    "lon": -15.63333
  },
  {
    "id": 2251750,
    "name": "Gaé",
    "lat": 16.56667,
    "lon": -15.45
  },
  {
    "id": 2253844,
    "name": "Birkelane",
    "lat": 14.12933,
    "lon": -15.74409
  },
  {
    "id": 2245666,
    "name": "Sémé",
    "lat": 15.19422,
    "lon": -12.94482
  },
  {
    "id": 2251473,
    "name": "Goudiry",
    "lat": 14.18146,
    "lon": -12.71803
  },
  {
    "id": 2251791,
    "name": "Foundiougne",
    "lat": 14.12272,
    "lon": -16.46916
  },
  {
    "id": 2253522,
    "name": "Bounkiling",
    "lat": 13.05,
    "lon": -15.7
  },
  {
    "id": 2251544,
    "name": "Goléré",
    "lat": 16.25575,
    "lon": -14.10165
  },
  {
    "id": 2253408,
    "name": "Dabo",
    "lat": 12.88333,
    "lon": -14.48333
  },
  {
    "id": 2247108,
    "name": "Odobéré",
    "lat": 15.56142,
    "lon": -13.09862
  },
  {
    "id": 2252336,
    "name": "Diouloulou",
    "lat": 13.05,
    "lon": -16.6
  },
  {
    "id": 2251327,
    "name": "Guédé",
    "lat": 16.53839,
    "lon": -14.80412
  },
  {
    "id": 2245222,
    "name": "Somone",
    "lat": 14.48649,
    "lon": -17.07524
  },
  {
    "id": 2253037,
    "name": "Dembankané",
    "lat": 15.08893,
    "lon": -12.6998
  },
  {
    "id": 2251713,
    "name": "Galoya Toucouleur",
    "lat": 16.07397,
    "lon": -13.85894
  },
  {
    "id": 2245151,
    "name": "Soum",
    "lat": 14.08179,
    "lon": -16.48127
  },
  {
    "id": 2248507,
    "name": "Mbouba",
    "lat": 16.19002,
    "lon": -14.01562
  },
  {
    "id": 2245186,
    "name": "Soubalo Mbouba",
    "lat": 16.20055,
    "lon": -14.01081
  },
  {
    "id": 2246322,
    "name": "Samine Escale",
    "lat": 12.49417,
    "lon": -15.63139
  },
  {
    "id": 11072095,
    "name": "Ndiandane",
    "lat": 16.5924,
    "lon": -14.99152
  },
  {
    "id": 2244979,
    "name": "Tanaf",
    "lat": 12.64972,
    "lon": -15.42611
  },
  {
    "id": 2246901,
    "name": "Oussouye",
    "lat": 12.485,
    "lon": -16.54694
  },
  {
    "id": 2246431,
    "name": "Salémata",
    "lat": 12.6285,
    "lon": -12.8166
  },
  {
    "id": 2252899,
    "name": "Diakhao",
    "lat": 14.46317,
    "lon": -16.28943
  },
  {
    "id": 2252615,
    "name": "Diattakounda",
    "lat": 12.56972,
    "lon": -15.68417
  },
  {
    "id": 2248512,
    "name": "Mbos",
    "lat": 14.36667,
    "lon": -15.75
  },
  {
    "id": 2248508,
    "name": "Mbos Ndiamb",
    "lat": 14.46829,
    "lon": -16.06702
  },
  {
    "id": 2249677,
    "name": "Kotiari",
    "lat": 13.9,
    "lon": -13.45
  },
  {
    "id": 2246717,
    "name": "Pété",
    "lat": 16.10798,
    "lon": -13.94973
  },
  {
    "id": 2251936,
    "name": "Fas",
    "lat": 14.35379,
    "lon": -16.03434
  },
  {
    "id": 2245673,
    "name": "Sélikénié",
    "lat": 12.7,
    "lon": -14.73333
  },
  {
    "id": 2245762,
    "name": "Saré Yoba Diéga",
    "lat": 12.76583,
    "lon": -15.1075
  },
  {
    "id": 6620952,
    "name": "Warang",
    "lat": 14.37349,
    "lon": -16.94366
  },
  {
    "id": 2247062,
    "name": "Oualaldé",
    "lat": 16.50625,
    "lon": -14.20368
  },
  {
    "id": 2245591,
    "name": "Séndou",
    "lat": 14.67193,
    "lon": -17.2048
  },
  {
    "id": 2246772,
    "name": "Pata",
    "lat": 13.43333,
    "lon": -14.95
  },
  {
    "id": 2252737,
    "name": "Diana Malari",
    "lat": 12.84833,
    "lon": -15.24972
  },
  {
    "id": 11497858,
    "name": "Demette",
    "lat": 16.56759,
    "lon": -14.2796
  },
  {
    "id": 2252564,
    "name": "Démèt",
    "lat": 16.56442,
    "lon": -14.28065
  },
  {
    "id": 2246585,
    "name": "Ranérou",
    "lat": 15.3,
    "lon": -13.96667
  },
  {
    "id": 2248412,
    "name": "Médina-Yorofoula",
    "lat": 13.3,
    "lon": -14.71667
  },
  {
    "id": 2246641,
    "name": "Polel Diaoubé",
    "lat": 15.26667,
    "lon": -13.0
  },
  {
    "id": 2246188,
    "name": "Saraya",
    "lat": 12.83167,
    "lon": -11.75381
  },
  {
    "id": 2253805,
    "name": "Bodé",
    "lat": 16.44434,
    "lon": -14.35229
  },
  {
    "id": 2254762,
    "name": "Adéane",
    "lat": 12.63,
    "lon": -16.01694
  },
  {
    "id": 2248910,
    "name": "Malèm Niani",
    "lat": 13.93333,
    "lon": -14.3
  },
  {
    "id": 7302183,
    "name": "Cap Skirring",
    "lat": 12.35011,
    "lon": -16.71707
  },
  {
    "id": 2248563,
    "name": "Mbeuleukhé",
    "lat": 15.6487,
    "lon": -15.3492
  },
  {
    "id": 7118123,
    "name": "Baboucar Toumbou",
    "lat": 14.10898,
    "lon": -16.71909
  },
  {
    "id": 2250501,
    "name": "Keur Babakar Toumbou",
    "lat": 14.10877,
    "lon": -16.719
  },
  {
    "id": 13308244,
    "name": "Syllacounda",
    "lat": 13.0671,
    "lon": -15.30108
  },
  {
    "id": 7118124,
    "name": "Samba Diallo",
    "lat": 14.13938,
    "lon": -16.696
  },
  {
    "id": 2245559,
    "name": "Syllacounda",
    "lat": 13.06667,
    "lon": -15.3
  }
]