[
  {
    "id": 2410763,
    "name": "São Tomé",
    "lat": 0.33756,
    "lng": 6.7299
  },
  {
    "id": 2410972,
    "name": "Neves",
    "lat": 0.35671,
    "lng": 6.54897
  },
  {
    "id": 2411305,
    "name": "Água Izé",
    "lat": 0.21953,
    "lng": 6.72782
  },
  {
    "id": 11204006,
    "name": "Folha Fede",
    "lat": 0.284,
    "lng": 6.684
  },
  {
    "id": 12718718,
    "name": "Almas",
    "lat": 0.29907,
    "lng": 6.74467
  },
  {
    "id": 12718734,
    "name": "Pantufo",
    "lat": 0.31503,
    "lng": 6.74348
  },
  {
    "id": 2410849,
    "name": "Rosema",
    "lat": 0.3509,
    "lng": 6.56948
  },
  {
    "id": 13151892,
    "name": "Piedade",
    "lat": 0.29581,
    "lng": 6.66424
  },
  {
    "id": 12718722,
    "name": "Changra",
    "lat": 0.34985,
    "lng": 6.68657
  },
  {
    "id": 2410805,
    "name": "Santo António",
    "lat": 1.63943,
    "lng": 7.41951
  },
  {
    "id": 2411049,
    "name": "Lemos",
    "lat": 0.29922,
    "lng": 6.69847
  },
  {
    "id": 2410809,
    "name": "Santo Amaro",
    "lat": 0.36574,
    "lng": 6.68855
  },
  {
    "id": 12718723,
    "name": "Cova Barro",
    "lat": 0.31499,
    "lng": 6.7383
  },
  {
    "id": 12718729,
    "name": "Micondo",
    "lat": 0.17121,
    "lng": 6.67729
  },
  {
    "id": 2410853,
    "name": "Agostinho Neto",
    "lat": 0.36769,
    "lng": 6.64396
  },
  {
    "id": 12718720,
    "name": "Belém",
    "lat": 0.30154,
    "lng": 6.67423
  },
  {
    "id": 12718730,
    "name": "Monta Alegre",
    "lat": 0.30285,
    "lng": 6.72292
  },
  {
    "id": 12718719,
    "name": "Batepá",
    "lat": 0.30061,
    "lng": 6.66031
  },
  {
    "id": 12718732,
    "name": "Obolongo",
    "lat": 0.28999,
    "lng": 6.69322
  },
  {
    "id": 12718731,
    "name": "Obo Izaquente",
    "lat": 0.32022,
    "lng": 6.68935
  },
  {
    "id": 12718728,
    "name": "Margarida Manuel",
    "lat": 0.30252,
    "lng": 6.71658
  },
  {
    "id": 12718721,
    "name": "Capela",
    "lat": 0.30663,
    "lng": 6.67997
  },
  {
    "id": 12718726,
    "name": "Maianço",
    "lat": 0.34916,
    "lng": 6.6742
  },
  {
    "id": 2411250,
    "name": "Boa Entrada",
    "lat": 0.35166,
    "lng": 6.66321
  },
  {
    "id": 12718725,
    "name": "Diogo Simão",
    "lat": 0.31467,
    "lng": 6.69432
  },
  {
    "id": 12718733,
    "name": "Ototó",
    "lat": 0.31782,
    "lng": 6.66321
  },
  {
    "id": 12718736,
    "name": "Praia Morro Peixe",
    "lat": 0.40553,
    "lng": 6.63847
  },
  {
    "id": 2410998,
    "name": "Monte Café",
    "lat": 0.30036,
    "lng": 6.63977
  },
  {
    "id": 13151801,
    "name": "Melhorada",
    "lat": 0.30645,
    "lng": 6.71216
  },
  {
    "id": 12718724,
    "name": "Desejada",
    "lat": 0.35619,
    "lng": 6.67086
  },
  {
    "id": 12718727,
    "name": "Malanza",
    "lat": 0.04851,
    "lng": 6.53774
  },
  {
    "id": 2411160,
    "name": "Diogo Vaz",
    "lat": 0.3171,
    "lng": 6.49846
  },
  {
    "id": 2410900,
    "name": "Ponta Figo",
    "lat": 0.34551,
    "lng": 6.54377
  },
  {
    "id": 12718735,
    "name": "Pété-Pété",
    "lat": 0.30093,
    "lng": 6.73957
  },
  {
    "id": 12718737,
    "name": "Ribeira Peixe",
    "lat": 0.09038,
    "lng": 6.61557
  },
  {
    "id": 12718738,
    "name": "Torres Dias",
    "lat": 0.30728,
    "lng": 6.69628
  },
  {
    "id": 2411263,
    "name": "Bela Vista",
    "lat": 0.35927,
    "lng": 6.68933
  }
]