[
  {
    "id": 2427123,
    "name": "N'Djamena",
    "lat": 12.10672,
    "lon": 15.0444
  },
  {
    "id": 2427455,
    "name": "Moundou",
    "lat": 8.57437,
    "lon": 16.07722
  },
  {
    "id": 245785,
    "name": "Abéché",
    "lat": 13.82916,
    "lon": 20.8324
  },
  {
    "id": 2425791,
    "name": "Sarh",
    "lat": 9.14555,
    "lon": 18.38331
  },
  {
    "id": 2430506,
    "name": "Kelo",
    "lat": 9.30859,
    "lon": 15.80658
  },
  {
    "id": 245338,
    "name": "Am Timan",
    "lat": 11.0433,
    "lon": 20.28342
  },
  {
    "id": 2433437,
    "name": "Doba",
    "lat": 8.66389,
    "lon": 16.85324
  },
  {
    "id": 2426240,
    "name": "Pala",
    "lat": 9.3646,
    "lon": 14.90725
  },
  {
    "id": 2434910,
    "name": "Bongor",
    "lat": 10.28088,
    "lon": 15.37425
  },
  {
    "id": 243787,
    "name": "Goz Beida",
    "lat": 12.22643,
    "lon": 21.40983
  },
  {
    "id": 2429605,
    "name": "Koumra",
    "lat": 8.91587,
    "lon": 17.55046
  },
  {
    "id": 2427637,
    "name": "Mongo",
    "lat": 12.18514,
    "lon": 18.6884
  },
  {
    "id": 2434979,
    "name": "Bol",
    "lat": 13.46729,
    "lon": 14.71352
  },
  {
    "id": 2428394,
    "name": "Mao",
    "lat": 14.12286,
    "lon": 15.31189
  },
  {
    "id": 243590,
    "name": "Iriba",
    "lat": 15.11667,
    "lon": 22.25
  },
  {
    "id": 2432678,
    "name": "Faya-Largeau",
    "lat": 17.9257,
    "lon": 19.10428
  },
  {
    "id": 2435124,
    "name": "Bitkine",
    "lat": 11.9801,
    "lon": 18.2138
  },
  {
    "id": 2435854,
    "name": "Bébédja",
    "lat": 8.6761,
    "lon": 16.566
  },
  {
    "id": 2428228,
    "name": "Massakory",
    "lat": 12.99809,
    "lon": 15.73195
  },
  {
    "id": 2426370,
    "name": "Umm Hājar",
    "lat": 13.2954,
    "lon": 19.6966
  },
  {
    "id": 2427336,
    "name": "Moussoro",
    "lat": 13.64436,
    "lon": 16.48954
  },
  {
    "id": 244878,
    "name": "Biltine",
    "lat": 14.52727,
    "lon": 20.92603
  },
  {
    "id": 2429158,
    "name": "Léré",
    "lat": 9.6447,
    "lon": 14.2151
  },
  {
    "id": 2432639,
    "name": "Fianga",
    "lat": 9.9146,
    "lon": 15.1399
  },
  {
    "id": 2431907,
    "name": "Goré",
    "lat": 8.65,
    "lon": 16.51667
  },
  {
    "id": 2436400,
    "name": "Ati",
    "lat": 13.2138,
    "lon": 18.3393
  },
  {
    "id": 9534257,
    "name": "Amdjarass",
    "lat": 16.06666,
    "lon": 22.83536
  },
  {
    "id": 2431724,
    "name": "Gounou Gaya",
    "lat": 9.6294,
    "lon": 15.5132
  },
  {
    "id": 2428231,
    "name": "Massaguet",
    "lat": 12.47554,
    "lon": 15.43647
  },
  {
    "id": 2429296,
    "name": "Laï",
    "lat": 9.3972,
    "lon": 16.30066
  },
  {
    "id": 2434985,
    "name": "Bokoro",
    "lat": 12.37813,
    "lon": 17.05876
  },
  {
    "id": 2431573,
    "name": "Guelendeng",
    "lat": 10.91762,
    "lon": 15.55011
  },
  {
    "id": 2429344,
    "name": "Kyabé",
    "lat": 9.45149,
    "lon": 18.94493
  },
  {
    "id": 245669,
    "name": "Adré",
    "lat": 13.46648,
    "lon": 22.19875
  },
  {
    "id": 2428281,
    "name": "Maro",
    "lat": 9.22349,
    "lon": 17.71018
  },
  {
    "id": 2428480,
    "name": "Mandelia",
    "lat": 11.73017,
    "lon": 15.24468
  },
  {
    "id": 2433055,
    "name": "Dourbali",
    "lat": 11.80617,
    "lon": 15.8669
  },
  {
    "id": 2435508,
    "name": "Benoy",
    "lat": 8.98327,
    "lon": 16.31991
  },
  {
    "id": 2427697,
    "name": "Moïssala",
    "lat": 8.3404,
    "lon": 17.7663
  },
  {
    "id": 244128,
    "name": "Fada",
    "lat": 17.19186,
    "lon": 21.58081
  },
  {
    "id": 2428042,
    "name": "Mboursou Léré",
    "lat": 9.7639,
    "lon": 14.1539
  },
  {
    "id": 2434584,
    "name": "Bousso",
    "lat": 10.48473,
    "lon": 16.71076
  },
  {
    "id": 2428450,
    "name": "Mangalmé",
    "lat": 12.3546,
    "lon": 19.6139
  },
  {
    "id": 2435779,
    "name": "Bédiondo",
    "lat": 8.62891,
    "lon": 17.18643
  },
  {
    "id": 2435474,
    "name": "Béré",
    "lat": 9.3202,
    "lon": 16.1552
  },
  {
    "id": 2436212,
    "name": "Baïbokoum",
    "lat": 7.74231,
    "lon": 15.68999
  },
  {
    "id": 2427034,
    "name": "Ngama",
    "lat": 11.78729,
    "lon": 17.15925
  },
  {
    "id": 2427949,
    "name": "Melfi",
    "lat": 11.0598,
    "lon": 17.9355
  },
  {
    "id": 2435708,
    "name": "Beïnamar",
    "lat": 8.6698,
    "lon": 15.3813
  },
  {
    "id": 2427036,
    "name": "Ngama",
    "lat": 11.78333,
    "lon": 17.16667
  },
  {
    "id": 2429359,
    "name": "Krim Krim",
    "lat": 8.97225,
    "lon": 15.80359
  },
  {
    "id": 2437601,
    "name": "Abou Déïa",
    "lat": 11.448,
    "lon": 19.2789
  },
  {
    "id": 2431736,
    "name": "Goundi",
    "lat": 9.36267,
    "lon": 17.36597
  },
  {
    "id": 2426904,
    "name": "Ngouri",
    "lat": 8.5135,
    "lon": 16.00682
  },
  {
    "id": 2435060,
    "name": "Bodo",
    "lat": 11.78701,
    "lon": 15.71496
  },
  {
    "id": 12640347,
    "name": "Kirdimi",
    "lat": 18.15223,
    "lon": 18.5385
  },
  {
    "id": 2435837,
    "name": "Béboto",
    "lat": 8.26681,
    "lon": 16.93898
  },
  {
    "id": 245791,
    "name": "Abdi",
    "lat": 12.8,
    "lon": 21.3
  },
  {
    "id": 8299879,
    "name": "Haraze",
    "lat": 9.93969,
    "lon": 20.90524
  },
  {
    "id": 2426784,
    "name": "Nokou",
    "lat": 14.57901,
    "lon": 14.7793
  },
  {
    "id": 245501,
    "name": "Am Dam",
    "lat": 12.76667,
    "lon": 20.48333
  },
  {
    "id": 2424324,
    "name": "Yao",
    "lat": 12.8488,
    "lon": 17.55656
  },
  {
    "id": 2425906,
    "name": "Salal",
    "lat": 14.8439,
    "lon": 17.2254
  },
  {
    "id": 243760,
    "name": "Guéréda",
    "lat": 14.51667,
    "lon": 22.08333
  },
  {
    "id": 2428216,
    "name": "Massenya",
    "lat": 11.40345,
    "lon": 16.17037
  },
  {
    "id": 2435976,
    "name": "Bardaï",
    "lat": 21.35468,
    "lon": 17.00158
  },
  {
    "id": 2436628,
    "name": "Aozou",
    "lat": 21.8375,
    "lon": 17.4275
  },
  {
    "id": 2427640,
    "name": "Mondo",
    "lat": 13.78224,
    "lon": 15.5352
  },
  {
    "id": 243783,
    "name": "Goz Béïda",
    "lat": 13.94563,
    "lon": 20.5468
  },
  {
    "id": 2424015,
    "name": "Zouar",
    "lat": 20.45833,
    "lon": 16.52778
  },
  {
    "id": 11242327,
    "name": "Vadanakallu",
    "lat": 14.17869,
    "lon": 14.17869
  },
  {
    "id": 2426037,
    "name": "Rig-Rig",
    "lat": 14.26471,
    "lon": 14.35216
  }
]