[
  {
    "id": 2365267,
    "name": "Lomé",
    "lat": 6.12874,
    "lng": 1.22154
  },
  {
    "id": 2364104,
    "name": "Sokodé",
    "lat": 8.98333,
    "lng": 1.13333
  },
  {
    "id": 2366152,
    "name": "Kara",
    "lat": 9.55111,
    "lng": 1.18611
  },
  {
    "id": 2367886,
    "name": "Atakpamé",
    "lat": 7.53333,
    "lng": 1.13333
  },
  {
    "id": 2365560,
    "name": "Kpalimé",
    "lat": 6.9,
    "lng": 0.63333
  },
  {
    "id": 2367568,
    "name": "Bassar",
    "lat": 9.25025,
    "lng": 0.78213
  },
  {
    "id": 2367164,
    "name": "Dapaong",
    "lat": 10.86225,
    "lng": 0.20762
  },
  {
    "id": 2363534,
    "name": "Tsévié",
    "lat": 6.42611,
    "lng": 1.21333
  },
  {
    "id": 2367990,
    "name": "Aného",
    "lat": 6.22798,
    "lng": 1.5919
  },
  {
    "id": 2365190,
    "name": "Mango",
    "lat": 10.35917,
    "lng": 0.47083
  },
  {
    "id": 2367981,
    "name": "Anié",
    "lat": 7.75,
    "lng": 1.2
  },
  {
    "id": 2364752,
    "name": "Notsé",
    "lat": 6.95,
    "lng": 1.16667
  },
  {
    "id": 2367226,
    "name": "Sinkassé",
    "lat": 11.10389,
    "lng": 0.00944
  },
  {
    "id": 2363908,
    "name": "Tchamba",
    "lat": 9.03333,
    "lng": 1.41667
  },
  {
    "id": 2364079,
    "name": "Sotouboua",
    "lat": 8.5634,
    "lng": 0.98399
  },
  {
    "id": 2367660,
    "name": "Badou",
    "lat": 7.58333,
    "lng": 0.6
  },
  {
    "id": 2364812,
    "name": "Niamtougou",
    "lat": 9.76806,
    "lng": 1.10528
  },
  {
    "id": 2367656,
    "name": "Bafilo",
    "lat": 9.35,
    "lng": 1.26667
  },
  {
    "id": 2364041,
    "name": "Tabligbo",
    "lat": 6.58333,
    "lng": 1.5
  },
  {
    "id": 2363490,
    "name": "Vogan",
    "lat": 6.33333,
    "lng": 1.53333
  },
  {
    "id": 2366168,
    "name": "Kandé",
    "lat": 9.95778,
    "lng": 1.04472
  },
  {
    "id": 2368035,
    "name": "Amlamé",
    "lat": 7.46667,
    "lng": 0.9
  },
  {
    "id": 2367423,
    "name": "Blitta",
    "lat": 8.32335,
    "lng": 0.98595
  },
  {
    "id": 2366445,
    "name": "Guérin-Kouka",
    "lat": 9.69056,
    "lng": 0.61139
  },
  {
    "id": 2368490,
    "name": "Afanyangan",
    "lat": 6.48333,
    "lng": 1.65
  },
  {
    "id": 2368574,
    "name": "Adéta",
    "lat": 7.13333,
    "lng": 0.73333
  },
  {
    "id": 2365571,
    "name": "Pagouda",
    "lat": 9.7525,
    "lng": 1.32778
  },
  {
    "id": 2363669,
    "name": "Tohoun",
    "lat": 7.03333,
    "lng": 1.61667
  },
  {
    "id": 2366775,
    "name": "Elavagnon",
    "lat": 7.28333,
    "lng": 0.71667
  },
  {
    "id": 2365673,
    "name": "Kouniohou",
    "lat": 7.66667,
    "lng": 0.8
  },
  {
    "id": 13132463,
    "name": "Danyi-Apéyémé",
    "lat": 7.20365,
    "lng": 0.69563
  },
  {
    "id": 2365195,
    "name": "Mandouri",
    "lat": 10.85,
    "lng": 0.81667
  },
  {
    "id": 2368301,
    "name": "Agou Gadzépé",
    "lat": 6.88333,
    "lng": 0.73333
  },
  {
    "id": 2366041,
    "name": "Kévé",
    "lat": 6.43333,
    "lng": 0.93333
  },
  {
    "id": 2363975,
    "name": "Tandjouaré",
    "lat": 10.65583,
    "lng": 0.195
  }
]