[
  {
    "id": 1221874,
    "name": "Dushanbe",
    "lat": 38.53575,
    "lng": 68.77905
  },
  {
    "id": 1514896,
    "name": "Isfara",
    "lat": 40.12649,
    "lng": 70.62526
  },
  {
    "id": 1220253,
    "name": "Istaravshan",
    "lat": 39.9142,
    "lng": 69.00328
  },
  {
    "id": 1221194,
    "name": "Kŭlob",
    "lat": 37.91459,
    "lng": 69.78454
  },
  {
    "id": 1514891,
    "name": "Konibodom",
    "lat": 40.29414,
    "lng": 70.43122
  },
  {
    "id": 1514879,
    "name": "Khujand",
    "lat": 40.28256,
    "lng": 69.62216
  },
  {
    "id": 1220747,
    "name": "Bokhtar",
    "lat": 37.83667,
    "lng": 68.7775
  },
  {
    "id": 1514883,
    "name": "Qayroqqum",
    "lat": 40.26598,
    "lng": 69.79585
  },
  {
    "id": 1220855,
    "name": "Vahdat",
    "lat": 38.55632,
    "lng": 69.01354
  },
  {
    "id": 1282601,
    "name": "Tursunzoda",
    "lat": 38.51271,
    "lng": 68.23163
  },
  {
    "id": 1538311,
    "name": "Buston",
    "lat": 40.23417,
    "lng": 69.69481
  },
  {
    "id": 1220798,
    "name": "Panjakent",
    "lat": 39.49524,
    "lng": 67.60931
  },
  {
    "id": 1221328,
    "name": "Khorugh",
    "lat": 37.48974,
    "lng": 71.55304
  },
  {
    "id": 1221614,
    "name": "Ishqoshim",
    "lat": 36.72484,
    "lng": 71.61331
  },
  {
    "id": 1221714,
    "name": "Hisor",
    "lat": 38.52504,
    "lng": 68.55124
  },
  {
    "id": 1222107,
    "name": "Boshkengash",
    "lat": 38.46613,
    "lng": 68.80533
  },
  {
    "id": 1221970,
    "name": "Dalyoni Bolo",
    "lat": 39.74897,
    "lng": 68.99566
  },
  {
    "id": 1221965,
    "name": "Danghara",
    "lat": 38.09578,
    "lng": 69.33998
  },
  {
    "id": 8416817,
    "name": "Moskovskiy",
    "lat": 37.60931,
    "lng": 68.58094
  },
  {
    "id": 1220826,
    "name": "Farkhor",
    "lat": 37.49219,
    "lng": 69.40356
  },
  {
    "id": 1220163,
    "name": "Hulbuk",
    "lat": 37.80542,
    "lng": 69.64516
  },
  {
    "id": 1221997,
    "name": "Chubek",
    "lat": 37.61453,
    "lng": 69.70525
  },
  {
    "id": 1221259,
    "name": "Kolkhozobod",
    "lat": 37.58823,
    "lng": 68.65886
  },
  {
    "id": 1220905,
    "name": "Norak",
    "lat": 38.38917,
    "lng": 69.32272
  },
  {
    "id": 1514829,
    "name": "Taboshar",
    "lat": 40.57017,
    "lng": 69.64175
  },
  {
    "id": 1220112,
    "name": "Yovon",
    "lat": 38.31408,
    "lng": 69.03784
  },
  {
    "id": 1514839,
    "name": "Proletar",
    "lat": 40.16713,
    "lng": 69.50163
  },
  {
    "id": 1220219,
    "name": "Vakhsh",
    "lat": 37.71485,
    "lng": 68.83456
  },
  {
    "id": 1514856,
    "name": "Nov",
    "lat": 40.1522,
    "lng": 69.37076
  },
  {
    "id": 1514929,
    "name": "Adrasmon",
    "lat": 40.64928,
    "lng": 69.98472
  },
  {
    "id": 1514913,
    "name": "Bŭston",
    "lat": 40.52286,
    "lng": 69.33307
  },
  {
    "id": 1220576,
    "name": "Shahritus",
    "lat": 37.26206,
    "lng": 68.13849
  },
  {
    "id": 1221091,
    "name": "Mŭ’minobod",
    "lat": 38.10714,
    "lng": 70.03213
  },
  {
    "id": 1514921,
    "name": "Shaydon",
    "lat": 40.66992,
    "lng": 70.3502
  },
  {
    "id": 1220962,
    "name": "Murghob",
    "lat": 38.17023,
    "lng": 73.96674
  },
  {
    "id": 1221740,
    "name": "Rasht",
    "lat": 39.02871,
    "lng": 70.37446
  },
  {
    "id": 1475852,
    "name": "Avzikent",
    "lat": 37.80333,
    "lng": 69.27722
  },
  {
    "id": 1221136,
    "name": "Abdurahmoni Jomí",
    "lat": 37.94636,
    "lng": 68.80878
  },
  {
    "id": 1221344,
    "name": "Khodzha-Maston",
    "lat": 38.74457,
    "lng": 68.62702
  },
  {
    "id": 1221871,
    "name": "Dŭstí",
    "lat": 37.34812,
    "lng": 68.66398
  },
  {
    "id": 1220446,
    "name": "Sovet",
    "lat": 38.0467,
    "lng": 69.58822
  },
  {
    "id": 1221748,
    "name": "Gharavŭtí",
    "lat": 37.56703,
    "lng": 68.44668
  },
  {
    "id": 1514844,
    "name": "Pakhtakoron",
    "lat": 40.15709,
    "lng": 68.74659
  },
  {
    "id": 1220750,
    "name": "Panj",
    "lat": 37.23634,
    "lng": 69.09911
  },
  {
    "id": 1221135,
    "name": "Bokhtariyon",
    "lat": 37.88176,
    "lng": 68.7297
  },
  {
    "id": 1220701,
    "name": "Roghun",
    "lat": 38.78257,
    "lng": 69.87081
  },
  {
    "id": 1221297,
    "name": "Kirov",
    "lat": 37.81908,
    "lng": 68.85905
  },
  {
    "id": 1220888,
    "name": "Obigarm",
    "lat": 38.71731,
    "lng": 69.70885
  },
  {
    "id": 1222007,
    "name": "Chorbogh",
    "lat": 39.42621,
    "lng": 67.76025
  },
  {
    "id": 1514889,
    "name": "Konsoy",
    "lat": 40.49155,
    "lng": 69.70245
  },
  {
    "id": 1220853,
    "name": "Orzu",
    "lat": 37.5582,
    "lng": 68.81952
  },
  {
    "id": 1220628,
    "name": "Sarikhosor",
    "lat": 38.53852,
    "lng": 69.83077
  },
  {
    "id": 1221808,
    "name": "Jilikŭl",
    "lat": 37.49167,
    "lng": 68.53106
  },
  {
    "id": 1220566,
    "name": "Shahrinav",
    "lat": 38.57085,
    "lng": 68.33498
  },
  {
    "id": 1220936,
    "name": "Novobod",
    "lat": 39.01084,
    "lng": 70.15082
  },
  {
    "id": 1222085,
    "name": "Bŭstonqal’a",
    "lat": 37.84783,
    "lng": 68.83125
  },
  {
    "id": 1514925,
    "name": "Oltintopkan",
    "lat": 40.65425,
    "lng": 69.59811
  },
  {
    "id": 1514852,
    "name": "Neftobod",
    "lat": 40.21524,
    "lng": 70.57193
  },
  {
    "id": 1222009,
    "name": "Boshchorbogh",
    "lat": 37.52027,
    "lng": 68.12825
  },
  {
    "id": 13513025,
    "name": "Shhriston",
    "lat": 38.55571,
    "lng": 68.98987
  },
  {
    "id": 1220164,
    "name": "Vorukh",
    "lat": 39.85125,
    "lng": 70.58012
  },
  {
    "id": 1514870,
    "name": "Quruqsoy",
    "lat": 40.57648,
    "lng": 69.37962
  },
  {
    "id": 1514843,
    "name": "Palos",
    "lat": 40.31628,
    "lng": 69.73743
  },
  {
    "id": 1514831,
    "name": "Shŭrob",
    "lat": 40.04605,
    "lng": 70.54117
  },
  {
    "id": 1221494,
    "name": "Karakenja",
    "lat": 39.23585,
    "lng": 71.52412
  },
  {
    "id": 1220401,
    "name": "Tagob",
    "lat": 38.83827,
    "lng": 68.89847
  },
  {
    "id": 1220380,
    "name": "Tartiki",
    "lat": 37.58221,
    "lng": 68.13347
  },
  {
    "id": 1220197,
    "name": "Varzob",
    "lat": 38.77369,
    "lng": 68.81776
  },
  {
    "id": 1222222,
    "name": "Ayní",
    "lat": 39.39406,
    "lng": 68.53766
  },
  {
    "id": 1514877,
    "name": "Kim",
    "lat": 40.20798,
    "lng": 70.46882
  },
  {
    "id": 1221250,
    "name": "Darband",
    "lat": 38.86776,
    "lng": 69.96642
  },
  {
    "id": 1514854,
    "name": "Navgarzan",
    "lat": 40.99827,
    "lng": 70.42749
  }
]