[
  {
    "id": 1645457,
    "name": "Dili",
    "lat": -8.55861,
    "lon": 125.57361
  },
  {
    "id": 1636670,
    "name": "Maliana",
    "lat": -8.99167,
    "lon": 125.21972
  },
  {
    "id": 1626459,
    "name": "Suai",
    "lat": -9.31286,
    "lon": 125.25648
  },
  {
    "id": 1637730,
    "name": "Likisá",
    "lat": -8.5875,
    "lon": 125.34194
  },
  {
    "id": 1651816,
    "name": "Aileu",
    "lat": -8.72806,
    "lon": 125.56639
  },
  {
    "id": 1937274,
    "name": "Lospalos",
    "lat": -8.52167,
    "lon": 126.99833
  },
  {
    "id": 1635826,
    "name": "Maubara",
    "lat": -8.61194,
    "lon": 125.20611
  },
  {
    "id": 1943235,
    "name": "Venilale",
    "lat": -8.64306,
    "lon": 126.37833
  },
  {
    "id": 1649539,
    "name": "Baukau",
    "lat": -8.47572,
    "lon": 126.45633
  },
  {
    "id": 1651810,
    "name": "Ainaro",
    "lat": -8.99241,
    "lon": 125.50816
  },
  {
    "id": 1635814,
    "name": "Atauro",
    "lat": -8.26667,
    "lon": 125.60139
  },
  {
    "id": 1942811,
    "name": "Gleno",
    "lat": -8.72389,
    "lon": 125.43611
  },
  {
    "id": 1623886,
    "name": "Tilomar",
    "lat": -9.34001,
    "lon": 125.11278
  },
  {
    "id": 1628926,
    "name": "Same",
    "lat": -9.00417,
    "lon": 125.64861
  },
  {
    "id": 1622471,
    "name": "Viqueque",
    "lat": -8.8575,
    "lon": 126.36472
  },
  {
    "id": 1649996,
    "name": "Barique",
    "lat": -8.83333,
    "lon": 126.06667
  },
  {
    "id": 1632533,
    "name": "Pante Makasar",
    "lat": -9.2,
    "lon": 124.38333
  },
  {
    "id": 1944181,
    "name": "Fohorem",
    "lat": -9.28361,
    "lon": 125.08944
  },
  {
    "id": 1943194,
    "name": "Dare",
    "lat": -8.59273,
    "lon": 125.571
  },
  {
    "id": 1635288,
    "name": "Metinaro",
    "lat": -8.53007,
    "lon": 125.74163
  },
  {
    "id": 1942993,
    "name": "Tutuala",
    "lat": -8.3938,
    "lon": 127.25544
  },
  {
    "id": 8643023,
    "name": "Irabin de Baixo",
    "lat": -8.74861,
    "lon": 126.69694
  },
  {
    "id": 1943145,
    "name": "Aissirimou",
    "lat": -8.72607,
    "lon": 125.57146
  },
  {
    "id": 8629790,
    "name": "Lifau",
    "lat": -9.20418,
    "lon": 124.31447
  },
  {
    "id": 1637754,
    "name": "Lifau",
    "lat": -9.20279,
    "lon": 124.30879
  },
  {
    "id": 1636526,
    "name": "Manatutu",
    "lat": -8.51139,
    "lon": 126.01306
  }
]