[
  {
    "id": 703448,
    "name": "Kyiv",
    "lat": 50.45466,
    "lng": 30.5238
  },
  {
    "id": 706483,
    "name": "Kharkiv",
    "lat": 49.98177,
    "lng": 36.25475
  },
  {
    "id": 698740,
    "name": "Odesa",
    "lat": 46.48572,
    "lng": 30.74383
  },
  {
    "id": 709930,
    "name": "Dnipro",
    "lat": 48.46664,
    "lng": 35.04066
  },
  {
    "id": 709717,
    "name": "Donetsk",
    "lat": 48.023,
    "lng": 37.80224
  },
  {
    "id": 702550,
    "name": "Lviv",
    "lat": 49.83826,
    "lng": 24.02324
  },
  {
    "id": 687700,
    "name": "Zaporizhzhya",
    "lat": 47.85167,
    "lng": 35.11714
  },
  {
    "id": 703845,
    "name": "Kryvyy Rih",
    "lat": 47.90572,
    "lng": 33.39404
  },
  {
    "id": 694423,
    "name": "Sevastopol",
    "lat": 44.60795,
    "lng": 33.52134
  },
  {
    "id": 700569,
    "name": "Mykolayiv",
    "lat": 46.97625,
    "lng": 31.99296
  },
  {
    "id": 702658,
    "name": "Luhansk",
    "lat": 48.56814,
    "lng": 39.30553
  },
  {
    "id": 689558,
    "name": "Vinnytsya",
    "lat": 49.2322,
    "lng": 28.46871
  },
  {
    "id": 702320,
    "name": "Makiivka",
    "lat": 48.04782,
    "lng": 37.92576
  },
  {
    "id": 693805,
    "name": "Simferopol",
    "lat": 44.95719,
    "lng": 34.11079
  },
  {
    "id": 8519916,
    "name": "Obolon",
    "lat": 50.51627,
    "lng": 30.50636
  },
  {
    "id": 710735,
    "name": "Chernihiv",
    "lat": 51.50541,
    "lng": 31.28656
  },
  {
    "id": 706448,
    "name": "Kherson",
    "lat": 46.63695,
    "lng": 32.61458
  },
  {
    "id": 696643,
    "name": "Poltava",
    "lat": 49.58925,
    "lng": 34.55367
  },
  {
    "id": 706369,
    "name": "Khmelnytskyi",
    "lat": 49.41835,
    "lng": 26.97936
  },
  {
    "id": 710791,
    "name": "Cherkasy",
    "lat": 49.44452,
    "lng": 32.05738
  },
  {
    "id": 710719,
    "name": "Chernivtsi",
    "lat": 48.29045,
    "lng": 25.93241
  },
  {
    "id": 686967,
    "name": "Zhytomyr",
    "lat": 50.26235,
    "lng": 28.67913
  },
  {
    "id": 692194,
    "name": "Sumy",
    "lat": 50.91741,
    "lng": 34.79906
  },
  {
    "id": 695594,
    "name": "Rivne",
    "lat": 50.62036,
    "lng": 26.23695
  },
  {
    "id": 707753,
    "name": "Horlivka",
    "lat": 48.33576,
    "lng": 38.05325
  },
  {
    "id": 707471,
    "name": "Ivano-Frankivsk",
    "lat": 48.92312,
    "lng": 24.71248
  },
  {
    "id": 709932,
    "name": "Kamyanske",
    "lat": 48.51716,
    "lng": 34.60617
  },
  {
    "id": 691650,
    "name": "Ternopil",
    "lat": 49.55404,
    "lng": 25.59067
  },
  {
    "id": 705812,
    "name": "Kropyvnytskyy",
    "lat": 48.50834,
    "lng": 32.26618
  },
  {
    "id": 704147,
    "name": "Kremenchuk",
    "lat": 49.06253,
    "lng": 33.40484
  },
  {
    "id": 702569,
    "name": "Lutsk",
    "lat": 50.75784,
    "lng": 25.35024
  },
  {
    "id": 712165,
    "name": "Bila Tserkva",
    "lat": 49.8004,
    "lng": 30.12851
  },
  {
    "id": 706524,
    "name": "Kerch",
    "lat": 45.35675,
    "lng": 36.47542
  },
  {
    "id": 701404,
    "name": "Melitopol",
    "lat": 46.84735,
    "lng": 35.38196
  },
  {
    "id": 704508,
    "name": "Kramatorsk",
    "lat": 48.73049,
    "lng": 37.58793
  },
  {
    "id": 701822,
    "name": "Mariupol",
    "lat": 47.09514,
    "lng": 37.54131
  },
  {
    "id": 690548,
    "name": "Uzhhorod",
    "lat": 48.6242,
    "lng": 22.2947
  },
  {
    "id": 711390,
    "name": "Brovary",
    "lat": 50.51809,
    "lng": 30.80671
  },
  {
    "id": 712451,
    "name": "Berdyansk",
    "lat": 46.75578,
    "lng": 36.78815
  },
  {
    "id": 688105,
    "name": "Yevpatoriya",
    "lat": 45.20091,
    "lng": 33.36655
  },
  {
    "id": 713716,
    "name": "Alchevsk",
    "lat": 48.46893,
    "lng": 38.81669
  },
  {
    "id": 700051,
    "name": "Nikopol",
    "lat": 47.56826,
    "lng": 34.39126
  },
  {
    "id": 693468,
    "name": "Sloviansk",
    "lat": 48.84974,
    "lng": 37.59739
  },
  {
    "id": 697889,
    "name": "Pavlohrad",
    "lat": 48.53214,
    "lng": 35.86878
  },
  {
    "id": 690688,
    "name": "Uman",
    "lat": 48.7501,
    "lng": 30.21944
  },
  {
    "id": 691999,
    "name": "Sievierodonetsk",
    "lat": 48.94628,
    "lng": 38.48624
  },
  {
    "id": 706950,
    "name": "Kamianets-Podilskyi",
    "lat": 48.67882,
    "lng": 26.58516
  },
  {
    "id": 702972,
    "name": "Lysychansk",
    "lat": 48.90421,
    "lng": 38.44094
  },
  {
    "id": 700646,
    "name": "Mukachevo",
    "lat": 48.44248,
    "lng": 22.718
  },
  {
    "id": 705135,
    "name": "Konotop",
    "lat": 51.24032,
    "lng": 33.20263
  },
  {
    "id": 713174,
    "name": "Bakhmut",
    "lat": 48.59441,
    "lng": 37.99983
  },
  {
    "id": 704202,
    "name": "Khrustalnyi",
    "lat": 48.13954,
    "lng": 38.93715
  },
  {
    "id": 688533,
    "name": "Yalta",
    "lat": 44.50218,
    "lng": 34.16624
  },
  {
    "id": 688148,
    "name": "Yenakiieve",
    "lat": 48.23857,
    "lng": 38.20403
  },
  {
    "id": 698625,
    "name": "Oleksandriya",
    "lat": 48.67466,
    "lng": 33.11761
  },
  {
    "id": 709611,
    "name": "Drohobych",
    "lat": 49.351,
    "lng": 23.5174
  },
  {
    "id": 692975,
    "name": "Kadiyivka",
    "lat": 48.56818,
    "lng": 38.64352
  },
  {
    "id": 693942,
    "name": "Shostka",
    "lat": 51.86296,
    "lng": 33.4698
  },
  {
    "id": 712441,
    "name": "Berdychiv",
    "lat": 49.89408,
    "lng": 28.60144
  },
  {
    "id": 694382,
    "name": "Shakhtarsk",
    "lat": 48.05657,
    "lng": 38.43826
  },
  {
    "id": 699445,
    "name": "Samar",
    "lat": 48.62893,
    "lng": 35.2589
  },
  {
    "id": 707308,
    "name": "Izmail",
    "lat": 45.35058,
    "lng": 28.83751
  },
  {
    "id": 709161,
    "name": "Feodosiya",
    "lat": 45.03199,
    "lng": 35.38153
  },
  {
    "id": 704617,
    "name": "Kovel",
    "lat": 51.21526,
    "lng": 24.70867
  },
  {
    "id": 705104,
    "name": "Kostiantynivka",
    "lat": 48.52728,
    "lng": 37.70594
  },
  {
    "id": 699942,
    "name": "Nizhyn",
    "lat": 51.04801,
    "lng": 31.88688
  },
  {
    "id": 693457,
    "name": "Smila",
    "lat": 49.23295,
    "lng": 31.88427
  },
  {
    "id": 707565,
    "name": "Irpin",
    "lat": 50.52175,
    "lng": 30.25055
  },
  {
    "id": 707099,
    "name": "Kalush",
    "lat": 49.02398,
    "lng": 24.37206
  },
  {
    "id": 710554,
    "name": "Chervonohrad",
    "lat": 50.39105,
    "lng": 24.23514
  },
  {
    "id": 711660,
    "name": "Boryspil",
    "lat": 50.35269,
    "lng": 30.95501
  },
  {
    "id": 692105,
    "name": "Dovzhansk",
    "lat": 48.08964,
    "lng": 39.65243
  },
  {
    "id": 697593,
    "name": "Pervomaysk",
    "lat": 48.04478,
    "lng": 30.84784
  },
  {
    "id": 707601,
    "name": "Inhulets",
    "lat": 47.7301,
    "lng": 33.25189
  },
  {
    "id": 704901,
    "name": "Korosten",
    "lat": 50.95937,
    "lng": 28.63855
  },
  {
    "id": 692372,
    "name": "Stryi",
    "lat": 49.26171,
    "lng": 23.84721
  },
  {
    "id": 705392,
    "name": "Kolomyia",
    "lat": 48.52496,
    "lng": 25.03712
  },
  {
    "id": 704422,
    "name": "Pokrovsk",
    "lat": 48.2824,
    "lng": 37.17772
  },
  {
    "id": 707688,
    "name": "Chornomors’k",
    "lat": 46.29914,
    "lng": 30.65529
  },
  {
    "id": 706466,
    "name": "Khartsyzk",
    "lat": 48.04243,
    "lng": 38.14728
  },
  {
    "id": 699553,
    "name": "Zviahel",
    "lat": 50.59412,
    "lng": 27.6165
  },
  {
    "id": 693381,
    "name": "Snizhne",
    "lat": 48.02612,
    "lng": 38.77225
  },
  {
    "id": 695274,
    "name": "Rubizhne",
    "lat": 49.00606,
    "lng": 38.38119
  },
  {
    "id": 702760,
    "name": "Lozova",
    "lat": 48.88937,
    "lng": 36.31755
  },
  {
    "id": 616743,
    "name": "Druzhkivka",
    "lat": 48.61897,
    "lng": 37.52704
  },
  {
    "id": 691374,
    "name": "Chystyakove",
    "lat": 48.03876,
    "lng": 38.59685
  },
  {
    "id": 709276,
    "name": "Enerhodar",
    "lat": 47.49048,
    "lng": 34.66199
  },
  {
    "id": 696108,
    "name": "Pryluky",
    "lat": 50.59323,
    "lng": 32.38761
  },
  {
    "id": 713259,
    "name": "Antratsyt",
    "lat": 48.11503,
    "lng": 39.09128
  },
  {
    "id": 6559559,
    "name": "Horishni Plavni",
    "lat": 49.00835,
    "lng": 33.62926
  },
  {
    "id": 699035,
    "name": "Novovolynsk",
    "lat": 50.72576,
    "lng": 24.16265
  },
  {
    "id": 704403,
    "name": "Sorokyne",
    "lat": 48.29235,
    "lng": 39.73921
  },
  {
    "id": 712160,
    "name": "Bilhorod-Dnistrovskyi",
    "lat": 46.19484,
    "lng": 30.34827
  },
  {
    "id": 713749,
    "name": "Okhtyrka",
    "lat": 50.31036,
    "lng": 34.89879
  },
  {
    "id": 710035,
    "name": "Myrnohrad",
    "lat": 48.3099,
    "lng": 37.26513
  },
  {
    "id": 707292,
    "name": "Izium",
    "lat": 49.20697,
    "lng": 37.27679
  },
  {
    "id": 695379,
    "name": "Rovenky",
    "lat": 48.08331,
    "lng": 39.37764
  },
  {
    "id": 701855,
    "name": "Marhanets",
    "lat": 47.63088,
    "lng": 34.6245
  },
  {
    "id": 711369,
    "name": "Brianka",
    "lat": 48.511,
    "lng": 38.67222
  },
  {
    "id": 702723,
    "name": "Lubny",
    "lat": 50.01413,
    "lng": 32.99975
  },
  {
    "id": 699839,
    "name": "Nova Kakhovka",
    "lat": 46.75966,
    "lng": 33.35591
  },
  {
    "id": 709248,
    "name": "Fastiv",
    "lat": 50.0767,
    "lng": 29.9177
  },
  {
    "id": 692087,
    "name": "Svitlovodsk",
    "lat": 49.06287,
    "lng": 33.2458
  },
  {
    "id": 689487,
    "name": "Vyshneve",
    "lat": 50.38913,
    "lng": 30.3705
  },
  {
    "id": 711350,
    "name": "Bucha",
    "lat": 50.54345,
    "lng": 30.21201
  },
  {
    "id": 687196,
    "name": "Zhovti Vody",
    "lat": 48.34518,
    "lng": 33.49743
  },
  {
    "id": 8341919,
    "name": "Varash",
    "lat": 51.3509,
    "lng": 25.84738
  },
  {
    "id": 709334,
    "name": "Dzhankoi",
    "lat": 45.7131,
    "lng": 34.39273
  },
  {
    "id": 694216,
    "name": "Shepetivka",
    "lat": 50.18118,
    "lng": 27.06517
  },
  {
    "id": 701075,
    "name": "Myrhorod",
    "lat": 49.96464,
    "lng": 33.60861
  },
  {
    "id": 704679,
    "name": "Podilsk",
    "lat": 47.74988,
    "lng": 29.53074
  },
  {
    "id": 7525990,
    "name": "Pivdennoukrainsk",
    "lat": 47.82879,
    "lng": 31.17513
  },
  {
    "id": 695464,
    "name": "Romny",
    "lat": 50.75104,
    "lng": 33.47471
  },
  {
    "id": 689378,
    "name": "Volodymyr-Volynskyi",
    "lat": 50.85253,
    "lng": 24.32364
  },
  {
    "id": 688373,
    "name": "Yasynuvata",
    "lat": 48.1298,
    "lng": 37.8594
  },
  {
    "id": 698436,
    "name": "Pokrov",
    "lat": 47.65361,
    "lng": 34.11488
  },
  {
    "id": 709540,
    "name": "Dubno",
    "lat": 50.41694,
    "lng": 25.73432
  },
  {
    "id": 690412,
    "name": "Vasylkiv",
    "lat": 50.18693,
    "lng": 30.31346
  },
  {
    "id": 710374,
    "name": "Chuhuiv",
    "lat": 49.83538,
    "lng": 36.6865
  },
  {
    "id": 700261,
    "name": "Netishyn",
    "lat": 50.32863,
    "lng": 26.64872
  },
  {
    "id": 697592,
    "name": "Pervomaisk",
    "lat": 48.62831,
    "lng": 38.56205
  },
  {
    "id": 707244,
    "name": "Kakhovka",
    "lat": 46.81601,
    "lng": 33.47862
  },
  {
    "id": 713122,
    "name": "Avdiivka",
    "lat": 48.14019,
    "lng": 37.75008
  },
  {
    "id": 693581,
    "name": "Slavuta",
    "lat": 50.29609,
    "lng": 26.86613
  },
  {
    "id": 687116,
    "name": "Zhmerynka",
    "lat": 49.03523,
    "lng": 28.11405
  },
  {
    "id": 711515,
    "name": "Boiarka",
    "lat": 50.31911,
    "lng": 30.29728
  },
  {
    "id": 692818,
    "name": "Starokostyantyniv",
    "lat": 49.75522,
    "lng": 27.21229
  },
  {
    "id": 694864,
    "name": "Sambir",
    "lat": 49.51631,
    "lng": 23.2006
  },
  {
    "id": 688860,
    "name": "Voznesensk",
    "lat": 47.56218,
    "lng": 31.33602
  },
  {
    "id": 687997,
    "name": "Pivdenne",
    "lat": 46.62472,
    "lng": 31.10182
  },
  {
    "id": 711669,
    "name": "Boryslav",
    "lat": 49.29208,
    "lng": 23.42577
  },
  {
    "id": 707758,
    "name": "Hlukhiv",
    "lat": 51.67822,
    "lng": 33.9162
  },
  {
    "id": 698782,
    "name": "Obukhiv",
    "lat": 50.10689,
    "lng": 30.61848
  },
  {
    "id": 8468760,
    "name": "Novoyavorivs'k",
    "lat": 49.93023,
    "lng": 23.57357
  },
  {
    "id": 709354,
    "name": "Toretsk",
    "lat": 48.39477,
    "lng": 37.8478
  },
  {
    "id": 704737,
    "name": "Kostopil",
    "lat": 50.87841,
    "lng": 26.45192
  },
  {
    "id": 704362,
    "name": "Yany Kapu",
    "lat": 45.95547,
    "lng": 33.79261
  },
  {
    "id": 700918,
    "name": "Mohyliv-Podilskyy",
    "lat": 48.44278,
    "lng": 27.79975
  },
  {
    "id": 693796,
    "name": "Synelnykove",
    "lat": 48.32362,
    "lng": 35.52612
  },
  {
    "id": 713513,
    "name": "Alushta",
    "lat": 44.67728,
    "lng": 34.4097
  },
  {
    "id": 691469,
    "name": "Tokmak",
    "lat": 47.25554,
    "lng": 35.70836
  },
  {
    "id": 694792,
    "name": "Sarny",
    "lat": 51.33795,
    "lng": 26.60191
  },
  {
    "id": 697576,
    "name": "Zlatopil",
    "lat": 49.37646,
    "lng": 36.21848
  },
  {
    "id": 706165,
    "name": "Khust",
    "lat": 48.17193,
    "lng": 23.29791
  },
  {
    "id": 710400,
    "name": "Chortkiv",
    "lat": 49.01701,
    "lng": 25.79808
  },
  {
    "id": 694910,
    "name": "Saki",
    "lat": 45.13424,
    "lng": 33.59996
  },
  {
    "id": 698874,
    "name": "Novyi Rozdil",
    "lat": 49.46864,
    "lng": 24.13045
  },
  {
    "id": 691179,
    "name": "Truskavets",
    "lat": 49.27832,
    "lng": 23.50998
  },
  {
    "id": 709900,
    "name": "Dobropillia",
    "lat": 48.46147,
    "lng": 37.08524
  },
  {
    "id": 686875,
    "name": "Zolotonosha",
    "lat": 49.66926,
    "lng": 32.03637
  },
  {
    "id": 706380,
    "name": "Khmilnyk",
    "lat": 49.5581,
    "lng": 27.95682
  },
  {
    "id": 697616,
    "name": "Shakhtarske",
    "lat": 48.3479,
    "lng": 36.39637
  },
  {
    "id": 712969,
    "name": "Bakhchysarai",
    "lat": 44.75525,
    "lng": 33.85782
  },
  {
    "id": 705797,
    "name": "Khrestivka",
    "lat": 48.14918,
    "lng": 38.35944
  },
  {
    "id": 703656,
    "name": "Kupiansk",
    "lat": 49.71003,
    "lng": 37.61581
  },
  {
    "id": 691628,
    "name": "Ternivka",
    "lat": 48.52656,
    "lng": 36.07051
  },
  {
    "id": 705809,
    "name": "Holubivka",
    "lat": 48.63751,
    "lng": 38.6428
  },
  {
    "id": 712926,
    "name": "Balakliia",
    "lat": 49.45595,
    "lng": 36.84433
  },
  {
    "id": 697637,
    "name": "Pereiaslav",
    "lat": 50.06739,
    "lng": 31.44969
  },
  {
    "id": 13513215,
    "name": "Sofiivska Borschahivka",
    "lat": 50.40931,
    "lng": 30.35908
  },
  {
    "id": 708901,
    "name": "Haysyn",
    "lat": 48.81294,
    "lng": 29.37917
  },
  {
    "id": 688746,
    "name": "Vynohradiv",
    "lat": 48.14126,
    "lng": 23.03623
  },
  {
    "id": 702116,
    "name": "Malyn",
    "lat": 50.77233,
    "lng": 29.23833
  },
  {
    "id": 697650,
    "name": "Perevalsk",
    "lat": 48.43779,
    "lng": 38.84384
  },
  {
    "id": 691037,
    "name": "Oleshky",
    "lat": 46.62553,
    "lng": 32.72426
  },
  {
    "id": 687432,
    "name": "Zdolbuniv",
    "lat": 50.5206,
    "lng": 26.24251
  },
  {
    "id": 6930327,
    "name": "Slavutych",
    "lat": 51.5225,
    "lng": 30.71806
  },
  {
    "id": 713203,
    "name": "Armyansk",
    "lat": 46.10919,
    "lng": 33.69206
  },
  {
    "id": 710229,
    "name": "Debaltseve",
    "lat": 48.338,
    "lng": 38.40239
  },
  {
    "id": 704885,
    "name": "Korostyshiv",
    "lat": 50.31723,
    "lng": 29.0563
  },
  {
    "id": 704000,
    "name": "Krolevets",
    "lat": 51.54775,
    "lng": 33.38475
  },
  {
    "id": 613273,
    "name": "Lebedyn",
    "lat": 50.58518,
    "lng": 34.4849
  },
  {
    "id": 706900,
    "name": "Kaniv",
    "lat": 49.75187,
    "lng": 31.47003
  },
  {
    "id": 709054,
    "name": "Hadyach",
    "lat": 50.36912,
    "lng": 33.997
  },
  {
    "id": 712423,
    "name": "Berehove",
    "lat": 48.20514,
    "lng": 22.64453
  },
  {
    "id": 706571,
    "name": "Koziatyn",
    "lat": 49.7164,
    "lng": 28.83858
  },
  {
    "id": 711416,
    "name": "Brody",
    "lat": 50.08791,
    "lng": 25.15027
  },
  {
    "id": 709835,
    "name": "Dokuchaievsk",
    "lat": 47.7522,
    "lng": 37.67761
  },
  {
    "id": 686896,
    "name": "Zolochiv",
    "lat": 49.80755,
    "lng": 24.90056
  },
  {
    "id": 700507,
    "name": "Nadvirna",
    "lat": 48.63659,
    "lng": 24.5714
  },
  {
    "id": 703428,
    "name": "Ladyzhyn",
    "lat": 48.68437,
    "lng": 29.23636
  },
  {
    "id": 700829,
    "name": "Molodohvardiisk",
    "lat": 48.34511,
    "lng": 39.65244
  },
  {
    "id": 686919,
    "name": "Znamyanka",
    "lat": 48.72066,
    "lng": 32.65822
  },
  {
    "id": 688723,
    "name": "Vyshhorod",
    "lat": 50.58476,
    "lng": 30.4898
  },
  {
    "id": 689200,
    "name": "Vilnohirsk",
    "lat": 48.48416,
    "lng": 34.01708
  },
  {
    "id": 692832,
    "name": "Starobilsk",
    "lat": 49.27719,
    "lng": 38.91673
  },
  {
    "id": 694677,
    "name": "Selydove",
    "lat": 48.14446,
    "lng": 37.30058
  },
  {
    "id": 704388,
    "name": "Berestyn",
    "lat": 49.37511,
    "lng": 35.45493
  },
  {
    "id": 712590,
    "name": "Bilohorodka",
    "lat": 50.38969,
    "lng": 30.22532
  },
  {
    "id": 701347,
    "name": "Merefa",
    "lat": 49.81861,
    "lng": 36.05653
  },
  {
    "id": 689198,
    "name": "Volnovakha",
    "lat": 47.6016,
    "lng": 37.49712
  },
  {
    "id": 704143,
    "name": "Kremenets",
    "lat": 50.09864,
    "lng": 25.72787
  },
  {
    "id": 696660,
    "name": "Polonne",
    "lat": 50.11944,
    "lng": 27.50856
  },
  {
    "id": 703646,
    "name": "Kurakhovo",
    "lat": 47.98522,
    "lng": 37.2821
  },
  {
    "id": 709755,
    "name": "Dolyna",
    "lat": 48.97158,
    "lng": 23.96558
  },
  {
    "id": 692254,
    "name": "Sukhodilsk",
    "lat": 48.35022,
    "lng": 39.72698
  },
  {
    "id": 693301,
    "name": "Sokal",
    "lat": 50.47438,
    "lng": 24.28288
  },
  {
    "id": 692632,
    "name": "Stebnyk",
    "lat": 49.30098,
    "lng": 23.55197
  },
  {
    "id": 704204,
    "name": "Lyman",
    "lat": 48.98616,
    "lng": 37.80307
  },
  {
    "id": 702417,
    "name": "Liubotyn",
    "lat": 49.94691,
    "lng": 35.92907
  },
  {
    "id": 704608,
    "name": "Kivsharivka",
    "lat": 49.63026,
    "lng": 37.6775
  },
  {
    "id": 691255,
    "name": "Trostianets",
    "lat": 50.48478,
    "lng": 34.96567
  },
  {
    "id": 705883,
    "name": "Kiliya",
    "lat": 45.44445,
    "lng": 29.26396
  },
  {
    "id": 708878,
    "name": "Henichesk",
    "lat": 46.16824,
    "lng": 34.80861
  },
  {
    "id": 696566,
    "name": "Popasna",
    "lat": 48.63328,
    "lng": 38.37804
  },
  {
    "id": 696943,
    "name": "Pidhorodne",
    "lat": 48.57422,
    "lng": 35.09702
  },
  {
    "id": 689564,
    "name": "Vynnyky",
    "lat": 49.81672,
    "lng": 24.14417
  },
  {
    "id": 688587,
    "name": "Yahotyn",
    "lat": 50.27975,
    "lng": 31.76246
  },
  {
    "id": 704492,
    "name": "Krasyliv",
    "lat": 49.65376,
    "lng": 26.97211
  },
  {
    "id": 712930,
    "name": "Balaklava",
    "lat": 44.51118,
    "lng": 33.59942
  },
  {
    "id": 12129128,
    "name": "Reni",
    "lat": 45.45421,
    "lng": 28.27731
  },
  {
    "id": 712886,
    "name": "Balta",
    "lat": 47.93596,
    "lng": 29.62225
  },
  {
    "id": 707155,
    "name": "Kalynivka",
    "lat": 49.46129,
    "lng": 28.51541
  },
  {
    "id": 689159,
    "name": "Volochysk",
    "lat": 49.53606,
    "lng": 26.20681
  },
  {
    "id": 708251,
    "name": "Hostomel",
    "lat": 50.56841,
    "lng": 30.2651
  },
  {
    "id": 709782,
    "name": "Dolynska",
    "lat": 48.11725,
    "lng": 32.77691
  },
  {
    "id": 695357,
    "name": "Kurakhove",
    "lat": 47.9847,
    "lng": 37.27937
  },
  {
    "id": 695965,
    "name": "Pyatykhatky",
    "lat": 48.40821,
    "lng": 33.70919
  },
  {
    "id": 704138,
    "name": "Kreminna",
    "lat": 49.0495,
    "lng": 38.21893
  },
  {
    "id": 696677,
    "name": "Polohy",
    "lat": 47.47865,
    "lng": 36.25463
  },
  {
    "id": 713504,
    "name": "Amvrosiivka",
    "lat": 47.79273,
    "lng": 38.4782
  },
  {
    "id": 693709,
    "name": "Skadovsk",
    "lat": 46.11313,
    "lng": 32.90978
  },
  {
    "id": 686818,
    "name": "Zuhres",
    "lat": 48.01428,
    "lng": 38.26599
  },
  {
    "id": 695344,
    "name": "Rozdilna",
    "lat": 46.85479,
    "lng": 30.07091
  },
  {
    "id": 711894,
    "name": "Bohodukhiv",
    "lat": 50.16464,
    "lng": 35.52725
  },
  {
    "id": 704858,
    "name": "Korsun-Shevchenkivskyy",
    "lat": 49.41822,
    "lng": 31.25174
  },
  {
    "id": 709960,
    "name": "Dniprorudne",
    "lat": 47.38993,
    "lng": 35.00065
  },
  {
    "id": 712374,
    "name": "Berezhany",
    "lat": 49.44578,
    "lng": 24.93686
  },
  {
    "id": 704670,
    "name": "Kotsiubynske",
    "lat": 50.48836,
    "lng": 30.32957
  },
  {
    "id": 689304,
    "name": "Vovchansk",
    "lat": 50.29078,
    "lng": 36.94108
  },
  {
    "id": 693615,
    "name": "Skvyra",
    "lat": 49.73303,
    "lng": 29.66426
  },
  {
    "id": 710098,
    "name": "Derhachi",
    "lat": 50.10659,
    "lng": 36.12112
  },
  {
    "id": 692129,
    "name": "Svalyava",
    "lat": 48.54735,
    "lng": 22.98673
  },
  {
    "id": 702563,
    "name": "Lutuhyne",
    "lat": 48.40507,
    "lng": 39.22675
  },
  {
    "id": 700696,
    "name": "Mostyska",
    "lat": 49.79467,
    "lng": 23.15077
  },
  {
    "id": 712967,
    "name": "Bakhmach",
    "lat": 51.18144,
    "lng": 32.83463
  },
  {
    "id": 693920,
    "name": "Shpola",
    "lat": 49.01291,
    "lng": 31.3926
  },
  {
    "id": 692315,
    "name": "Sudak",
    "lat": 44.84924,
    "lng": 34.97471
  },
  {
    "id": 686803,
    "name": "Zvenihorodka",
    "lat": 49.07765,
    "lng": 30.96074
  },
  {
    "id": 699078,
    "name": "Novoukrayinka",
    "lat": 48.31661,
    "lng": 31.52355
  },
  {
    "id": 712587,
    "name": "Bilohirsk",
    "lat": 45.05679,
    "lng": 34.60386
  },
  {
    "id": 712389,
    "name": "Berezan",
    "lat": 50.3112,
    "lng": 31.46712
  },
  {
    "id": 707296,
    "name": "Iziaslav",
    "lat": 50.11978,
    "lng": 26.82475
  },
  {
    "id": 692118,
    "name": "Svatove",
    "lat": 49.40719,
    "lng": 38.15362
  },
  {
    "id": 707752,
    "name": "Horodok",
    "lat": 49.17209,
    "lng": 26.56357
  },
  {
    "id": 708313,
    "name": "Horodok",
    "lat": 49.78465,
    "lng": 23.64806
  },
  {
    "id": 713245,
    "name": "Apostolove",
    "lat": 47.65983,
    "lng": 33.71952
  },
  {
    "id": 705183,
    "name": "Slobozhans’ke",
    "lat": 49.59701,
    "lng": 36.52618
  },
  {
    "id": 711867,
    "name": "Bohuslav",
    "lat": 49.54637,
    "lng": 30.87407
  },
  {
    "id": 690312,
    "name": "Bahacheve",
    "lat": 49.01198,
    "lng": 31.04659
  },
  {
    "id": 11139610,
    "name": "Revivka",
    "lat": 49.17771,
    "lng": 33.74415
  },
  {
    "id": 709429,
    "name": "Dunayivtsi",
    "lat": 48.88697,
    "lng": 26.84816
  },
  {
    "id": 695859,
    "name": "Rakhiv",
    "lat": 48.05472,
    "lng": 24.20314
  },
  {
    "id": 712559,
    "name": "Bilopillia",
    "lat": 51.15016,
    "lng": 34.31287
  },
  {
    "id": 689916,
    "name": "Verkhnodniprovsk",
    "lat": 48.65557,
    "lng": 34.3262
  },
  {
    "id": 707679,
    "name": "Ilovays’k",
    "lat": 47.92498,
    "lng": 38.20235
  },
  {
    "id": 712861,
    "name": "Bar",
    "lat": 49.07362,
    "lng": 27.67404
  },
  {
    "id": 698131,
    "name": "Ovruch",
    "lat": 51.3246,
    "lng": 28.80351
  },
  {
    "id": 695912,
    "name": "Radomyshl",
    "lat": 50.49613,
    "lng": 29.22911
  },
  {
    "id": 710548,
    "name": "Chervonopartyzansk",
    "lat": 48.07613,
    "lng": 39.79618
  },
  {
    "id": 711841,
    "name": "Bolhrad",
    "lat": 45.67786,
    "lng": 28.61811
  },
  {
    "id": 689584,
    "name": "Vilnyansk",
    "lat": 47.94768,
    "lng": 35.44034
  },
  {
    "id": 691016,
    "name": "Tulchyn",
    "lat": 48.67397,
    "lng": 28.86848
  },
  {
    "id": 697183,
    "name": "Pyriatyn",
    "lat": 50.24388,
    "lng": 32.5203
  },
  {
    "id": 698953,
    "name": "Novyy Buh",
    "lat": 47.69057,
    "lng": 32.51214
  },
  {
    "id": 698232,
    "name": "Ostroh",
    "lat": 50.32942,
    "lng": 26.51425
  },
  {
    "id": 696008,
    "name": "Putyvl",
    "lat": 51.33745,
    "lng": 33.87066
  },
  {
    "id": 711134,
    "name": "Burshtyn",
    "lat": 49.25193,
    "lng": 24.63339
  },
  {
    "id": 704393,
    "name": "Krasnohorivka",
    "lat": 48.00528,
    "lng": 37.50839
  },
  {
    "id": 712501,
    "name": "Belozyorskoye",
    "lat": 48.53366,
    "lng": 37.06272
  },
  {
    "id": 708898,
    "name": "Hayvoron",
    "lat": 48.34323,
    "lng": 29.86592
  },
  {
    "id": 700568,
    "name": "Mykolaiv",
    "lat": 49.52659,
    "lng": 23.98138
  },
  {
    "id": 698428,
    "name": "Orikhiv",
    "lat": 47.57613,
    "lng": 35.78333
  },
  {
    "id": 706749,
    "name": "Karlivka",
    "lat": 49.45548,
    "lng": 35.13493
  },
  {
    "id": 699753,
    "name": "Novhorod-Siverskyi",
    "lat": 52.00683,
    "lng": 33.26335
  },
  {
    "id": 691578,
    "name": "Tetiiv",
    "lat": 49.36947,
    "lng": 29.67789
  },
  {
    "id": 713163,
    "name": "Artsyz",
    "lat": 45.98526,
    "lng": 29.43286
  },
  {
    "id": 699956,
    "name": "Nyzhnia Krynka",
    "lat": 48.11376,
    "lng": 38.15962
  },
  {
    "id": 704839,
    "name": "Koriukivka",
    "lat": 51.76877,
    "lng": 32.24813
  },
  {
    "id": 700119,
    "name": "Mykolaivka",
    "lat": 48.85461,
    "lng": 37.7728
  },
  {
    "id": 692487,
    "name": "Storozhynets",
    "lat": 48.15938,
    "lng": 25.72144
  },
  {
    "id": 690823,
    "name": "Vuhledar",
    "lat": 47.77974,
    "lng": 37.24992
  },
  {
    "id": 699557,
    "name": "Novohrodivka",
    "lat": 48.20139,
    "lng": 37.33937
  },
  {
    "id": 690082,
    "name": "Velykodolynske",
    "lat": 46.34642,
    "lng": 30.57902
  },
  {
    "id": 687093,
    "name": "Zhovkva",
    "lat": 50.05825,
    "lng": 23.9726
  },
  {
    "id": 711635,
    "name": "Borodianka",
    "lat": 50.64484,
    "lng": 29.9201
  },
  {
    "id": 705730,
    "name": "Kivertsi",
    "lat": 50.83425,
    "lng": 25.45821
  },
  {
    "id": 687455,
    "name": "Zbarazh",
    "lat": 49.66157,
    "lng": 25.77925
  },
  {
    "id": 686928,
    "name": "Zmiiv",
    "lat": 49.68886,
    "lng": 36.3576
  },
  {
    "id": 698770,
    "name": "Ochakiv",
    "lat": 46.61472,
    "lng": 31.54505
  },
  {
    "id": 690773,
    "name": "Ukrainka",
    "lat": 50.14317,
    "lng": 30.74612
  },
  {
    "id": 708366,
    "name": "Horodyshche",
    "lat": 49.29114,
    "lng": 31.44035
  },
  {
    "id": 9533118,
    "name": "Slobozhanske",
    "lat": 48.53201,
    "lng": 35.07147
  },
  {
    "id": 699811,
    "name": "Nova Odesa",
    "lat": 47.31268,
    "lng": 31.76972
  },
  {
    "id": 708632,
    "name": "Hola Prystan",
    "lat": 46.52973,
    "lng": 32.52408
  },
  {
    "id": 688073,
    "name": "Bunhe",
    "lat": 48.2214,
    "lng": 38.28365
  },
  {
    "id": 707898,
    "name": "Hulyaypole",
    "lat": 47.66685,
    "lng": 36.25576
  },
  {
    "id": 691693,
    "name": "Terebovlia",
    "lat": 49.29967,
    "lng": 25.68886
  },
  {
    "id": 691936,
    "name": "Talne",
    "lat": 48.88891,
    "lng": 30.6965
  },
  {
    "id": 695326,
    "name": "Rozhyshche",
    "lat": 50.91542,
    "lng": 25.26906
  },
  {
    "id": 687245,
    "name": "Zhashkiv",
    "lat": 49.2459,
    "lng": 30.09888
  },
  {
    "id": 707251,
    "name": "Kaharlyk",
    "lat": 49.859,
    "lng": 30.82327
  },
  {
    "id": 9983758,
    "name": "Lymanka",
    "lat": 46.38564,
    "lng": 30.67736
  },
  {
    "id": 686868,
    "name": "Zolote",
    "lat": 48.69516,
    "lng": 38.51512
  },
  {
    "id": 691904,
    "name": "Tarashcha",
    "lat": 49.55883,
    "lng": 30.49967
  },
  {
    "id": 699917,
    "name": "Nosivka",
    "lat": 50.93152,
    "lng": 31.58282
  },
  {
    "id": 688288,
    "name": "Yavoriv",
    "lat": 49.93864,
    "lng": 23.38254
  },
  {
    "id": 713304,
    "name": "Antonivka",
    "lat": 46.67666,
    "lng": 32.73061
  },
  {
    "id": 687392,
    "name": "Zelenodolsk",
    "lat": 47.55353,
    "lng": 33.65648
  },
  {
    "id": 697741,
    "name": "Perehinske",
    "lat": 48.81118,
    "lng": 24.19196
  },
  {
    "id": 697276,
    "name": "Petrovske",
    "lat": 48.29662,
    "lng": 38.87892
  },
  {
    "id": 707777,
    "name": "Hvardiiske",
    "lat": 45.11692,
    "lng": 34.02188
  },
  {
    "id": 686729,
    "name": "Vasylivka",
    "lat": 47.44218,
    "lng": 35.28213
  },
  {
    "id": 696291,
    "name": "Primorskiy",
    "lat": 45.11201,
    "lng": 35.4786
  },
  {
    "id": 706289,
    "name": "Khorol",
    "lat": 49.78286,
    "lng": 33.27184
  },
  {
    "id": 712488,
    "name": "Bilyayivka",
    "lat": 46.48427,
    "lng": 30.2089
  },
  {
    "id": 712260,
    "name": "Beryslav",
    "lat": 46.83851,
    "lng": 33.42664
  },
  {
    "id": 693194,
    "name": "Solonytsivka",
    "lat": 49.99682,
    "lng": 36.03464
  },
  {
    "id": 692953,
    "name": "Stanytsia Luhanska",
    "lat": 48.66247,
    "lng": 39.48358
  },
  {
    "id": 710915,
    "name": "Chasiv Yar",
    "lat": 48.59362,
    "lng": 37.85543
  },
  {
    "id": 712250,
    "name": "Bershad",
    "lat": 48.36354,
    "lng": 29.51463
  },
  {
    "id": 708663,
    "name": "Hnivan",
    "lat": 49.0939,
    "lng": 28.33785
  },
  {
    "id": 712775,
    "name": "Bashtanka",
    "lat": 47.40528,
    "lng": 32.43444
  },
  {
    "id": 711348,
    "name": "Buchach",
    "lat": 49.06234,
    "lng": 25.39496
  },
  {
    "id": 704705,
    "name": "Kotelva",
    "lat": 50.06849,
    "lng": 34.74697
  },
  {
    "id": 707026,
    "name": "Kamyanka-Dniprovska",
    "lat": 47.49629,
    "lng": 34.41026
  },
  {
    "id": 693379,
    "name": "Snihurivka",
    "lat": 47.07651,
    "lng": 32.8197
  },
  {
    "id": 701233,
    "name": "Mykhaylivka",
    "lat": 47.26863,
    "lng": 35.22207
  },
  {
    "id": 690545,
    "name": "Uzyn",
    "lat": 49.8246,
    "lng": 30.42523
  },
  {
    "id": 687237,
    "name": "Zhdanivka",
    "lat": 48.1532,
    "lng": 38.25694
  },
  {
    "id": 700322,
    "name": "Nemyriv",
    "lat": 48.97002,
    "lng": 28.83781
  },
  {
    "id": 698138,
    "name": "Ovidiopol",
    "lat": 46.24721,
    "lng": 30.43746
  },
  {
    "id": 705115,
    "name": "Kostiantynivka",
    "lat": 46.81778,
    "lng": 35.42424
  },
  {
    "id": 708320,
    "name": "Horodnia",
    "lat": 51.89085,
    "lng": 31.59741
  },
  {
    "id": 707052,
    "name": "Kamyanka",
    "lat": 49.03955,
    "lng": 32.10174
  },
  {
    "id": 705186,
    "name": "Kal'mius'ke",
    "lat": 47.6639,
    "lng": 38.07753
  },
  {
    "id": 690524,
    "name": "Vakhrusheve",
    "lat": 48.15124,
    "lng": 38.78043
  },
  {
    "id": 694725,
    "name": "Shchastia",
    "lat": 48.73784,
    "lng": 39.23047
  },
  {
    "id": 707695,
    "name": "Illintsi",
    "lat": 49.10544,
    "lng": 29.20589
  },
  {
    "id": 712839,
    "name": "Baranivka",
    "lat": 50.29691,
    "lng": 27.6622
  },
  {
    "id": 696292,
    "name": "Prymorsk",
    "lat": 46.73415,
    "lng": 36.34599
  },
  {
    "id": 704381,
    "name": "Krasnogvardeyskoye",
    "lat": 45.50271,
    "lng": 34.30134
  },
  {
    "id": 692093,
    "name": "Svetlodarsk",
    "lat": 48.43374,
    "lng": 38.22331
  },
  {
    "id": 701031,
    "name": "Myronivka",
    "lat": 49.66007,
    "lng": 30.98225
  },
  {
    "id": 713743,
    "name": "Yakymivka",
    "lat": 46.7011,
    "lng": 35.16334
  },
  {
    "id": 699675,
    "name": "Novoazovs'k",
    "lat": 47.11389,
    "lng": 38.08599
  },
  {
    "id": 707025,
    "name": "Kamin-Kashyrskyi",
    "lat": 51.62412,
    "lng": 24.95864
  },
  {
    "id": 710687,
    "name": "Chernomorskoye",
    "lat": 45.50657,
    "lng": 32.69776
  },
  {
    "id": 702874,
    "name": "Lokhvytsya",
    "lat": 50.36444,
    "lng": 33.27153
  },
  {
    "id": 688696,
    "name": "Vysokyi",
    "lat": 49.89156,
    "lng": 36.12175
  },
  {
    "id": 693020,
    "name": "Yampil",
    "lat": 48.24056,
    "lng": 28.28141
  },
  {
    "id": 701372,
    "name": "Mena",
    "lat": 51.5217,
    "lng": 32.21568
  },
  {
    "id": 694403,
    "name": "Siversk",
    "lat": 48.86588,
    "lng": 38.09779
  },
  {
    "id": 691803,
    "name": "Tatarbunary",
    "lat": 45.83861,
    "lng": 29.61123
  },
  {
    "id": 711989,
    "name": "Bobrynets",
    "lat": 48.05674,
    "lng": 32.1655
  },
  {
    "id": 696359,
    "name": "Peredmistna Slobidka",
    "lat": 50.43333,
    "lng": 30.58333
  },
  {
    "id": 699453,
    "name": "Novomyrhorod",
    "lat": 48.81692,
    "lng": 31.64985
  },
  {
    "id": 690771,
    "name": "Ukrainsk",
    "lat": 48.09777,
    "lng": 37.36526
  },
  {
    "id": 699100,
    "name": "Novotroyitske",
    "lat": 46.35088,
    "lng": 34.33245
  },
  {
    "id": 711587,
    "name": "Borshchiv",
    "lat": 48.80319,
    "lng": 26.03171
  },
  {
    "id": 694273,
    "name": "Snovsk",
    "lat": 51.81943,
    "lng": 31.94412
  },
  {
    "id": 700551,
    "name": "Shchyolkino",
    "lat": 45.42985,
    "lng": 35.8225
  },
  {
    "id": 699620,
    "name": "Novodnistrovsk",
    "lat": 48.58321,
    "lng": 27.43658
  },
  {
    "id": 711999,
    "name": "Bobrovytsia",
    "lat": 50.74693,
    "lng": 31.3948
  },
  {
    "id": 708181,
    "name": "Hrebinka",
    "lat": 50.12017,
    "lng": 32.42966
  },
  {
    "id": 706757,
    "name": "Soledar",
    "lat": 48.69075,
    "lng": 38.07432
  },
  {
    "id": 700700,
    "name": "Mospyne",
    "lat": 47.89012,
    "lng": 38.06381
  },
  {
    "id": 699777,
    "name": "Nova Vodolaha",
    "lat": 49.7199,
    "lng": 35.86964
  },
  {
    "id": 704379,
    "name": "Krasnoyilsk",
    "lat": 48.01865,
    "lng": 25.56004
  },
  {
    "id": 710565,
    "name": "Radyvyliv",
    "lat": 50.12994,
    "lng": 25.25576
  },
  {
    "id": 693062,
    "name": "Sovetskiy",
    "lat": 45.34267,
    "lng": 34.92463
  },
  {
    "id": 707744,
    "name": "Ichnia",
    "lat": 50.86258,
    "lng": 32.39425
  },
  {
    "id": 704920,
    "name": "Korolevo",
    "lat": 48.15731,
    "lng": 23.13769
  },
  {
    "id": 702147,
    "name": "Mala Vyska",
    "lat": 48.64694,
    "lng": 31.63231
  },
  {
    "id": 690509,
    "name": "Valky",
    "lat": 49.83597,
    "lng": 35.61223
  },
  {
    "id": 708395,
    "name": "Hirnyk",
    "lat": 48.05728,
    "lng": 37.3716
  },
  {
    "id": 618835,
    "name": "Zhydachiv",
    "lat": 49.38315,
    "lng": 24.13938
  },
  {
    "id": 703142,
    "name": "Letychiv",
    "lat": 49.3801,
    "lng": 27.61889
  },
  {
    "id": 708953,
    "name": "Gaspra",
    "lat": 44.43364,
    "lng": 34.10297
  },
  {
    "id": 702421,
    "name": "Liuboml",
    "lat": 51.22601,
    "lng": 24.03727
  },
  {
    "id": 712787,
    "name": "Baryshivka",
    "lat": 50.36098,
    "lng": 31.32173
  },
  {
    "id": 689808,
    "name": "Verkhivtseve",
    "lat": 48.48127,
    "lng": 34.24003
  },
  {
    "id": 711850,
    "name": "Bolekhiv",
    "lat": 49.06479,
    "lng": 23.85953
  },
  {
    "id": 698652,
    "name": "Oktyabr’skoye",
    "lat": 45.28866,
    "lng": 34.13521
  },
  {
    "id": 712576,
    "name": "Inkerman",
    "lat": 44.61391,
    "lng": 33.6098
  },
  {
    "id": 699706,
    "name": "Novooleksiyivka",
    "lat": 46.22995,
    "lng": 34.64576
  },
  {
    "id": 865729,
    "name": "Tavriysk",
    "lat": 46.75432,
    "lng": 33.41665
  },
  {
    "id": 696280,
    "name": "Sartana",
    "lat": 47.17704,
    "lng": 37.69273
  },
  {
    "id": 698597,
    "name": "Olevsk",
    "lat": 51.22482,
    "lng": 27.65228
  },
  {
    "id": 707489,
    "name": "Ivankiv",
    "lat": 50.93865,
    "lng": 29.89426
  },
  {
    "id": 696743,
    "name": "Pokotylivka",
    "lat": 49.91343,
    "lng": 36.17511
  },
  {
    "id": 865087,
    "name": "Teplodar",
    "lat": 46.50196,
    "lng": 30.32256
  },
  {
    "id": 693365,
    "name": "Sniatyn",
    "lat": 48.44883,
    "lng": 25.55994
  },
  {
    "id": 709516,
    "name": "Dubove",
    "lat": 48.17473,
    "lng": 23.88693
  },
  {
    "id": 706200,
    "name": "Khrystynivka",
    "lat": 48.81282,
    "lng": 29.96885
  },
  {
    "id": 696720,
    "name": "Pokrovske",
    "lat": 47.98126,
    "lng": 36.23446
  },
  {
    "id": 695581,
    "name": "Rodynske",
    "lat": 48.35415,
    "lng": 37.20641
  },
  {
    "id": 708140,
    "name": "Gresovskiy",
    "lat": 45.00804,
    "lng": 34.02657
  },
  {
    "id": 709546,
    "name": "Dubliany",
    "lat": 49.90411,
    "lng": 24.08637
  },
  {
    "id": 710129,
    "name": "Derazhnya",
    "lat": 49.26915,
    "lng": 27.42909
  },
  {
    "id": 705544,
    "name": "Kobelyaky",
    "lat": 49.14936,
    "lng": 34.20193
  },
  {
    "id": 699751,
    "name": "Niu-York",
    "lat": 48.33027,
    "lng": 37.84114
  },
  {
    "id": 697671,
    "name": "Pereshchepyne",
    "lat": 49.02512,
    "lng": 35.36885
  },
  {
    "id": 689736,
    "name": "Vesele",
    "lat": 47.00973,
    "lng": 34.91843
  },
  {
    "id": 710935,
    "name": "Chaplynka",
    "lat": 46.36454,
    "lng": 33.54087
  },
  {
    "id": 695935,
    "name": "Radekhiv",
    "lat": 50.28249,
    "lng": 24.64279
  },
  {
    "id": 695789,
    "name": "Ratne",
    "lat": 51.6683,
    "lng": 24.5303
  },
  {
    "id": 690158,
    "name": "Velyki Luchky",
    "lat": 48.41822,
    "lng": 22.56765
  },
  {
    "id": 712312,
    "name": "Berezivka",
    "lat": 47.20037,
    "lng": 30.90943
  },
  {
    "id": 694025,
    "name": "Shyroke",
    "lat": 47.6855,
    "lng": 33.26147
  },
  {
    "id": 696771,
    "name": "Pohrebyshche",
    "lat": 49.48508,
    "lng": 29.25988
  },
  {
    "id": 699311,
    "name": "Aydar",
    "lat": 49.53316,
    "lng": 39.11845
  },
  {
    "id": 690266,
    "name": "Velyka Dymerka",
    "lat": 50.59333,
    "lng": 30.90313
  },
  {
    "id": 702337,
    "name": "Makariv",
    "lat": 50.46408,
    "lng": 29.81128
  },
  {
    "id": 701299,
    "name": "Mizhhirya",
    "lat": 48.52435,
    "lng": 23.50091
  },
  {
    "id": 712508,
    "name": "Bilozerka",
    "lat": 46.62651,
    "lng": 32.44447
  },
  {
    "id": 686956,
    "name": "Zymohiria",
    "lat": 48.58528,
    "lng": 38.9375
  },
  {
    "id": 693426,
    "name": "Smoline",
    "lat": 48.60127,
    "lng": 31.31292
  },
  {
    "id": 687292,
    "name": "Zinkiv",
    "lat": 50.20987,
    "lng": 34.35952
  },
  {
    "id": 698861,
    "name": "Novyi Svit",
    "lat": 47.80669,
    "lng": 38.02102
  },
  {
    "id": 711536,
    "name": "Borzna",
    "lat": 51.25464,
    "lng": 32.4269
  },
  {
    "id": 696032,
    "name": "Pustomyty",
    "lat": 49.71661,
    "lng": 23.90698
  },
  {
    "id": 707757,
    "name": "Hlyboka",
    "lat": 48.08756,
    "lng": 25.9284
  },
  {
    "id": 710820,
    "name": "Cherepkivtsi",
    "lat": 48.01557,
    "lng": 25.9643
  },
  {
    "id": 698461,
    "name": "Oprysheny",
    "lat": 48.05334,
    "lng": 26.02699
  },
  {
    "id": 692714,
    "name": "Stary Krym",
    "lat": 45.02887,
    "lng": 35.09174
  },
  {
    "id": 708753,
    "name": "Hlobyne",
    "lat": 49.37894,
    "lng": 33.27555
  },
  {
    "id": 709493,
    "name": "Dubrovytsia",
    "lat": 51.57438,
    "lng": 26.56503
  },
  {
    "id": 710587,
    "name": "Chervona Sloboda",
    "lat": 49.37281,
    "lng": 32.15742
  },
  {
    "id": 689428,
    "name": "Volodymyrets",
    "lat": 51.4213,
    "lng": 26.14469
  },
  {
    "id": 712200,
    "name": "Bezliudivka",
    "lat": 49.87547,
    "lng": 36.26539
  },
  {
    "id": 690873,
    "name": "Tysmenytsia",
    "lat": 48.9036,
    "lng": 24.84695
  },
  {
    "id": 707240,
    "name": "Mirnoye",
    "lat": 44.9833,
    "lng": 34.0616
  },
  {
    "id": 708273,
    "name": "Hirske",
    "lat": 48.74981,
    "lng": 38.49518
  },
  {
    "id": 691705,
    "name": "Irmino",
    "lat": 48.59905,
    "lng": 38.58824
  },
  {
    "id": 690040,
    "name": "Velykyy Bychkiv",
    "lat": 47.96821,
    "lng": 24.01061
  },
  {
    "id": 707232,
    "name": "Kalanchak",
    "lat": 46.25495,
    "lng": 33.29061
  },
  {
    "id": 695643,
    "name": "Reshetylivka",
    "lat": 49.563,
    "lng": 34.07896
  },
  {
    "id": 710663,
    "name": "Cherniakhiv",
    "lat": 50.45652,
    "lng": 28.67018
  },
  {
    "id": 705796,
    "name": "Obukhivka",
    "lat": 48.54884,
    "lng": 34.85387
  },
  {
    "id": 692416,
    "name": "Stryzhavka",
    "lat": 49.30955,
    "lng": 28.47208
  },
  {
    "id": 707559,
    "name": "Irshava",
    "lat": 48.31227,
    "lng": 23.04065
  },
  {
    "id": 701845,
    "name": "Mar'yinka",
    "lat": 47.94527,
    "lng": 37.50544
  },
  {
    "id": 702898,
    "name": "Lyubashivka",
    "lat": 47.83387,
    "lng": 30.25209
  },
  {
    "id": 707681,
    "name": "Ilnytsia",
    "lat": 48.35662,
    "lng": 23.07616
  },
  {
    "id": 690906,
    "name": "Tyachiv",
    "lat": 48.01092,
    "lng": 23.57168
  },
  {
    "id": 704525,
    "name": "Kozova",
    "lat": 49.43206,
    "lng": 25.14547
  },
  {
    "id": 710715,
    "name": "Chornobaivka",
    "lat": 46.69641,
    "lng": 32.5471
  },
  {
    "id": 706352,
    "name": "Khodoriv",
    "lat": 49.40681,
    "lng": 24.3113
  },
  {
    "id": 706244,
    "name": "Khotyn",
    "lat": 48.50555,
    "lng": 26.48978
  },
  {
    "id": 707860,
    "name": "Gurzuf",
    "lat": 44.54624,
    "lng": 34.27841
  },
  {
    "id": 687826,
    "name": "Zalishchyky",
    "lat": 48.64098,
    "lng": 25.7317
  },
  {
    "id": 691497,
    "name": "Tlumach",
    "lat": 48.86519,
    "lng": 25.00385
  },
  {
    "id": 693284,
    "name": "Sokyryany",
    "lat": 48.44913,
    "lng": 27.41138
  },
  {
    "id": 702365,
    "name": "Mahala",
    "lat": 48.29681,
    "lng": 26.0433
  },
  {
    "id": 707689,
    "name": "Yavornytske",
    "lat": 48.40458,
    "lng": 35.27933
  },
  {
    "id": 708380,
    "name": "Horodenka",
    "lat": 48.669,
    "lng": 25.5033
  },
  {
    "id": 703840,
    "name": "Kryzhopil",
    "lat": 48.3821,
    "lng": 28.86766
  },
  {
    "id": 696581,
    "name": "Pomichna",
    "lat": 48.23975,
    "lng": 31.40865
  },
  {
    "id": 708784,
    "name": "Hlevakha",
    "lat": 50.27423,
    "lng": 30.32706
  },
  {
    "id": 700019,
    "name": "Nizhnegorskiy",
    "lat": 45.44789,
    "lng": 34.73839
  },
  {
    "id": 710473,
    "name": "Chyhyryn",
    "lat": 49.08045,
    "lng": 32.66082
  },
  {
    "id": 700796,
    "name": "Monastyryshche",
    "lat": 48.99494,
    "lng": 29.80992
  },
  {
    "id": 693176,
    "name": "Solotvyno",
    "lat": 47.94728,
    "lng": 23.87433
  },
  {
    "id": 712521,
    "name": "Bilovods'k",
    "lat": 49.20846,
    "lng": 39.58975
  },
  {
    "id": 710409,
    "name": "Chop",
    "lat": 48.4316,
    "lng": 22.20446
  },
  {
    "id": 688365,
    "name": "Yasinya",
    "lat": 48.2726,
    "lng": 24.36029
  },
  {
    "id": 700292,
    "name": "Nerubayske",
    "lat": 46.54445,
    "lng": 30.62921
  },
  {
    "id": 690629,
    "name": "Uspenka",
    "lat": 48.39077,
    "lng": 39.16284
  },
  {
    "id": 707756,
    "name": "Dachne",
    "lat": 46.57844,
    "lng": 30.54733
  },
  {
    "id": 11183753,
    "name": "Nove",
    "lat": 48.52725,
    "lng": 32.12223
  },
  {
    "id": 704764,
    "name": "Kosiv",
    "lat": 48.32051,
    "lng": 25.09109
  },
  {
    "id": 705493,
    "name": "Kodyma",
    "lat": 48.10306,
    "lng": 29.12598
  },
  {
    "id": 695781,
    "name": "Rava-Ruska",
    "lat": 50.23079,
    "lng": 23.62825
  },
  {
    "id": 690648,
    "name": "Usatove",
    "lat": 46.52893,
    "lng": 30.64951
  },
  {
    "id": 697568,
    "name": "Pervomayskoye",
    "lat": 45.71744,
    "lng": 33.85596
  },
  {
    "id": 698627,
    "name": "Oleksandrivka",
    "lat": 48.968,
    "lng": 32.23968
  },
  {
    "id": 713389,
    "name": "Andrushivka",
    "lat": 50.02288,
    "lng": 29.02023
  },
  {
    "id": 711105,
    "name": "Bushtyno",
    "lat": 48.0473,
    "lng": 23.48576
  },
  {
    "id": 703397,
    "name": "Lanivtsi",
    "lat": 49.86103,
    "lng": 26.09052
  },
  {
    "id": 690279,
    "name": "Velyka Berezovytsya",
    "lat": 49.49869,
    "lng": 25.61231
  },
  {
    "id": 711116,
    "name": "Buryn",
    "lat": 51.1993,
    "lng": 33.83319
  },
  {
    "id": 703013,
    "name": "Lypovets",
    "lat": 49.22776,
    "lng": 29.05669
  },
  {
    "id": 710202,
    "name": "Deliatyn",
    "lat": 48.5248,
    "lng": 24.62566
  },
  {
    "id": 688717,
    "name": "Vyshkovo",
    "lat": 48.04885,
    "lng": 23.41986
  },
  {
    "id": 700964,
    "name": "Mlyniv",
    "lat": 50.509,
    "lng": 25.61675
  },
  {
    "id": 711887,
    "name": "Bohorodchany",
    "lat": 48.80812,
    "lng": 24.53728
  },
  {
    "id": 703652,
    "name": "Kupiansk-Vuzlovyi",
    "lat": 49.67061,
    "lng": 37.64319
  },
  {
    "id": 698927,
    "name": "Novi Sanzhary",
    "lat": 49.33379,
    "lng": 34.31496
  },
  {
    "id": 709701,
    "name": "Yaremche",
    "lat": 48.44886,
    "lng": 24.55335
  },
  {
    "id": 713514,
    "name": "Alupka",
    "lat": 44.41952,
    "lng": 34.04489
  },
  {
    "id": 693469,
    "name": "Slov`yanoserbsk",
    "lat": 48.69779,
    "lng": 38.98133
  },
  {
    "id": 712602,
    "name": "Bilky",
    "lat": 48.32629,
    "lng": 23.13811
  },
  {
    "id": 690247,
    "name": "Velyka Lepetykha",
    "lat": 47.17138,
    "lng": 33.93147
  },
  {
    "id": 704376,
    "name": "Krasnokutsk",
    "lat": 50.06602,
    "lng": 35.16275
  },
  {
    "id": 694992,
    "name": "Rzhyshchiv",
    "lat": 49.96729,
    "lng": 31.04069
  },
  {
    "id": 688846,
    "name": "Vradiyivka",
    "lat": 47.86425,
    "lng": 30.58881
  },
  {
    "id": 687578,
    "name": "Zastavna",
    "lat": 48.52137,
    "lng": 25.8426
  },
  {
    "id": 703555,
    "name": "Kushuhum",
    "lat": 47.70963,
    "lng": 35.21644
  },
  {
    "id": 703410,
    "name": "Lanchyn",
    "lat": 48.55173,
    "lng": 24.74923
  },
  {
    "id": 704343,
    "name": "Krasnopillia",
    "lat": 50.77458,
    "lng": 35.25965
  },
  {
    "id": 696823,
    "name": "Pidvolochysk",
    "lat": 49.53131,
    "lng": 26.14401
  },
  {
    "id": 712794,
    "name": "Barvinkove",
    "lat": 48.90595,
    "lng": 37.02278
  },
  {
    "id": 710532,
    "name": "Zavodske",
    "lat": 50.40065,
    "lng": 33.40118
  },
  {
    "id": 693100,
    "name": "Sosnytsia",
    "lat": 51.52387,
    "lng": 32.49985
  },
  {
    "id": 695559,
    "name": "Rohatyn",
    "lat": 49.41043,
    "lng": 24.61103
  },
  {
    "id": 694590,
    "name": "Semenivka",
    "lat": 52.1786,
    "lng": 32.58181
  },
  {
    "id": 713500,
    "name": "Ananyiv",
    "lat": 47.71975,
    "lng": 29.95711
  },
  {
    "id": 695104,
    "name": "Ruska Poliana",
    "lat": 49.417,
    "lng": 31.92009
  },
  {
    "id": 699677,
    "name": "Novoaidar",
    "lat": 48.96402,
    "lng": 39.00559
  },
  {
    "id": 712613,
    "name": "Bilytske",
    "lat": 48.40642,
    "lng": 37.18111
  },
  {
    "id": 686895,
    "name": "Zolochiv",
    "lat": 50.27985,
    "lng": 35.98179
  },
  {
    "id": 702491,
    "name": "Lysyanka",
    "lat": 49.25045,
    "lng": 30.82782
  },
  {
    "id": 697613,
    "name": "Manhush",
    "lat": 47.05625,
    "lng": 37.31193
  },
  {
    "id": 690197,
    "name": "Velykyy Bereznyy",
    "lat": 48.8934,
    "lng": 22.46121
  },
  {
    "id": 712569,
    "name": "Bilokurakyne",
    "lat": 49.53458,
    "lng": 38.72723
  },
  {
    "id": 688750,
    "name": "Vylkove",
    "lat": 45.40279,
    "lng": 29.5869
  },
  {
    "id": 698929,
    "name": "Novi Petrivtsi",
    "lat": 50.62754,
    "lng": 30.4431
  },
  {
    "id": 697006,
    "name": "Pochayiv",
    "lat": 50.00412,
    "lng": 25.5093
  },
  {
    "id": 690469,
    "name": "Varva",
    "lat": 50.49503,
    "lng": 32.71968
  },
  {
    "id": 688744,
    "name": "Vypasne",
    "lat": 46.19092,
    "lng": 30.25615
  },
  {
    "id": 710041,
    "name": "Dykanka",
    "lat": 49.82586,
    "lng": 34.522
  },
  {
    "id": 690189,
    "name": "Velykyi Dalnyk",
    "lat": 46.47494,
    "lng": 30.56099
  },
  {
    "id": 704573,
    "name": "Kozelets",
    "lat": 50.91334,
    "lng": 31.1214
  },
  {
    "id": 701894,
    "name": "Mankivka",
    "lat": 48.96391,
    "lng": 30.33626
  },
  {
    "id": 692672,
    "name": "Stavyshche",
    "lat": 50.40051,
    "lng": 29.52796
  },
  {
    "id": 713175,
    "name": "Artemivsk",
    "lat": 48.44061,
    "lng": 38.732
  },
  {
    "id": 713683,
    "name": "Oleksandrivka",
    "lat": 46.32868,
    "lng": 30.63562
  },
  {
    "id": 700835,
    "name": "Molodyozhnoye",
    "lat": 45.00354,
    "lng": 34.05634
  },
  {
    "id": 699285,
    "name": "Novoselytsya",
    "lat": 48.21812,
    "lng": 26.26766
  },
  {
    "id": 689363,
    "name": "Vlasivka",
    "lat": 49.11832,
    "lng": 33.27971
  },
  {
    "id": 691264,
    "name": "Trostyanets",
    "lat": 48.50915,
    "lng": 29.22742
  },
  {
    "id": 712430,
    "name": "Berehomet",
    "lat": 48.17148,
    "lng": 25.33032
  },
  {
    "id": 704010,
    "name": "Kryve Ozero",
    "lat": 47.94763,
    "lng": 30.34701
  },
  {
    "id": 693231,
    "name": "Solone",
    "lat": 48.20907,
    "lng": 34.87585
  },
  {
    "id": 712339,
    "name": "Bereznehuvate",
    "lat": 47.30872,
    "lng": 32.85098
  },
  {
    "id": 691663,
    "name": "Teresva",
    "lat": 47.99769,
    "lng": 23.69904
  },
  {
    "id": 793657,
    "name": "Malynivka",
    "lat": 49.81667,
    "lng": 36.73333
  },
  {
    "id": 704363,
    "name": "Krasnopavlivka",
    "lat": 49.13699,
    "lng": 36.3201
  },
  {
    "id": 699769,
    "name": "Nova Zburivka",
    "lat": 46.45456,
    "lng": 32.45277
  },
  {
    "id": 704118,
    "name": "Kripenskyi",
    "lat": 48.07709,
    "lng": 39.058
  },
  {
    "id": 703261,
    "name": "Lenino",
    "lat": 45.29857,
    "lng": 35.77708
  },
  {
    "id": 690960,
    "name": "Turka",
    "lat": 49.15613,
    "lng": 23.02837
  },
  {
    "id": 688440,
    "name": "Yarmolyntsi",
    "lat": 49.19271,
    "lng": 26.83437
  },
  {
    "id": 689157,
    "name": "Volodarka",
    "lat": 49.52542,
    "lng": 29.91023
  },
  {
    "id": 695205,
    "name": "Rudne",
    "lat": 49.83333,
    "lng": 23.9
  },
  {
    "id": 687652,
    "name": "Zarichne",
    "lat": 51.8126,
    "lng": 26.12902
  },
  {
    "id": 691155,
    "name": "Tsarychanka",
    "lat": 48.94186,
    "lng": 34.48601
  },
  {
    "id": 695740,
    "name": "Razdol’noye",
    "lat": 45.77083,
    "lng": 33.48777
  },
  {
    "id": 697135,
    "name": "Pivdenne",
    "lat": 49.8832,
    "lng": 36.06846
  },
  {
    "id": 709353,
    "name": "Romaniv",
    "lat": 50.14802,
    "lng": 27.93124
  },
  {
    "id": 690485,
    "name": "Vapnyarka",
    "lat": 48.5311,
    "lng": 28.747
  },
  {
    "id": 690822,
    "name": "Vuhlehirsk",
    "lat": 48.31417,
    "lng": 38.27191
  },
  {
    "id": 697692,
    "name": "Peremyshliany",
    "lat": 49.67053,
    "lng": 24.55657
  },
  {
    "id": 701619,
    "name": "Massandra",
    "lat": 44.50958,
    "lng": 34.18817
  },
  {
    "id": 711621,
    "name": "Borova",
    "lat": 50.17625,
    "lng": 30.10429
  },
  {
    "id": 706536,
    "name": "Kelmentsi",
    "lat": 48.4664,
    "lng": 26.83277
  },
  {
    "id": 702231,
    "name": "Mala Danylivka",
    "lat": 50.06354,
    "lng": 36.16564
  },
  {
    "id": 688501,
    "name": "Yampil’",
    "lat": 51.94765,
    "lng": 33.78759
  },
  {
    "id": 710716,
    "name": "Chornobay",
    "lat": 49.67074,
    "lng": 32.3236
  },
  {
    "id": 694491,
    "name": "Seredyna-Buda",
    "lat": 52.18886,
    "lng": 34.03613
  },
  {
    "id": 697325,
    "name": "Petrove",
    "lat": 48.33809,
    "lng": 33.2653
  },
  {
    "id": 691279,
    "name": "Troitske",
    "lat": 49.91454,
    "lng": 38.29265
  },
  {
    "id": 696576,
    "name": "Poninka",
    "lat": 50.18413,
    "lng": 27.52817
  },
  {
    "id": 703061,
    "name": "Lymanske",
    "lat": 46.67952,
    "lng": 29.97231
  },
  {
    "id": 694392,
    "name": "Shabo",
    "lat": 46.12657,
    "lng": 30.38567
  },
  {
    "id": 686852,
    "name": "Zorynsk",
    "lat": 48.41194,
    "lng": 38.62361
  },
  {
    "id": 694137,
    "name": "Shevchenkove",
    "lat": 49.69524,
    "lng": 37.17513
  },
  {
    "id": 701792,
    "name": "Markivka",
    "lat": 49.52285,
    "lng": 39.57069
  },
  {
    "id": 707840,
    "name": "Husiatyn",
    "lat": 49.07123,
    "lng": 26.20464
  },
  {
    "id": 694350,
    "name": "Sharhorod",
    "lat": 48.73562,
    "lng": 28.08459
  },
  {
    "id": 705799,
    "name": "Kirovskoye",
    "lat": 45.22967,
    "lng": 35.19987
  },
  {
    "id": 698003,
    "name": "Lymanivka",
    "lat": 48.93883,
    "lng": 36.27828
  },
  {
    "id": 701305,
    "name": "Mezhova",
    "lat": 48.25318,
    "lng": 36.73468
  },
  {
    "id": 9983688,
    "name": "Chornomorske",
    "lat": 46.58405,
    "lng": 30.93068
  },
  {
    "id": 694919,
    "name": "Sakhnovshchyna",
    "lat": 49.14894,
    "lng": 35.87374
  },
  {
    "id": 706580,
    "name": "Kazanka",
    "lat": 47.82691,
    "lng": 32.83057
  },
  {
    "id": 689595,
    "name": "Vilino",
    "lat": 44.8456,
    "lng": 33.67161
  },
  {
    "id": 697423,
    "name": "Petropavlivka",
    "lat": 48.46353,
    "lng": 36.43061
  },
  {
    "id": 704968,
    "name": "Korets",
    "lat": 50.61655,
    "lng": 27.16055
  },
  {
    "id": 710071,
    "name": "Desna",
    "lat": 50.92731,
    "lng": 30.76048
  },
  {
    "id": 706945,
    "name": "Komyshany",
    "lat": 46.63995,
    "lng": 32.50343
  },
  {
    "id": 697676,
    "name": "Peresichna",
    "lat": 50.02452,
    "lng": 35.97871
  },
  {
    "id": 697489,
    "name": "Piskivka",
    "lat": 50.69378,
    "lng": 29.61934
  },
  {
    "id": 688956,
    "name": "Vorzel",
    "lat": 50.5444,
    "lng": 30.15305
  },
  {
    "id": 707058,
    "name": "Kamyanka",
    "lat": 48.02786,
    "lng": 25.89964
  },
  {
    "id": 705222,
    "name": "Dobroslav",
    "lat": 46.82095,
    "lng": 30.94518
  },
  {
    "id": 691435,
    "name": "Tomakivka",
    "lat": 47.81081,
    "lng": 34.74324
  },
  {
    "id": 699823,
    "name": "Nova Mayachka",
    "lat": 46.59938,
    "lng": 33.22429
  },
  {
    "id": 688961,
    "name": "Vorozhba",
    "lat": 51.17334,
    "lng": 34.21917
  },
  {
    "id": 703494,
    "name": "Bilmak",
    "lat": 47.35914,
    "lng": 36.65331
  },
  {
    "id": 712515,
    "name": "Bile",
    "lat": 48.49523,
    "lng": 39.05051
  },
  {
    "id": 690166,
    "name": "Velyki Komiaty",
    "lat": 48.23741,
    "lng": 22.97717
  },
  {
    "id": 710463,
    "name": "Chynadiyovo",
    "lat": 48.48666,
    "lng": 22.83368
  },
  {
    "id": 708614,
    "name": "Holmivskyi",
    "lat": 48.40394,
    "lng": 38.08203
  },
  {
    "id": 711268,
    "name": "Budy",
    "lat": 49.89133,
    "lng": 36.02096
  },
  {
    "id": 703438,
    "name": "Ladan",
    "lat": 50.51959,
    "lng": 32.58178
  },
  {
    "id": 697396,
    "name": "Petrovka",
    "lat": 45.49776,
    "lng": 34.28816
  },
  {
    "id": 699615,
    "name": "Novodruzhesk",
    "lat": 48.96351,
    "lng": 38.35201
  },
  {
    "id": 706271,
    "name": "Khorostkiv",
    "lat": 49.21385,
    "lng": 25.91964
  },
  {
    "id": 687449,
    "name": "Zboriv",
    "lat": 49.66493,
    "lng": 25.14019
  },
  {
    "id": 697750,
    "name": "Perechyn",
    "lat": 48.73494,
    "lng": 22.47718
  },
  {
    "id": 690288,
    "name": "Velyka Oleksandrivka",
    "lat": 47.31888,
    "lng": 33.29059
  },
  {
    "id": 702931,
    "name": "Lityn",
    "lat": 49.32711,
    "lng": 28.08698
  },
  {
    "id": 695653,
    "name": "Ripky",
    "lat": 51.80105,
    "lng": 31.08383
  },
  {
    "id": 706736,
    "name": "Karnaukhivka",
    "lat": 48.47542,
    "lng": 34.73631
  },
  {
    "id": 693325,
    "name": "Sofiyivka",
    "lat": 48.04734,
    "lng": 33.87237
  },
  {
    "id": 699802,
    "name": "Nova Praha",
    "lat": 48.56868,
    "lng": 32.90431
  },
  {
    "id": 696332,
    "name": "Pryazovske",
    "lat": 46.73123,
    "lng": 35.64082
  },
  {
    "id": 8504651,
    "name": "Sofiyivska Borschagivka",
    "lat": 50.41005,
    "lng": 30.36724
  },
  {
    "id": 689025,
    "name": "Voronizh",
    "lat": 51.77572,
    "lng": 33.45944
  },
  {
    "id": 710560,
    "name": "Kubey",
    "lat": 45.79131,
    "lng": 28.74455
  },
  {
    "id": 693598,
    "name": "Slatyne",
    "lat": 50.21041,
    "lng": 36.15376
  },
  {
    "id": 709808,
    "name": "Dovhe",
    "lat": 48.36504,
    "lng": 23.28029
  },
  {
    "id": 708403,
    "name": "Hornostayivka",
    "lat": 47.01171,
    "lng": 33.72987
  },
  {
    "id": 694016,
    "name": "Shyryayeve",
    "lat": 47.38483,
    "lng": 30.19065
  },
  {
    "id": 695516,
    "name": "Rokytne",
    "lat": 51.2796,
    "lng": 27.214
  },
  {
    "id": 696218,
    "name": "Pryvillia",
    "lat": 49.00556,
    "lng": 38.29883
  },
  {
    "id": 689003,
    "name": "Voronovytsya",
    "lat": 49.10903,
    "lng": 28.68681
  },
  {
    "id": 691715,
    "name": "Teofipol",
    "lat": 49.83892,
    "lng": 26.4204
  },
  {
    "id": 705016,
    "name": "Kopychyntsi",
    "lat": 49.103,
    "lng": 25.91164
  },
  {
    "id": 693658,
    "name": "Skole",
    "lat": 49.03717,
    "lng": 23.51346
  },
  {
    "id": 692301,
    "name": "Sudova Vyshnia",
    "lat": 49.78892,
    "lng": 23.37218
  },
  {
    "id": 711359,
    "name": "Bryukhovychi",
    "lat": 49.90467,
    "lng": 23.95969
  },
  {
    "id": 616196,
    "name": "Staryi Dobrotvir",
    "lat": 50.23154,
    "lng": 24.37701
  },
  {
    "id": 702774,
    "name": "Lozuvatka",
    "lat": 48.06017,
    "lng": 33.28668
  },
  {
    "id": 713588,
    "name": "Oleksandrivsk",
    "lat": 48.58611,
    "lng": 39.18946
  },
  {
    "id": 709643,
    "name": "Drabiv",
    "lat": 49.95891,
    "lng": 32.15028
  },
  {
    "id": 707560,
    "name": "Irshansk",
    "lat": 50.75095,
    "lng": 28.72387
  },
  {
    "id": 708863,
    "name": "Heorhiivka",
    "lat": 48.42278,
    "lng": 39.25278
  },
  {
    "id": 690155,
    "name": "Velyki Mosty",
    "lat": 50.24329,
    "lng": 24.1423
  },
  {
    "id": 705626,
    "name": "Klishkivtsi",
    "lat": 48.42342,
    "lng": 26.25229
  },
  {
    "id": 710552,
    "name": "Chervonohryhorivka",
    "lat": 47.61906,
    "lng": 34.53778
  },
  {
    "id": 713222,
    "name": "Arbuzynka",
    "lat": 47.90791,
    "lng": 31.31701
  },
  {
    "id": 694745,
    "name": "Savran",
    "lat": 48.1293,
    "lng": 30.0833
  },
  {
    "id": 709114,
    "name": "Fontanka",
    "lat": 46.57016,
    "lng": 30.85469
  },
  {
    "id": 704277,
    "name": "Krasne",
    "lat": 49.91447,
    "lng": 24.6134
  },
  {
    "id": 691708,
    "name": "Teplyk",
    "lat": 48.66538,
    "lng": 29.74482
  },
  {
    "id": 708210,
    "name": "Hradyzk",
    "lat": 49.23943,
    "lng": 33.13941
  },
  {
    "id": 699034,
    "name": "Novovorontsovka",
    "lat": 47.50499,
    "lng": 33.92317
  },
  {
    "id": 686812,
    "name": "Zuya",
    "lat": 45.05418,
    "lng": 34.32152
  },
  {
    "id": 705735,
    "name": "Kitsman",
    "lat": 48.43867,
    "lng": 25.76111
  },
  {
    "id": 686762,
    "name": "Ivano-Frankove",
    "lat": 49.91978,
    "lng": 23.72913
  },
  {
    "id": 691336,
    "name": "Trebukhiv",
    "lat": 50.48432,
    "lng": 30.90304
  },
  {
    "id": 695441,
    "name": "Rozkishne",
    "lat": 48.48959,
    "lng": 39.27881
  },
  {
    "id": 704772,
    "name": "Kosmach",
    "lat": 48.75,
    "lng": 24.37014
  },
  {
    "id": 690281,
    "name": "Velyka Bilozerka",
    "lat": 47.27572,
    "lng": 34.68457
  },
  {
    "id": 709075,
    "name": "Partenit",
    "lat": 44.578,
    "lng": 34.34464
  },
  {
    "id": 707775,
    "name": "Zarichne",
    "lat": 48.73251,
    "lng": 35.30929
  },
  {
    "id": 700335,
    "name": "Nemishaieve",
    "lat": 50.55939,
    "lng": 30.08665
  },
  {
    "id": 690985,
    "name": "Turbiv",
    "lat": 49.34078,
    "lng": 28.71831
  },
  {
    "id": 688154,
    "name": "Yemilchyne",
    "lat": 50.87349,
    "lng": 27.80604
  },
  {
    "id": 689567,
    "name": "Vinkivtsi",
    "lat": 49.03403,
    "lng": 27.23135
  },
  {
    "id": 699680,
    "name": "Novoarkhanhelsk",
    "lat": 48.66187,
    "lng": 30.80705
  },
  {
    "id": 702356,
    "name": "Mahdalynivka",
    "lat": 48.91204,
    "lng": 34.91395
  },
  {
    "id": 696557,
    "name": "Popilnia",
    "lat": 49.9532,
    "lng": 29.45265
  },
  {
    "id": 700848,
    "name": "Molochansk",
    "lat": 47.20405,
    "lng": 35.59789
  },
  {
    "id": 694603,
    "name": "Semenivka",
    "lat": 49.59655,
    "lng": 33.17943
  },
  {
    "id": 709034,
    "name": "Halych",
    "lat": 49.12374,
    "lng": 24.72748
  },
  {
    "id": 710342,
    "name": "Chutove",
    "lat": 49.71414,
    "lng": 35.15747
  },
  {
    "id": 693995,
    "name": "Shklo",
    "lat": 49.95675,
    "lng": 23.54408
  },
  {
    "id": 704773,
    "name": "Kosmach",
    "lat": 48.33356,
    "lng": 24.81845
  },
  {
    "id": 690713,
    "name": "Blahovishchenske",
    "lat": 48.32822,
    "lng": 30.23619
  },
  {
    "id": 689401,
    "name": "Volodymyrivka",
    "lat": 47.73391,
    "lng": 37.3882
  },
  {
    "id": 692829,
    "name": "Starobesheve",
    "lat": 47.75069,
    "lng": 38.03039
  },
  {
    "id": 692146,
    "name": "Sutysky",
    "lat": 49.03901,
    "lng": 28.41956
  },
  {
    "id": 707313,
    "name": "Yizhivtsi",
    "lat": 48.02526,
    "lng": 25.64626
  },
  {
    "id": 692713,
    "name": "Staryi Krym",
    "lat": 47.16105,
    "lng": 37.48808
  },
  {
    "id": 709740,
    "name": "Domanivka",
    "lat": 47.62865,
    "lng": 30.98648
  },
  {
    "id": 701561,
    "name": "Mayaky",
    "lat": 46.41253,
    "lng": 30.26717
  },
  {
    "id": 697018,
    "name": "Pobuzke",
    "lat": 48.1595,
    "lng": 30.59247
  },
  {
    "id": 699617,
    "name": "Novodonetske",
    "lat": 48.63604,
    "lng": 36.98582
  },
  {
    "id": 690335,
    "name": "Vasyshcheve",
    "lat": 49.83465,
    "lng": 36.33123
  },
  {
    "id": 700606,
    "name": "Murovani Kurylivtsi",
    "lat": 48.71813,
    "lng": 27.53084
  },
  {
    "id": 708585,
    "name": "Holovanivsk",
    "lat": 48.3874,
    "lng": 30.45947
  },
  {
    "id": 712934,
    "name": "Balabyne",
    "lat": 47.73686,
    "lng": 35.21361
  },
  {
    "id": 689817,
    "name": "Verkhovyna",
    "lat": 48.15536,
    "lng": 24.82986
  },
  {
    "id": 699259,
    "name": "Mamayvtsi",
    "lat": 48.34722,
    "lng": 25.8275
  },
  {
    "id": 710739,
    "name": "Chernihivka",
    "lat": 47.19451,
    "lng": 36.21648
  },
  {
    "id": 690963,
    "name": "Turiisk",
    "lat": 51.08644,
    "lng": 24.52294
  },
  {
    "id": 689717,
    "name": "Veselynove",
    "lat": 47.35688,
    "lng": 31.23219
  },
  {
    "id": 698102,
    "name": "Ozerne",
    "lat": 50.17816,
    "lng": 28.73384
  },
  {
    "id": 687383,
    "name": "Zelenivka",
    "lat": 46.71717,
    "lng": 32.65697
  },
  {
    "id": 694278,
    "name": "Shchyrets",
    "lat": 49.65296,
    "lng": 23.85826
  },
  {
    "id": 712895,
    "name": "Balky",
    "lat": 47.38596,
    "lng": 34.93132
  },
  {
    "id": 702246,
    "name": "Mala Bilozerka",
    "lat": 47.24737,
    "lng": 34.93457
  },
  {
    "id": 710668,
    "name": "Chornukhyne",
    "lat": 48.32281,
    "lng": 38.51744
  },
  {
    "id": 702469,
    "name": "Liubeshiv",
    "lat": 51.76535,
    "lng": 25.5142
  },
  {
    "id": 691820,
    "name": "Bessarabske",
    "lat": 46.18757,
    "lng": 29.14635
  },
  {
    "id": 689321,
    "name": "Vodiane",
    "lat": 47.48651,
    "lng": 34.50422
  },
  {
    "id": 699756,
    "name": "Novhorodka",
    "lat": 48.36089,
    "lng": 32.65469
  },
  {
    "id": 7039154,
    "name": "Novofedorovka",
    "lat": 45.09473,
    "lng": 33.57211
  },
  {
    "id": 706546,
    "name": "Kehychivka",
    "lat": 49.28656,
    "lng": 35.76153
  },
  {
    "id": 707127,
    "name": "Kalyny",
    "lat": 48.14403,
    "lng": 23.87386
  },
  {
    "id": 707529,
    "name": "Ispas",
    "lat": 48.29881,
    "lng": 25.26941
  },
  {
    "id": 694152,
    "name": "Shevchenkove",
    "lat": 45.55487,
    "lng": 29.33354
  },
  {
    "id": 709373,
    "name": "Dymer",
    "lat": 50.78647,
    "lng": 30.3026
  },
  {
    "id": 699607,
    "name": "Novofedorivka",
    "lat": 46.17477,
    "lng": 32.31765
  },
  {
    "id": 700793,
    "name": "Monastyryska",
    "lat": 49.09063,
    "lng": 25.17149
  },
  {
    "id": 702459,
    "name": "Lyubymivka",
    "lat": 46.81048,
    "lng": 33.56845
  },
  {
    "id": 690267,
    "name": "Velyka Dobron",
    "lat": 48.41979,
    "lng": 22.38857
  },
  {
    "id": 692702,
    "name": "Staryi Sambir",
    "lat": 49.44199,
    "lng": 23.00185
  },
  {
    "id": 702302,
    "name": "Makiv",
    "lat": 48.79388,
    "lng": 26.68908
  },
  {
    "id": 709888,
    "name": "Dobrovelychkivka",
    "lat": 48.38939,
    "lng": 31.18039
  },
  {
    "id": 698247,
    "name": "Oster",
    "lat": 50.9506,
    "lng": 30.88229
  },
  {
    "id": 700753,
    "name": "Morshyn",
    "lat": 49.1552,
    "lng": 23.87239
  },
  {
    "id": 9983712,
    "name": "Avanhard",
    "lat": 46.46871,
    "lng": 30.61551
  },
  {
    "id": 709943,
    "name": "Dniprovske",
    "lat": 48.59042,
    "lng": 34.41394
  },
  {
    "id": 697203,
    "name": "Pionerskoye",
    "lat": 44.88083,
    "lng": 34.20194
  },
  {
    "id": 687602,
    "name": "Zorya",
    "lat": 45.99124,
    "lng": 29.69234
  },
  {
    "id": 688532,
    "name": "Yalta",
    "lat": 46.96098,
    "lng": 37.27446
  },
  {
    "id": 706634,
    "name": "Katerynopil",
    "lat": 48.94563,
    "lng": 30.97187
  },
  {
    "id": 711562,
    "name": "Bortnychi",
    "lat": 50.38489,
    "lng": 30.69542
  },
  {
    "id": 699882,
    "name": "Nova Borova",
    "lat": 50.69296,
    "lng": 28.63446
  },
  {
    "id": 690285,
    "name": "Velyka Bahachka",
    "lat": 49.79819,
    "lng": 33.72013
  },
  {
    "id": 701327,
    "name": "Mishkovo-Pohorilove",
    "lat": 46.99447,
    "lng": 32.10997
  },
  {
    "id": 711400,
    "name": "Broshniv-Osada",
    "lat": 48.99759,
    "lng": 24.19417
  },
  {
    "id": 707928,
    "name": "Hubynykha",
    "lat": 48.808,
    "lng": 35.25829
  },
  {
    "id": 693870,
    "name": "Shumsk",
    "lat": 50.11775,
    "lng": 26.11792
  },
  {
    "id": 693001,
    "name": "Serednie Vodiane",
    "lat": 47.98293,
    "lng": 23.90904
  },
  {
    "id": 690165,
    "name": "Velyki Kopani",
    "lat": 46.48818,
    "lng": 32.97348
  },
  {
    "id": 691422,
    "name": "Tomashpil",
    "lat": 48.53695,
    "lng": 28.51295
  },
  {
    "id": 704972,
    "name": "Koreiz",
    "lat": 44.43149,
    "lng": 34.08404
  },
  {
    "id": 710381,
    "name": "Chudniv",
    "lat": 50.05204,
    "lng": 28.11745
  },
  {
    "id": 698142,
    "name": "Otyniia",
    "lat": 48.73792,
    "lng": 24.86115
  },
  {
    "id": 689190,
    "name": "Vilne",
    "lat": 47.63788,
    "lng": 34.81667
  },
  {
    "id": 701104,
    "name": "Milove",
    "lat": 49.37361,
    "lng": 40.14641
  },
  {
    "id": 689868,
    "name": "Verkhniy Rohachyk",
    "lat": 47.25208,
    "lng": 34.33557
  },
  {
    "id": 708695,
    "name": "Hnidyn",
    "lat": 50.32899,
    "lng": 30.71059
  },
  {
    "id": 704402,
    "name": "Teple",
    "lat": 48.31245,
    "lng": 39.56284
  },
  {
    "id": 698107,
    "name": "Ozerne",
    "lat": 45.40559,
    "lng": 28.66861
  },
  {
    "id": 8516167,
    "name": "Horenka",
    "lat": 50.55731,
    "lng": 30.33217
  },
  {
    "id": 701768,
    "name": "Marshyntsi",
    "lat": 48.21191,
    "lng": 26.29934
  },
  {
    "id": 695320,
    "name": "Rozhniv",
    "lat": 48.36465,
    "lng": 25.23109
  },
  {
    "id": 709270,
    "name": "Eskhar",
    "lat": 49.79736,
    "lng": 36.59025
  },
  {
    "id": 694467,
    "name": "Serhiyivka",
    "lat": 46.0251,
    "lng": 30.36826
  },
  {
    "id": 11817987,
    "name": "Tarasivtsi",
    "lat": 48.20557,
    "lng": 26.36444
  },
  {
    "id": 694752,
    "name": "Savyntsi",
    "lat": 49.40505,
    "lng": 37.05517
  },
  {
    "id": 700371,
    "name": "Nedryhailiv",
    "lat": 50.83398,
    "lng": 33.87626
  },
  {
    "id": 690428,
    "name": "Vashkivtsi",
    "lat": 48.38386,
    "lng": 25.51751
  },
  {
    "id": 697537,
    "name": "Pishchanka",
    "lat": 48.21249,
    "lng": 28.88056
  },
  {
    "id": 692866,
    "name": "Stara Syniava",
    "lat": 49.59709,
    "lng": 27.615
  },
  {
    "id": 690038,
    "name": "Velyka Mykhaylivka",
    "lat": 47.07847,
    "lng": 29.85253
  },
  {
    "id": 695365,
    "name": "Rivne",
    "lat": 48.24098,
    "lng": 31.75845
  },
  {
    "id": 860012,
    "name": "Okny",
    "lat": 47.54293,
    "lng": 29.45586
  },
  {
    "id": 698462,
    "name": "Opishnya",
    "lat": 49.95948,
    "lng": 34.60634
  },
  {
    "id": 695221,
    "name": "Rudky",
    "lat": 49.65306,
    "lng": 23.48702
  },
  {
    "id": 694333,
    "name": "Shatsk",
    "lat": 51.50208,
    "lng": 23.93806
  },
  {
    "id": 701294,
    "name": "Chudei",
    "lat": 48.05247,
    "lng": 25.62208
  },
  {
    "id": 691943,
    "name": "Talalaivka",
    "lat": 50.83913,
    "lng": 33.14374
  },
  {
    "id": 705459,
    "name": "Kolinkivtsy",
    "lat": 48.41254,
    "lng": 26.12462
  },
  {
    "id": 712582,
    "name": "Bilohirya",
    "lat": 49.99894,
    "lng": 26.41442
  },
  {
    "id": 699554,
    "name": "Novohuivynske",
    "lat": 50.20816,
    "lng": 28.69285
  },
  {
    "id": 697802,
    "name": "Pechenizhyn",
    "lat": 48.51668,
    "lng": 24.88317
  },
  {
    "id": 708324,
    "name": "Horodnytsia",
    "lat": 50.80697,
    "lng": 27.31676
  },
  {
    "id": 699413,
    "name": "Novomykolayivka",
    "lat": 47.97362,
    "lng": 35.89806
  },
  {
    "id": 707317,
    "name": "Iza",
    "lat": 48.21525,
    "lng": 23.32867
  },
  {
    "id": 697126,
    "name": "Plakhtiyivka",
    "lat": 46.095,
    "lng": 29.7189
  },
  {
    "id": 690237,
    "name": "Velyka Novosilka",
    "lat": 47.8451,
    "lng": 36.83512
  },
  {
    "id": 690230,
    "name": "Velyka Pysarivka",
    "lat": 50.4243,
    "lng": 35.47989
  },
  {
    "id": 709584,
    "name": "Khutir-Mykhailivskyi",
    "lat": 52.04769,
    "lng": 33.94534
  },
  {
    "id": 706941,
    "name": "Komyshuvakha",
    "lat": 47.71491,
    "lng": 35.52405
  },
  {
    "id": 705560,
    "name": "Knyazhichi",
    "lat": 50.46275,
    "lng": 30.78369
  },
  {
    "id": 713658,
    "name": "Oleksandrivka",
    "lat": 47.69009,
    "lng": 31.27756
  },
  {
    "id": 710864,
    "name": "Chemerivtsi",
    "lat": 49.00914,
    "lng": 26.34002
  },
  {
    "id": 703015,
    "name": "Lypova Dolyna",
    "lat": 50.56428,
    "lng": 33.79793
  },
  {
    "id": 704335,
    "name": "Krasnosilka",
    "lat": 46.62273,
    "lng": 30.77148
  },
  {
    "id": 691291,
    "name": "Troyitske",
    "lat": 46.54168,
    "lng": 30.02346
  },
  {
    "id": 711623,
    "name": "Borova",
    "lat": 49.37666,
    "lng": 37.64103
  },
  {
    "id": 712343,
    "name": "Berezna",
    "lat": 51.5716,
    "lng": 31.78456
  },
  {
    "id": 711460,
    "name": "Bratske",
    "lat": 47.86664,
    "lng": 31.57525
  },
  {
    "id": 709071,
    "name": "Zakharivka",
    "lat": 47.33134,
    "lng": 29.754
  },
  {
    "id": 710556,
    "name": "Pulyny",
    "lat": 50.46784,
    "lng": 28.2713
  },
  {
    "id": 689106,
    "name": "Volovets",
    "lat": 48.7109,
    "lng": 23.1851
  },
  {
    "id": 710454,
    "name": "Chisten’koye",
    "lat": 44.88152,
    "lng": 34.04716
  },
  {
    "id": 697803,
    "name": "Pechenihy",
    "lat": 49.87167,
    "lng": 36.93472
  },
  {
    "id": 692819,
    "name": "Starokozache",
    "lat": 46.33583,
    "lng": 29.98876
  },
  {
    "id": 708330,
    "name": "Horodnye",
    "lat": 45.89203,
    "lng": 28.84946
  },
  {
    "id": 8519952,
    "name": "Chabany",
    "lat": 50.34071,
    "lng": 30.42356
  },
  {
    "id": 708257,
    "name": "Hoshcha",
    "lat": 50.6003,
    "lng": 26.67435
  },
  {
    "id": 704915,
    "name": "Korop",
    "lat": 51.56638,
    "lng": 32.95861
  },
  {
    "id": 692742,
    "name": "Stari Kuty",
    "lat": 48.27943,
    "lng": 25.163
  },
  {
    "id": 695505,
    "name": "Romankivtsi",
    "lat": 48.48421,
    "lng": 27.2141
  },
  {
    "id": 698803,
    "name": "Obolon",
    "lat": 49.60389,
    "lng": 32.87384
  },
  {
    "id": 692856,
    "name": "Stara Vyzhivka",
    "lat": 51.43762,
    "lng": 24.43997
  },
  {
    "id": 691942,
    "name": "Talalaivka",
    "lat": 50.95783,
    "lng": 31.92085
  },
  {
    "id": 686915,
    "name": "Znamyanka Druha",
    "lat": 48.71157,
    "lng": 32.59655
  },
  {
    "id": 695106,
    "name": "Ruska Lozova",
    "lat": 50.14213,
    "lng": 36.28612
  },
  {
    "id": 692577,
    "name": "Stepanivka",
    "lat": 50.95591,
    "lng": 34.60583
  },
  {
    "id": 7025405,
    "name": "Novoozyornoye",
    "lat": 45.38314,
    "lng": 33.11715
  },
  {
    "id": 705837,
    "name": "Kyrnasivka",
    "lat": 48.59183,
    "lng": 28.97923
  },
  {
    "id": 695082,
    "name": "Ruzhyn",
    "lat": 49.72175,
    "lng": 29.21874
  },
  {
    "id": 686932,
    "name": "Zlynka",
    "lat": 48.48529,
    "lng": 31.54227
  },
  {
    "id": 710892,
    "name": "Chechelnyk",
    "lat": 48.21558,
    "lng": 29.36469
  },
  {
    "id": 11564321,
    "name": "Bratske",
    "lat": 46.35641,
    "lng": 32.1673
  },
  {
    "id": 697527,
    "name": "Pishchane",
    "lat": 49.12376,
    "lng": 33.39674
  },
  {
    "id": 713176,
    "name": "Zalizne",
    "lat": 48.37083,
    "lng": 37.8855
  },
  {
    "id": 703713,
    "name": "Kulykivka",
    "lat": 51.37345,
    "lng": 31.64661
  },
  {
    "id": 691355,
    "name": "Toshkivka",
    "lat": 48.78303,
    "lng": 38.56332
  },
  {
    "id": 688865,
    "name": "Voznesenka",
    "lat": 46.86884,
    "lng": 35.463
  },
  {
    "id": 11204631,
    "name": "Yarkoye Pole",
    "lat": 45.20581,
    "lng": 35.19848
  },
  {
    "id": 712629,
    "name": "Bilyky",
    "lat": 49.25147,
    "lng": 34.2706
  },
  {
    "id": 695798,
    "name": "Rozsypne",
    "lat": 48.14966,
    "lng": 38.57619
  },
  {
    "id": 697455,
    "name": "Petrykivka",
    "lat": 48.7279,
    "lng": 34.62837
  },
  {
    "id": 704881,
    "name": "Korotych",
    "lat": 49.94737,
    "lng": 36.03736
  },
  {
    "id": 711459,
    "name": "Bratslav",
    "lat": 48.82317,
    "lng": 28.93827
  },
  {
    "id": 687277,
    "name": "Zghurivka",
    "lat": 50.50276,
    "lng": 31.78492
  },
  {
    "id": 687433,
    "name": "Zdovbytsia",
    "lat": 50.49607,
    "lng": 26.24111
  },
  {
    "id": 692122,
    "name": "Svarychiv",
    "lat": 48.95907,
    "lng": 24.18942
  },
  {
    "id": 699328,
    "name": "Novopokrovka",
    "lat": 49.83561,
    "lng": 36.55704
  },
  {
    "id": 696150,
    "name": "Prosyana",
    "lat": 48.11368,
    "lng": 36.37175
  },
  {
    "id": 705433,
    "name": "Kolochava",
    "lat": 48.42685,
    "lng": 23.69769
  },
  {
    "id": 688221,
    "name": "Yelanets",
    "lat": 47.69521,
    "lng": 31.85222
  },
  {
    "id": 702557,
    "name": "Luzhany",
    "lat": 48.35923,
    "lng": 25.78292
  },
  {
    "id": 690193,
    "name": "Velykyi Burluk",
    "lat": 50.0617,
    "lng": 37.38373
  },
  {
    "id": 699619,
    "name": "Voskhod",
    "lat": 45.50999,
    "lng": 34.39355
  },
  {
    "id": 710033,
    "name": "Dmytrivka",
    "lat": 45.96904,
    "lng": 28.98849
  },
  {
    "id": 698869,
    "name": "Novyi Starodub",
    "lat": 48.5149,
    "lng": 33.17133
  },
  {
    "id": 690556,
    "name": "Uyutnoye",
    "lat": 45.19769,
    "lng": 33.29796
  },
  {
    "id": 711518,
    "name": "Boiany",
    "lat": 48.26685,
    "lng": 26.12556
  },
  {
    "id": 692944,
    "name": "Stanislav",
    "lat": 46.57309,
    "lng": 32.15001
  },
  {
    "id": 710032,
    "name": "Oleksandriyske",
    "lat": 48.60444,
    "lng": 32.98851
  },
  {
    "id": 711382,
    "name": "Brusyliv",
    "lat": 50.28449,
    "lng": 29.52626
  },
  {
    "id": 699986,
    "name": "Nyzhni Sirohozy",
    "lat": 46.84585,
    "lng": 34.37489
  },
  {
    "id": 698606,
    "name": "Oleshnyk",
    "lat": 48.16532,
    "lng": 22.96249
  },
  {
    "id": 688933,
    "name": "Voskresenske",
    "lat": 47.01334,
    "lng": 32.14542
  },
  {
    "id": 705689,
    "name": "Klavdiievo-Tarasove",
    "lat": 50.58416,
    "lng": 30.01134
  },
  {
    "id": 707750,
    "name": "Hradenytsi",
    "lat": 46.59691,
    "lng": 30.00244
  },
  {
    "id": 698316,
    "name": "Osypenko",
    "lat": 46.91842,
    "lng": 36.82414
  },
  {
    "id": 691603,
    "name": "Terpinnia",
    "lat": 46.98205,
    "lng": 35.42264
  },
  {
    "id": 687065,
    "name": "Blahodatne",
    "lat": 50.66365,
    "lng": 24.24918
  },
  {
    "id": 697817,
    "name": "Pavlysh",
    "lat": 48.92301,
    "lng": 33.36076
  },
  {
    "id": 700730,
    "name": "Moshny",
    "lat": 49.52754,
    "lng": 31.73708
  },
  {
    "id": 693791,
    "name": "Synevyr",
    "lat": 48.49947,
    "lng": 23.62179
  },
  {
    "id": 687526,
    "name": "Zavallya",
    "lat": 48.21674,
    "lng": 30.01741
  },
  {
    "id": 700977,
    "name": "Miusynsk",
    "lat": 48.0775,
    "lng": 38.90364
  },
  {
    "id": 698523,
    "name": "Vilshanka",
    "lat": 48.23421,
    "lng": 30.87285
  },
  {
    "id": 697384,
    "name": "Petrivka",
    "lat": 46.9108,
    "lng": 30.72167
  },
  {
    "id": 692138,
    "name": "Katlabuh",
    "lat": 45.58174,
    "lng": 28.98179
  },
  {
    "id": 706232,
    "name": "Khotiv",
    "lat": 50.33069,
    "lng": 30.46836
  },
  {
    "id": 690764,
    "name": "Ukromnoye",
    "lat": 45.04272,
    "lng": 34.00312
  },
  {
    "id": 702679,
    "name": "Luhyny",
    "lat": 51.08203,
    "lng": 28.40057
  },
  {
    "id": 711487,
    "name": "Brayiliv",
    "lat": 49.10671,
    "lng": 28.16472
  },
  {
    "id": 690106,
    "name": "Velykyi Rakovets",
    "lat": 48.27368,
    "lng": 23.14912
  },
  {
    "id": 695515,
    "name": "Rokosovo",
    "lat": 48.20829,
    "lng": 23.17849
  },
  {
    "id": 709909,
    "name": "Dobromyl",
    "lat": 49.57086,
    "lng": 22.78666
  },
  {
    "id": 704074,
    "name": "Krynychna",
    "lat": 48.12821,
    "lng": 38.02593
  },
  {
    "id": 697945,
    "name": "Pasichna",
    "lat": 48.56995,
    "lng": 24.41545
  },
  {
    "id": 690116,
    "name": "Velykyi Liubin",
    "lat": 49.72252,
    "lng": 23.73523
  },
  {
    "id": 698614,
    "name": "Olenivka",
    "lat": 47.8272,
    "lng": 37.65982
  },
  {
    "id": 703559,
    "name": "Kushnytsia",
    "lat": 48.45272,
    "lng": 23.26166
  },
  {
    "id": 702507,
    "name": "Lysa Hora",
    "lat": 48.17059,
    "lng": 31.10994
  },
  {
    "id": 708287,
    "name": "Horonda",
    "lat": 48.37429,
    "lng": 22.57119
  },
  {
    "id": 692468,
    "name": "Stizhkivske",
    "lat": 48.11857,
    "lng": 38.46693
  },
  {
    "id": 6976172,
    "name": "Komsomol’skoye",
    "lat": 45.019,
    "lng": 34.03049
  },
  {
    "id": 697038,
    "name": "Pniv",
    "lat": 48.61487,
    "lng": 24.52783
  },
  {
    "id": 710949,
    "name": "Viitivka",
    "lat": 48.42257,
    "lng": 29.54497
  },
  {
    "id": 706281,
    "name": "Khorosheve",
    "lat": 49.8517,
    "lng": 36.22759
  },
  {
    "id": 705198,
    "name": "Kompaniyivka",
    "lat": 48.25022,
    "lng": 32.20138
  },
  {
    "id": 691386,
    "name": "Toporivtsi",
    "lat": 48.38575,
    "lng": 26.09087
  },
  {
    "id": 691741,
    "name": "Boykivske",
    "lat": 47.40994,
    "lng": 38.02476
  },
  {
    "id": 689531,
    "name": "Vynohradove",
    "lat": 46.36867,
    "lng": 32.93836
  },
  {
    "id": 692248,
    "name": "Stepnohirsk",
    "lat": 47.59015,
    "lng": 35.36399
  },
  {
    "id": 707453,
    "name": "Ivanivka",
    "lat": 46.71268,
    "lng": 34.54975
  },
  {
    "id": 703311,
    "name": "Lebedyn",
    "lat": 48.9628,
    "lng": 31.52575
  },
  {
    "id": 695685,
    "name": "Ridkivtsi",
    "lat": 48.33902,
    "lng": 26.07342
  },
  {
    "id": 710981,
    "name": "Bytkiv",
    "lat": 48.63092,
    "lng": 24.47118
  },
  {
    "id": 712477,
    "name": "Bili Oslavy",
    "lat": 48.4819,
    "lng": 24.69848
  },
  {
    "id": 704072,
    "name": "Krynychne",
    "lat": 45.53755,
    "lng": 28.66618
  },
  {
    "id": 694013,
    "name": "Shyshaky",
    "lat": 49.87574,
    "lng": 34.00645
  },
  {
    "id": 696517,
    "name": "Popivka",
    "lat": 51.21944,
    "lng": 33.1155
  },
  {
    "id": 693002,
    "name": "Serednye",
    "lat": 48.54006,
    "lng": 22.50441
  },
  {
    "id": 705524,
    "name": "Kobyzhcha",
    "lat": 50.82854,
    "lng": 31.50439
  },
  {
    "id": 687726,
    "name": "Zaozyornoye",
    "lat": 45.15816,
    "lng": 33.27866
  },
  {
    "id": 706517,
    "name": "Keretsky",
    "lat": 48.47884,
    "lng": 23.22104
  },
  {
    "id": 690572,
    "name": "Utkonosivka",
    "lat": 45.49523,
    "lng": 28.95951
  },
  {
    "id": 712992,
    "name": "Baherove",
    "lat": 45.37417,
    "lng": 36.29705
  },
  {
    "id": 692016,
    "name": "Sviatohirsk",
    "lat": 49.04101,
    "lng": 37.57194
  },
  {
    "id": 688904,
    "name": "Voykovo",
    "lat": 45.38329,
    "lng": 36.43739
  },
  {
    "id": 707281,
    "name": "Kacha",
    "lat": 44.77635,
    "lng": 33.54387
  },
  {
    "id": 703017,
    "name": "Lypniazhka",
    "lat": 48.4458,
    "lng": 31.08074
  },
  {
    "id": 709630,
    "name": "Drahovo",
    "lat": 48.23789,
    "lng": 23.54868
  },
  {
    "id": 705462,
    "name": "Kolchyno",
    "lat": 48.46936,
    "lng": 22.75784
  },
  {
    "id": 694812,
    "name": "Sarata",
    "lat": 46.02056,
    "lng": 29.66444
  },
  {
    "id": 711435,
    "name": "Brylivka",
    "lat": 46.42025,
    "lng": 33.14108
  },
  {
    "id": 700607,
    "name": "Murovane",
    "lat": 49.52143,
    "lng": 22.9367
  },
  {
    "id": 693726,
    "name": "Syvaske",
    "lat": 46.38503,
    "lng": 34.54683
  },
  {
    "id": 698921,
    "name": "Novi Troyany",
    "lat": 45.943,
    "lng": 28.85947
  },
  {
    "id": 13118881,
    "name": "Novyi Kalyniv",
    "lat": 49.55977,
    "lng": 23.30612
  },
  {
    "id": 689037,
    "name": "Vorokhta",
    "lat": 48.29301,
    "lng": 24.56393
  },
  {
    "id": 701057,
    "name": "Mirny",
    "lat": 45.30788,
    "lng": 33.03501
  },
  {
    "id": 696824,
    "name": "Pidvynohradiv",
    "lat": 48.13843,
    "lng": 22.97304
  },
  {
    "id": 708613,
    "name": "Holoby",
    "lat": 51.08651,
    "lng": 25.00767
  },
  {
    "id": 695307,
    "name": "Rozivka",
    "lat": 46.93802,
    "lng": 35.77566
  },
  {
    "id": 710798,
    "name": "Cherkaska Lozova",
    "lat": 50.10954,
    "lng": 36.22102
  },
  {
    "id": 698790,
    "name": "Obroshyne",
    "lat": 49.78333,
    "lng": 23.86667
  },
  {
    "id": 702989,
    "name": "Lyptsi",
    "lat": 50.20931,
    "lng": 36.42085
  },
  {
    "id": 708057,
    "name": "Hryshkivtsi",
    "lat": 49.93634,
    "lng": 28.60472
  },
  {
    "id": 693701,
    "name": "Skala-Podilska",
    "lat": 48.85014,
    "lng": 26.20064
  },
  {
    "id": 709940,
    "name": "Dnipryany",
    "lat": 46.74849,
    "lng": 33.26632
  },
  {
    "id": 713126,
    "name": "Auly",
    "lat": 48.5547,
    "lng": 34.45826
  },
  {
    "id": 700967,
    "name": "Mliiv",
    "lat": 49.33691,
    "lng": 31.51704
  },
  {
    "id": 713522,
    "name": "Almazna",
    "lat": 48.52048,
    "lng": 38.58035
  },
  {
    "id": 709665,
    "name": "Dovbysh",
    "lat": 50.37332,
    "lng": 27.98742
  },
  {
    "id": 11153636,
    "name": "Sakharnaya Golovka",
    "lat": 44.58362,
    "lng": 33.64383
  },
  {
    "id": 688361,
    "name": "Yasky",
    "lat": 46.50966,
    "lng": 30.07587
  },
  {
    "id": 710531,
    "name": "Znamyanka",
    "lat": 47.01667,
    "lng": 30.29485
  },
  {
    "id": 6931023,
    "name": "Orzhiv",
    "lat": 50.8,
    "lng": 26.12
  },
  {
    "id": 690890,
    "name": "Tynne",
    "lat": 50.60145,
    "lng": 26.18486
  },
  {
    "id": 710794,
    "name": "Cherkaske",
    "lat": 48.70594,
    "lng": 35.37868
  },
  {
    "id": 701405,
    "name": "Melioratyvne",
    "lat": 48.62047,
    "lng": 35.40248
  },
  {
    "id": 712387,
    "name": "Berezanka",
    "lat": 46.85159,
    "lng": 31.38532
  },
  {
    "id": 705914,
    "name": "Khyriv",
    "lat": 49.53345,
    "lng": 22.85312
  },
  {
    "id": 689307,
    "name": "Voinka",
    "lat": 45.8699,
    "lng": 33.99138
  },
  {
    "id": 699899,
    "name": "Nova Ushytsya",
    "lat": 48.83699,
    "lng": 27.27112
  },
  {
    "id": 709993,
    "name": "Delzhyler",
    "lat": 45.83973,
    "lng": 29.48718
  },
  {
    "id": 711629,
    "name": "Boromlia",
    "lat": 50.61839,
    "lng": 34.97042
  },
  {
    "id": 709983,
    "name": "Dmytrivka",
    "lat": 48.78643,
    "lng": 32.71767
  },
  {
    "id": 703144,
    "name": "Lisovi Sorochyntsi",
    "lat": 50.6892,
    "lng": 32.32919
  },
  {
    "id": 690147,
    "name": "Velyki Sorochyntsi",
    "lat": 50.02314,
    "lng": 33.94144
  },
  {
    "id": 706612,
    "name": "Katiuzhanka",
    "lat": 50.80595,
    "lng": 30.13763
  },
  {
    "id": 709776,
    "name": "Dolynske",
    "lat": 47.52952,
    "lng": 29.92642
  },
  {
    "id": 688689,
    "name": "Vysokopillya",
    "lat": 47.4893,
    "lng": 33.53056
  },
  {
    "id": 705442,
    "name": "Kulevcha",
    "lat": 46.03323,
    "lng": 29.94032
  },
  {
    "id": 703514,
    "name": "Kuty",
    "lat": 48.26249,
    "lng": 25.17943
  },
  {
    "id": 694384,
    "name": "Shakhove",
    "lat": 49.8028,
    "lng": 38.4895
  },
  {
    "id": 712872,
    "name": "Banyliv-Pidhirnyi",
    "lat": 48.08333,
    "lng": 25.48333
  },
  {
    "id": 688772,
    "name": "Vyhoda",
    "lat": 46.61645,
    "lng": 30.40031
  },
  {
    "id": 703328,
    "name": "Lazeshchyna",
    "lat": 48.2744,
    "lng": 24.41559
  },
  {
    "id": 703071,
    "name": "Lyman",
    "lat": 49.59358,
    "lng": 36.46548
  },
  {
    "id": 699410,
    "name": "Novomykolayivka",
    "lat": 48.56125,
    "lng": 34.37552
  },
  {
    "id": 11149565,
    "name": "Nyva Trudova",
    "lat": 47.73119,
    "lng": 33.62156
  },
  {
    "id": 689017,
    "name": "Voronkiv",
    "lat": 50.22235,
    "lng": 30.89967
  },
  {
    "id": 687965,
    "name": "Zabolotiv",
    "lat": 48.467,
    "lng": 25.28523
  },
  {
    "id": 705461,
    "name": "Kol’chugino",
    "lat": 44.94367,
    "lng": 33.78865
  },
  {
    "id": 698235,
    "name": "Ostrytsya",
    "lat": 48.25792,
    "lng": 26.05186
  },
  {
    "id": 708693,
    "name": "Hnizdychiv",
    "lat": 49.33742,
    "lng": 24.10786
  },
  {
    "id": 687468,
    "name": "Zaitseve",
    "lat": 48.52675,
    "lng": 38.07086
  },
  {
    "id": 711961,
    "name": "Bahate",
    "lat": 45.40718,
    "lng": 28.94254
  },
  {
    "id": 689434,
    "name": "Vyzhnytsya",
    "lat": 48.24482,
    "lng": 25.18112
  },
  {
    "id": 692182,
    "name": "Suprunivka",
    "lat": 49.57783,
    "lng": 34.44038
  },
  {
    "id": 695930,
    "name": "Radens’k",
    "lat": 46.5486,
    "lng": 32.92787
  },
  {
    "id": 704079,
    "name": "Krynychky",
    "lat": 48.37438,
    "lng": 34.46202
  },
  {
    "id": 8468687,
    "name": "Kulykiv",
    "lat": 49.97954,
    "lng": 24.07817
  },
  {
    "id": 690855,
    "name": "Tyvriv",
    "lat": 49.01206,
    "lng": 28.50044
  },
  {
    "id": 712131,
    "name": "Krynychne",
    "lat": 47.95631,
    "lng": 39.73843
  },
  {
    "id": 687646,
    "name": "Zarichchia",
    "lat": 48.27945,
    "lng": 22.99365
  },
  {
    "id": 695285,
    "name": "Rubanivka",
    "lat": 46.99895,
    "lng": 34.173
  },
  {
    "id": 695821,
    "name": "Ralivka",
    "lat": 49.49982,
    "lng": 23.23739
  },
  {
    "id": 689543,
    "name": "Vynohradivka",
    "lat": 45.67896,
    "lng": 28.57571
  },
  {
    "id": 687469,
    "name": "Zaitseve",
    "lat": 48.42905,
    "lng": 35.6713
  },
  {
    "id": 690395,
    "name": "Vasylivka",
    "lat": 45.64334,
    "lng": 28.83298
  },
  {
    "id": 712871,
    "name": "Banyliv",
    "lat": 48.36221,
    "lng": 25.34966
  },
  {
    "id": 688127,
    "name": "Yerky",
    "lat": 48.98606,
    "lng": 30.99579
  },
  {
    "id": 697624,
    "name": "Perovo",
    "lat": 44.92513,
    "lng": 34.05753
  },
  {
    "id": 713652,
    "name": "Oleksandrivka",
    "lat": 47.92073,
    "lng": 37.57872
  },
  {
    "id": 695315,
    "name": "Rozhniativ",
    "lat": 48.93975,
    "lng": 24.15627
  },
  {
    "id": 709954,
    "name": "Dniprovka",
    "lat": 47.42844,
    "lng": 34.61824
  },
  {
    "id": 694290,
    "name": "Shcherbynivka",
    "lat": 48.39489,
    "lng": 37.79102
  },
  {
    "id": 695889,
    "name": "Radushne",
    "lat": 47.81548,
    "lng": 33.51015
  },
  {
    "id": 713784,
    "name": "Adzhamka",
    "lat": 48.53973,
    "lng": 32.53595
  },
  {
    "id": 698479,
    "name": "Onufriyivka",
    "lat": 48.89917,
    "lng": 33.44954
  },
  {
    "id": 699015,
    "name": "Nove Davydkovo",
    "lat": 48.44079,
    "lng": 22.6229
  },
  {
    "id": 710260,
    "name": "Dashiv",
    "lat": 49.00351,
    "lng": 29.43971
  },
  {
    "id": 696299,
    "name": "Prylymanske",
    "lat": 46.42369,
    "lng": 30.61446
  },
  {
    "id": 700831,
    "name": "Molodiia",
    "lat": 48.22287,
    "lng": 26.02345
  },
  {
    "id": 696278,
    "name": "Prymorske",
    "lat": 47.6449,
    "lng": 35.29074
  },
  {
    "id": 698347,
    "name": "Orzhiv",
    "lat": 50.75227,
    "lng": 26.11907
  },
  {
    "id": 687645,
    "name": "Zarichchia",
    "lat": 48.51828,
    "lng": 24.64681
  },
  {
    "id": 9115363,
    "name": "Novoluhanske",
    "lat": 48.4261,
    "lng": 38.1751
  },
  {
    "id": 865086,
    "name": "Tayirove",
    "lat": 46.35899,
    "lng": 30.64777
  },
  {
    "id": 697523,
    "name": "Pishchane",
    "lat": 49.74603,
    "lng": 31.84295
  },
  {
    "id": 693700,
    "name": "Skalat",
    "lat": 49.42544,
    "lng": 25.97598
  },
  {
    "id": 710718,
    "name": "Cherniiv",
    "lat": 48.85589,
    "lng": 24.71557
  },
  {
    "id": 692703,
    "name": "Staryi Saltiv",
    "lat": 50.07619,
    "lng": 36.78852
  },
  {
    "id": 690032,
    "name": "Vendychany",
    "lat": 48.6152,
    "lng": 27.79394
  },
  {
    "id": 703716,
    "name": "Kulykiv",
    "lat": 50.31424,
    "lng": 24.81757
  },
  {
    "id": 712003,
    "name": "Bibrka",
    "lat": 49.63814,
    "lng": 24.29199
  },
  {
    "id": 708351,
    "name": "Horodyshche",
    "lat": 50.63965,
    "lng": 26.36573
  },
  {
    "id": 713759,
    "name": "Agrarnoye",
    "lat": 45.01596,
    "lng": 34.05725
  },
  {
    "id": 693354,
    "name": "Sobolivka",
    "lat": 48.61654,
    "lng": 29.48911
  },
  {
    "id": 706566,
    "name": "Kozatske",
    "lat": 46.78551,
    "lng": 33.35002
  },
  {
    "id": 702878,
    "name": "Lokachi",
    "lat": 50.737,
    "lng": 24.64944
  },
  {
    "id": 703037,
    "name": "Lypetske",
    "lat": 47.73646,
    "lng": 29.71521
  },
  {
    "id": 693178,
    "name": "Solotvyn",
    "lat": 48.7063,
    "lng": 24.42164
  },
  {
    "id": 712667,
    "name": "Belaya",
    "lat": 49.029,
    "lng": 25.77059
  },
  {
    "id": 701637,
    "name": "Mashivka",
    "lat": 49.44407,
    "lng": 34.87157
  },
  {
    "id": 701588,
    "name": "Matviivka",
    "lat": 47.07392,
    "lng": 35.14493
  },
  {
    "id": 701383,
    "name": "Melnytsya-Podilska",
    "lat": 48.60816,
    "lng": 26.16657
  },
  {
    "id": 705265,
    "name": "Komarno",
    "lat": 49.62785,
    "lng": 23.69866
  },
  {
    "id": 711398,
    "name": "Broska",
    "lat": 45.36943,
    "lng": 28.78805
  },
  {
    "id": 689945,
    "name": "Verenchanka",
    "lat": 48.54622,
    "lng": 25.74094
  },
  {
    "id": 703789,
    "name": "Kuchurhan",
    "lat": 46.72193,
    "lng": 29.97757
  },
  {
    "id": 712474,
    "name": "Bilyi Kolodiaz",
    "lat": 50.20412,
    "lng": 37.11265
  },
  {
    "id": 701274,
    "name": "Myhove",
    "lat": 48.15612,
    "lng": 25.37574
  },
  {
    "id": 705681,
    "name": "Klembivka",
    "lat": 48.38732,
    "lng": 28.40998
  },
  {
    "id": 9982450,
    "name": "Pershotravneve",
    "lat": 46.74341,
    "lng": 30.91669
  },
  {
    "id": 697971,
    "name": "Parkhomivka",
    "lat": 50.12305,
    "lng": 35.00563
  },
  {
    "id": 697450,
    "name": "Kurisove",
    "lat": 46.96951,
    "lng": 30.95914
  },
  {
    "id": 690745,
    "name": "Ulychne",
    "lat": 49.23164,
    "lng": 23.64612
  },
  {
    "id": 689830,
    "name": "Verkhnia Syrovatka",
    "lat": 50.82902,
    "lng": 34.95861
  },
  {
    "id": 706987,
    "name": "Kamiani Potoky",
    "lat": 48.98,
    "lng": 33.52557
  },
  {
    "id": 690427,
    "name": "Vashkivtsi",
    "lat": 48.4094,
    "lng": 27.13221
  },
  {
    "id": 691606,
    "name": "Terny",
    "lat": 50.98916,
    "lng": 33.9707
  },
  {
    "id": 713678,
    "name": "Oleksandrivka",
    "lat": 46.61147,
    "lng": 30.86444
  },
  {
    "id": 703325,
    "name": "Lazi",
    "lat": 48.06667,
    "lng": 24.23333
  },
  {
    "id": 713062,
    "name": "Azovskoye",
    "lat": 45.58604,
    "lng": 34.5668
  },
  {
    "id": 688663,
    "name": "Vyshchetarasivka",
    "lat": 47.57106,
    "lng": 34.88115
  },
  {
    "id": 699121,
    "name": "Novosvitlivka",
    "lat": 48.49285,
    "lng": 39.50699
  },
  {
    "id": 696478,
    "name": "Poroshkovo",
    "lat": 48.66832,
    "lng": 22.75328
  },
  {
    "id": 705307,
    "name": "Koloniya Zastav’ye",
    "lat": 50.81667,
    "lng": 27.03333
  },
  {
    "id": 694691,
    "name": "Silets",
    "lat": 50.29712,
    "lng": 24.20462
  },
  {
    "id": 703042,
    "name": "Lypcha",
    "lat": 48.26194,
    "lng": 23.38394
  },
  {
    "id": 697841,
    "name": "Pavlivka",
    "lat": 49.44291,
    "lng": 28.4645
  },
  {
    "id": 700159,
    "name": "Mykolayivka",
    "lat": 47.53898,
    "lng": 30.76007
  },
  {
    "id": 704570,
    "name": "Kozelshchyna",
    "lat": 49.21731,
    "lng": 33.84888
  },
  {
    "id": 698510,
    "name": "Olshanske",
    "lat": 47.1724,
    "lng": 31.76498
  },
  {
    "id": 703610,
    "name": "Kurylivka",
    "lat": 49.66058,
    "lng": 37.70787
  },
  {
    "id": 699761,
    "name": "Nove-Misto",
    "lat": 48.98113,
    "lng": 29.82813
  },
  {
    "id": 700295,
    "name": "Neresnytsia",
    "lat": 48.12261,
    "lng": 23.77425
  },
  {
    "id": 692233,
    "name": "Sukhovolya",
    "lat": 49.82426,
    "lng": 23.8377
  },
  {
    "id": 689857,
    "name": "Verkhnyachka",
    "lat": 48.82842,
    "lng": 30.03662
  },
  {
    "id": 701119,
    "name": "Mykulyntsi",
    "lat": 49.39187,
    "lng": 25.60685
  },
  {
    "id": 706596,
    "name": "Kozachi Laheri",
    "lat": 46.70538,
    "lng": 32.98194
  },
  {
    "id": 699177,
    "name": "Novosilske",
    "lat": 45.33425,
    "lng": 28.57169
  },
  {
    "id": 699746,
    "name": "Novytsia",
    "lat": 48.96075,
    "lng": 24.33312
  },
  {
    "id": 690870,
    "name": "Tysovets",
    "lat": 48.17298,
    "lng": 25.89877
  },
  {
    "id": 689892,
    "name": "Verkhnie Synevydne",
    "lat": 49.10307,
    "lng": 23.59099
  },
  {
    "id": 696348,
    "name": "Preobrazhenka",
    "lat": 47.57194,
    "lng": 35.81667
  },
  {
    "id": 687872,
    "name": "Zahvizdia",
    "lat": 48.92266,
    "lng": 24.66356
  },
  {
    "id": 687562,
    "name": "Zatyshshya",
    "lat": 47.33497,
    "lng": 29.87797
  },
  {
    "id": 693582,
    "name": "Slavske",
    "lat": 48.84123,
    "lng": 23.44973
  },
  {
    "id": 707220,
    "name": "Kalcheva",
    "lat": 45.73609,
    "lng": 28.80772
  },
  {
    "id": 693010,
    "name": "Sribne",
    "lat": 50.66384,
    "lng": 32.91867
  },
  {
    "id": 709450,
    "name": "Duliby",
    "lat": 49.23117,
    "lng": 23.81707
  },
  {
    "id": 707257,
    "name": "Kadubivtsi",
    "lat": 48.58046,
    "lng": 25.77021
  },
  {
    "id": 697957,
    "name": "Rykove",
    "lat": 46.33067,
    "lng": 34.74855
  },
  {
    "id": 705156,
    "name": "Kinetspil",
    "lat": 48.00426,
    "lng": 30.78659
  },
  {
    "id": 712091,
    "name": "Blahodatne",
    "lat": 47.88121,
    "lng": 38.48377
  },
  {
    "id": 691052,
    "name": "Tsybli",
    "lat": 49.99484,
    "lng": 31.56281
  },
  {
    "id": 8519818,
    "name": "Kriukivshchyna",
    "lat": 50.36986,
    "lng": 30.36686
  },
  {
    "id": 8504779,
    "name": "Kriukivschina",
    "lat": 50.37153,
    "lng": 30.36861
  },
  {
    "id": 699657,
    "name": "Novobohdanivka",
    "lat": 46.64567,
    "lng": 35.02493
  },
  {
    "id": 710950,
    "name": "Voskresenka",
    "lat": 47.46892,
    "lng": 36.36161
  },
  {
    "id": 8504665,
    "name": "Motovylivka",
    "lat": 50.15821,
    "lng": 30.07421
  },
  {
    "id": 695574,
    "name": "Rodnikovo",
    "lat": 45.04296,
    "lng": 33.95407
  },
  {
    "id": 706924,
    "name": "Komyshivka",
    "lat": 45.51876,
    "lng": 29.12375
  },
  {
    "id": 698346,
    "name": "Orzhytsya",
    "lat": 49.78949,
    "lng": 32.69794
  },
  {
    "id": 687797,
    "name": "Zaliznychne",
    "lat": 45.74876,
    "lng": 28.61436
  },
  {
    "id": 705532,
    "name": "Kobyletska Polyana",
    "lat": 48.06085,
    "lng": 24.0719
  },
  {
    "id": 705512,
    "name": "Kochetok",
    "lat": 49.88005,
    "lng": 36.73723
  },
  {
    "id": 693342,
    "name": "Sofiivka",
    "lat": 45.09456,
    "lng": 34.00133
  },
  {
    "id": 707070,
    "name": "Kam'yanka",
    "lat": 45.56386,
    "lng": 28.88191
  },
  {
    "id": 707172,
    "name": "Kalynivka",
    "lat": 47.04732,
    "lng": 32.18071
  },
  {
    "id": 691097,
    "name": "Tsybuliv",
    "lat": 49.07185,
    "lng": 29.84459
  },
  {
    "id": 712041,
    "name": "Blyzniuky",
    "lat": 48.85655,
    "lng": 36.55331
  },
  {
    "id": 708439,
    "name": "Kyrylivka",
    "lat": 46.37179,
    "lng": 35.3701
  },
  {
    "id": 695872,
    "name": "Rafalivka",
    "lat": 51.31143,
    "lng": 25.9956
  },
  {
    "id": 694695,
    "name": "Seleshchyna",
    "lat": 49.45879,
    "lng": 34.83499
  },
  {
    "id": 708052,
    "name": "Hrytsiv",
    "lat": 49.97186,
    "lng": 27.21687
  },
  {
    "id": 698110,
    "name": "Ozerna",
    "lat": 49.62826,
    "lng": 25.33029
  },
  {
    "id": 12156377,
    "name": "Kostychany",
    "lat": 48.2258,
    "lng": 26.51545
  },
  {
    "id": 694320,
    "name": "Shchebetovka",
    "lat": 44.93845,
    "lng": 35.15834
  },
  {
    "id": 695129,
    "name": "Rukshyn",
    "lat": 48.48822,
    "lng": 26.40104
  },
  {
    "id": 702381,
    "name": "Liutenka",
    "lat": 50.21084,
    "lng": 34.0367
  },
  {
    "id": 696017,
    "name": "Putyla",
    "lat": 47.99343,
    "lng": 25.08757
  },
  {
    "id": 695459,
    "name": "Ropcha",
    "lat": 48.11439,
    "lng": 25.76798
  },
  {
    "id": 697653,
    "name": "Pereval'noye",
    "lat": 44.84838,
    "lng": 34.31271
  },
  {
    "id": 692749,
    "name": "Stari Bohorodchany",
    "lat": 48.82857,
    "lng": 24.5255
  },
  {
    "id": 699373,
    "name": "Novopavlivka",
    "lat": 48.13748,
    "lng": 36.78832
  },
  {
    "id": 690600,
    "name": "Ustynivka",
    "lat": 47.95619,
    "lng": 32.53938
  },
  {
    "id": 702844,
    "name": "Lopatyn",
    "lat": 50.22022,
    "lng": 24.84831
  },
  {
    "id": 712349,
    "name": "Soborne",
    "lat": 46.22514,
    "lng": 29.20016
  },
  {
    "id": 700341,
    "name": "Nelipyno",
    "lat": 48.56101,
    "lng": 23.03146
  },
  {
    "id": 710203,
    "name": "Dilove",
    "lat": 47.93563,
    "lng": 24.17129
  },