[
  {
    "id": 3441575,
    "name": "Montevideo",
    "lat": -34.90328,
    "lon": -56.18816
  },
  {
    "id": 3440714,
    "name": "Salto",
    "lat": -31.38811,
    "lon": -57.95983
  },
  {
    "id": 3441243,
    "name": "Paysandú",
    "lat": -32.3171,
    "lon": -58.08072
  },
  {
    "id": 3442057,
    "name": "Las Piedras",
    "lat": -34.7302,
    "lon": -56.21915
  },
  {
    "id": 3440781,
    "name": "Rivera",
    "lat": -30.90534,
    "lon": -55.55076
  },
  {
    "id": 3441894,
    "name": "Maldonado",
    "lat": -34.89791,
    "lon": -54.95021
  },
  {
    "id": 3440034,
    "name": "Tacuarembó",
    "lat": -31.71882,
    "lon": -55.97925
  },
  {
    "id": 3441702,
    "name": "Melo",
    "lat": -32.3682,
    "lon": -54.16409
  },
  {
    "id": 3441684,
    "name": "Mercedes",
    "lat": -33.2524,
    "lon": -58.03047
  },
  {
    "id": 3443758,
    "name": "Artigas",
    "lat": -30.40431,
    "lon": -56.46926
  },
  {
    "id": 3441665,
    "name": "Minas",
    "lat": -34.37589,
    "lon": -55.23771
  },
  {
    "id": 3440639,
    "name": "San José de Mayo",
    "lat": -34.33898,
    "lon": -56.71339
  },
  {
    "id": 3442727,
    "name": "Durazno",
    "lat": -33.38063,
    "lon": -56.52312
  },
  {
    "id": 3442585,
    "name": "Florida",
    "lat": -34.10032,
    "lon": -56.21477
  },
  {
    "id": 10098279,
    "name": "Barros Blancos",
    "lat": -34.7524,
    "lon": -56.00259
  },
  {
    "id": 3440696,
    "name": "San Carlos",
    "lat": -34.79123,
    "lon": -54.91824
  },
  {
    "id": 3439781,
    "name": "Treinta y Tres",
    "lat": -33.231,
    "lon": -54.38577
  },
  {
    "id": 3440777,
    "name": "Rocha",
    "lat": -34.47995,
    "lon": -54.33064
  },
  {
    "id": 3441354,
    "name": "Pando",
    "lat": -34.71716,
    "lon": -55.9584
  },
  {
    "id": 3442568,
    "name": "Fray Bentos",
    "lat": -33.11651,
    "lon": -58.31067
  },
  {
    "id": 3443013,
    "name": "Colonia del Sacramento",
    "lat": -34.46262,
    "lon": -57.83976
  },
  {
    "id": 3439748,
    "name": "Trinidad",
    "lat": -33.5165,
    "lon": -56.89957
  },
  {
    "id": 3442098,
    "name": "La Paz",
    "lat": -34.76031,
    "lon": -56.2259
  },
  {
    "id": 3443413,
    "name": "Canelones",
    "lat": -34.52381,
    "lon": -56.28215
  },
  {
    "id": 3443341,
    "name": "Carmelo",
    "lat": -34.00023,
    "lon": -58.28402
  },
  {
    "id": 3442778,
    "name": "Delta del Tigre",
    "lat": -34.76488,
    "lon": -56.3645
  },
  {
    "id": 3442750,
    "name": "Dolores",
    "lat": -33.53009,
    "lon": -58.21701
  },
  {
    "id": 3439525,
    "name": "Young",
    "lat": -32.69844,
    "lon": -57.62693
  },
  {
    "id": 3440571,
    "name": "Santa Lucía",
    "lat": -34.45333,
    "lon": -56.39056
  },
  {
    "id": 3440963,
    "name": "Progreso",
    "lat": -34.66737,
    "lon": -56.21758
  },
  {
    "id": 3441292,
    "name": "Paso de Carrasco",
    "lat": -34.86028,
    "lon": -56.05222
  },
  {
    "id": 3440791,
    "name": "Río Branco",
    "lat": -32.59802,
    "lon": -53.38583
  },
  {
    "id": 3441273,
    "name": "Paso de los Toros",
    "lat": -32.81667,
    "lon": -56.51667
  },
  {
    "id": 3442206,
    "name": "Juan L. Lacaze",
    "lat": -34.41888,
    "lon": -57.45285
  },
  {
    "id": 3443631,
    "name": "Bella Unión",
    "lat": -30.25966,
    "lon": -57.59919
  },
  {
    "id": 3441988,
    "name": "Libertad",
    "lat": -34.63459,
    "lon": -56.61739
  },
  {
    "id": 3440747,
    "name": "Rosario",
    "lat": -34.31667,
    "lon": -57.35
  },
  {
    "id": 3441483,
    "name": "Nueva Helvecia",
    "lat": -34.3,
    "lon": -57.23333
  },
  {
    "id": 3441481,
    "name": "Nueva Palmira",
    "lat": -33.87031,
    "lon": -58.41176
  },
  {
    "id": 3443061,
    "name": "Chui",
    "lat": -33.69792,
    "lon": -53.45926
  },
  {
    "id": 3440939,
    "name": "Punta del Este",
    "lat": -34.94747,
    "lon": -54.93382
  },
  {
    "id": 3480820,
    "name": "Colonia Nicolich",
    "lat": -34.81516,
    "lon": -56.02435
  },
  {
    "id": 3440722,
    "name": "Salinas",
    "lat": -34.77731,
    "lon": -55.83954
  },
  {
    "id": 3441074,
    "name": "Piriápolis",
    "lat": -34.86287,
    "lon": -55.27471
  },
  {
    "id": 3443289,
    "name": "Castillos",
    "lat": -34.19871,
    "lon": -53.85919
  },
  {
    "id": 3439787,
    "name": "Tranqueras",
    "lat": -31.2,
    "lon": -55.75
  },
  {
    "id": 3440400,
    "name": "Sarandí del Yi",
    "lat": -33.35,
    "lon": -55.63333
  },
  {
    "id": 3440596,
    "name": "San Ramón",
    "lat": -34.29155,
    "lon": -55.95571
  },
  {
    "id": 3442071,
    "name": "Lascano",
    "lat": -33.67235,
    "lon": -54.2065
  },
  {
    "id": 3439902,
    "name": "Tarariras",
    "lat": -34.26555,
    "lon": -57.61866
  },
  {
    "id": 3441358,
    "name": "Pan de Azúcar",
    "lat": -34.7787,
    "lon": -55.23582
  },
  {
    "id": 3442236,
    "name": "Joaquín Suárez",
    "lat": -34.73501,
    "lon": -56.0347
  },
  {
    "id": 3440394,
    "name": "Sarandí Grande",
    "lat": -33.73333,
    "lon": -56.33333
  },
  {
    "id": 3440379,
    "name": "Sauce",
    "lat": -34.65191,
    "lon": -56.06431
  },
  {
    "id": 3443737,
    "name": "Atlántida",
    "lat": -34.7719,
    "lon": -55.7584
  },
  {
    "id": 3480822,
    "name": "Barra de Carrasco",
    "lat": -34.87722,
    "lon": -56.02972
  },
  {
    "id": 3442221,
    "name": "José Pedro Varela",
    "lat": -33.45451,
    "lon": -54.53586
  },
  {
    "id": 3442398,
    "name": "Guichón",
    "lat": -32.35846,
    "lon": -57.19778
  },
  {
    "id": 3440021,
    "name": "Tala",
    "lat": -34.34349,
    "lon": -55.76375
  },
  {
    "id": 3443352,
    "name": "Cardona",
    "lat": -33.87049,
    "lon": -57.36954
  },
  {
    "id": 3439838,
    "name": "Toledo",
    "lat": -34.73807,
    "lon": -56.09469
  },
  {
    "id": 3442683,
    "name": "Empalme Olmos",
    "lat": -34.69753,
    "lon": -55.89268
  },
  {
    "id": 3440654,
    "name": "San Jacinto",
    "lat": -34.54465,
    "lon": -55.87151
  },
  {
    "id": 3439622,
    "name": "Vergara",
    "lat": -32.94419,
    "lon": -53.9381
  },
  {
    "id": 3441659,
    "name": "Minas de Corrales",
    "lat": -31.57375,
    "lon": -55.47075
  },
  {
    "id": 3440554,
    "name": "Santa Rosa",
    "lat": -34.49819,
    "lon": -56.03795
  },
  {
    "id": 3442597,
    "name": "Florencio Sánchez",
    "lat": -33.87785,
    "lon": -57.37166
  },
  {
    "id": 3439619,
    "name": "Vichadero",
    "lat": -31.77794,
    "lon": -54.69183
  },
  {
    "id": 10861467,
    "name": "Marindia",
    "lat": -34.77433,
    "lon": -55.82406
  },
  {
    "id": 3442105,
    "name": "La Paloma",
    "lat": -34.66268,
    "lon": -54.16452
  },
  {
    "id": 3440656,
    "name": "San Gregorio de Polanco",
    "lat": -32.61667,
    "lon": -55.83333
  },
  {
    "id": 3441442,
    "name": "Ombúes de Lavalle",
    "lat": -33.93783,
    "lon": -57.80959
  },
  {
    "id": 3439696,
    "name": "Colonia Valdense",
    "lat": -34.33957,
    "lon": -57.26246
  },
  {
    "id": 3442582,
    "name": "Fraile Muerto",
    "lat": -32.51667,
    "lon": -54.53333
  },
  {
    "id": 3442050,
    "name": "Las Toscas",
    "lat": -34.73333,
    "lon": -55.71667
  },
  {
    "id": 3439831,
    "name": "Tomás Gomensoro",
    "lat": -30.4287,
    "lon": -57.43609
  },
  {
    "id": 3440925,
    "name": "Quebracho",
    "lat": -31.93526,
    "lon": -57.9014
  },
  {
    "id": 3442939,
    "name": "Villa Constitución",
    "lat": -31.06913,
    "lon": -57.84946
  },
  {
    "id": 3440063,
    "name": "Solís de Mataojo",
    "lat": -34.59951,
    "lon": -55.46808
  },
  {
    "id": 3439598,
    "name": "Villa del Carmen",
    "lat": -33.23943,
    "lon": -56.00936
  },
  {
    "id": 3440549,
    "name": "Santa Teresa",
    "lat": -34.43333,
    "lon": -57.71667
  },
  {
    "id": 3440762,
    "name": "Rodríguez",
    "lat": -34.381,
    "lon": -56.53797
  },
  {
    "id": 3443697,
    "name": "Baltasar Brum",
    "lat": -30.71905,
    "lon": -57.32596
  },
  {
    "id": 3441954,
    "name": "Los Cerrillos",
    "lat": -34.605,
    "lon": -56.35639
  },
  {
    "id": 3443909,
    "name": "Aiguá",
    "lat": -34.20498,
    "lon": -54.75665
  },
  {
    "id": 3441476,
    "name": "Nuevo Berlín",
    "lat": -32.97974,
    "lon": -58.05858
  },
  {
    "id": 3443280,
    "name": "Casupá",
    "lat": -34.09994,
    "lon": -55.64811
  },
  {
    "id": 3442716,
    "name": "Ecilda Paullier",
    "lat": -34.35778,
    "lon": -57.04883
  },
  {
    "id": 3440577,
    "name": "Santa Clara de Olimar",
    "lat": -32.92254,
    "lon": -54.94447
  },
  {
    "id": 3442299,
    "name": "Isidoro Noblía",
    "lat": -31.96218,
    "lon": -54.12309
  },
  {
    "id": 3442233,
    "name": "José Batlle y Ordóñez",
    "lat": -33.46667,
    "lon": -55.11667
  },
  {
    "id": 3441377,
    "name": "Palmitas",
    "lat": -33.50719,
    "lon": -57.80079
  },
  {
    "id": 3442231,
    "name": "José Enrique Rodó",
    "lat": -33.69618,
    "lon": -57.53153
  },
  {
    "id": 3441674,
    "name": "Migues",
    "lat": -34.48759,
    "lon": -55.62793
  },
  {
    "id": 3443644,
    "name": "Belén",
    "lat": -30.78716,
    "lon": -57.77577
  },
  {
    "id": 3480825,
    "name": "Pajas Blancas",
    "lat": -34.80167,
    "lon": -56.33417
  },
  {
    "id": 3440698,
    "name": "San Bautista",
    "lat": -34.44016,
    "lon": -55.95861
  },
  {
    "id": 3439659,
    "name": "25 de Mayo",
    "lat": -34.18917,
    "lon": -56.33944
  },
  {
    "id": 3439661,
    "name": "25 de Agosto",
    "lat": -34.41167,
    "lon": -56.40222
  },
  {
    "id": 3440653,
    "name": "San Javier",
    "lat": -32.66523,
    "lon": -58.1332
  },
  {
    "id": 3441577,
    "name": "Montes",
    "lat": -34.49339,
    "lon": -55.56219
  },
  {
    "id": 3440076,
    "name": "Soca",
    "lat": -34.68432,
    "lon": -55.702
  },
  {
    "id": 3440684,
    "name": "San Félix",
    "lat": -32.34631,
    "lon": -58.10094
  },
  {
    "id": 3441803,
    "name": "Mariscala",
    "lat": -34.04085,
    "lon": -54.77732
  },
  {
    "id": 3443256,
    "name": "Cebollatí",
    "lat": -33.26703,
    "lon": -53.79425
  },
  {
    "id": 3442106,
    "name": "La Paloma",
    "lat": -32.72689,
    "lon": -55.5827
  },
  {
    "id": 3439925,
    "name": "Tambores",
    "lat": -31.87743,
    "lon": -56.24438
  },
  {
    "id": 3443952,
    "name": "Aceguá",
    "lat": -31.87178,
    "lon": -54.16351
  },
  {
    "id": 3480812,
    "name": "Puntas de Valdéz",
    "lat": -34.5855,
    "lon": -56.70097
  },
  {
    "id": 3440541,
    "name": "Santiago Vázquez",
    "lat": -34.79028,
    "lon": -56.35
  },
  {
    "id": 3440705,
    "name": "San Antonio",
    "lat": -34.4513,
    "lon": -56.08036
  },
  {
    "id": 3442528,
    "name": "General Enrique Martínez",
    "lat": -33.20388,
    "lon": -53.80524
  },
  {
    "id": 3443183,
    "name": "Alejandro Gallinal",
    "lat": -33.86252,
    "lon": -55.54264
  },
  {
    "id": 10636508,
    "name": "Puimayen",
    "lat": -33.77411,
    "lon": -53.40925
  },
  {
    "id": 3442238,
    "name": "Juanicó",
    "lat": -34.59454,
    "lon": -56.25334
  },
  {
    "id": 3443356,
    "name": "Cardal",
    "lat": -34.29056,
    "lon": -56.38889
  },
  {
    "id": 3440879,
    "name": "Rafael Perazza",
    "lat": -34.52335,
    "lon": -56.7971
  },
  {
    "id": 3439590,
    "name": "Villa Sara",
    "lat": -33.2534,
    "lon": -54.41947
  },
  {
    "id": 3440984,
    "name": "Porvenir",
    "lat": -32.39273,
    "lon": -57.96961
  },
  {
    "id": 3440092,
    "name": "Pueblo Sequeira",
    "lat": -30.9892,
    "lon": -56.87044
  },
  {
    "id": 3440959,
    "name": "Pueblo Centenario",
    "lat": -32.86667,
    "lon": -56.46667
  },
  {
    "id": 3440055,
    "name": "Villa Soriano",
    "lat": -33.39811,
    "lon": -58.32177
  },
  {
    "id": 3439725,
    "name": "Tupambaé",
    "lat": -32.83333,
    "lon": -54.76667
  },
  {
    "id": 3442138,
    "name": "La Floresta",
    "lat": -34.75572,
    "lon": -55.68141
  },
  {
    "id": 3441114,
    "name": "Piedras Coloradas",
    "lat": -32.37183,
    "lon": -57.60901
  },
  {
    "id": 3440581,
    "name": "Santa Bernardina",
    "lat": -33.3536,
    "lon": -56.52498
  },
  {
    "id": 7645440,
    "name": "Costa Azul",
    "lat": -34.62925,
    "lon": -54.15307
  },
  {
    "id": 3443588,
    "name": "Blanquillo",
    "lat": -32.76667,
    "lon": -55.63333
  },
  {
    "id": 3440580,
    "name": "Santa Catalina",
    "lat": -33.791,
    "lon": -57.48824
  },
  {
    "id": 3440985,
    "name": "Estación Porvenir",
    "lat": -32.37085,
    "lon": -57.85371
  },
  {
    "id": 3443928,
    "name": "Aguas Corrientes",
    "lat": -34.52194,
    "lon": -56.39361
  },
  {
    "id": 3442803,
    "name": "Curtina",
    "lat": -32.15,
    "lon": -56.11667
  },
  {
    "id": 8358381,
    "name": "Cuareim",
    "lat": -30.22519,
    "lon": -57.56802
  },
  {
    "id": 3439652,
    "name": "Velázquez",
    "lat": -34.03631,
    "lon": -54.28054
  },
  {
    "id": 3441679,
    "name": "Miguelete",
    "lat": -34.00646,
    "lon": -57.64792
  },
  {
    "id": 3442766,
    "name": "Dieciocho de Julio",
    "lat": -33.68216,
    "lon": -53.55325
  },
  {
    "id": 3443342,
    "name": "Carlos Reyles",
    "lat": -33.05658,
    "lon": -56.47652
  },
  {
    "id": 3442993,
    "name": "Colonia Lavalleja",
    "lat": -31.09386,
    "lon": -57.02332
  },
  {
    "id": 3443676,
    "name": "Barra del Chuy",
    "lat": -33.74911,
    "lon": -53.37935
  },
  {
    "id": 3443880,
    "name": "Algorta",
    "lat": -32.42124,
    "lon": -57.38929
  },
  {
    "id": 3443377,
    "name": "Capurro",
    "lat": -34.43662,
    "lon": -56.46447
  },
  {
    "id": 3442249,
    "name": "Ituzaingó",
    "lat": -34.42028,
    "lon": -56.42488
  },
  {
    "id": 3443112,
    "name": "Chapicuy",
    "lat": -31.66048,
    "lon": -57.88809
  },
  {
    "id": 10866292,
    "name": "Gallinal",
    "lat": -31.8847,
    "lon": -57.48016
  },
  {
    "id": 3443939,
    "name": "Agraciada",
    "lat": -33.80981,
    "lon": -58.26669
  },
  {
    "id": 3439497,
    "name": "Zapicán",
    "lat": -33.52284,
    "lon": -54.94221
  },
  {
    "id": 3443896,
    "name": "Albisu",
    "lat": -31.38411,
    "lon": -57.81469
  },
  {
    "id": 8057961,
    "name": "Ingeniero Agrónomo Alfredo Mones Quintela",
    "lat": -30.37375,
    "lon": -57.66376
  },
  {
    "id": 3441681,
    "name": "Merinos",
    "lat": -32.38486,
    "lon": -56.90429
  },
  {
    "id": 10174965,
    "name": "Paso Bonilla",
    "lat": -31.80763,
    "lon": -55.97929
  },
  {
    "id": 3442151,
    "name": "La Coronilla",
    "lat": -33.55791,
    "lon": -53.85803
  }
]