[
  {
    "id": 4034816,
    "name": "Mua",
    "lat": -13.34169,
    "lon": -176.18701
  },
  {
    "id": 4034821,
    "name": "Mata-Utu",
    "lat": -13.28163,
    "lon": -176.17453
  },
  {
    "id": 4034886,
    "name": "Alele",
    "lat": -13.24667,
    "lon": -176.18341
  },
  {
    "id": 4034872,
    "name": "Falaleu",
    "lat": -13.29266,
    "lon": -176.18328
  },
  {
    "id": 4034763,
    "name": "Utufua",
    "lat": -13.34261,
    "lon": -176.19435
  },
  {
    "id": 4034831,
    "name": "Liku",
    "lat": -13.26852,
    "lon": -176.16586
  },
  {
    "id": 4034856,
    "name": "Halalo",
    "lat": -13.3454,
    "lon": -176.21464
  }
]