[
  {
    "id": 786714,
    "name": "Pristina",
    "lat": 42.67272,
    "lng": 21.16688
  },
  {
    "id": 786712,
    "name": "Prizren",
    "lat": 42.21389,
    "lng": 20.73972
  },
  {
    "id": 789225,
    "name": "Mitrovicë",
    "lat": 42.88333,
    "lng": 20.86667
  },
  {
    "id": 791646,
    "name": "Gjakovë",
    "lat": 42.38028,
    "lng": 20.43083
  },
  {
    "id": 785238,
    "name": "Suva Reka",
    "lat": 42.35861,
    "lng": 20.825
  },
  {
    "id": 784759,
    "name": "Ferizaj",
    "lat": 42.37056,
    "lng": 21.15528
  },
  {
    "id": 790701,
    "name": "Glogovac",
    "lat": 42.62833,
    "lng": 20.89389
  },
  {
    "id": 790674,
    "name": "Gjilan",
    "lat": 42.46045,
    "lng": 21.46986
  },
  {
    "id": 791580,
    "name": "Deçan",
    "lat": 42.54018,
    "lng": 20.28793
  },
  {
    "id": 787157,
    "name": "Pejë",
    "lat": 42.65913,
    "lng": 20.28828
  },
  {
    "id": 784372,
    "name": "Vitina",
    "lat": 42.32139,
    "lng": 21.35833
  },
  {
    "id": 789996,
    "name": "Istok",
    "lat": 42.78083,
    "lng": 20.4875
  },
  {
    "id": 791122,
    "name": "Dragash",
    "lat": 42.0265,
    "lng": 20.65333
  },
  {
    "id": 786950,
    "name": "Podujeva",
    "lat": 42.91056,
    "lng": 21.19306
  },
  {
    "id": 785485,
    "name": "Shtime",
    "lat": 42.43306,
    "lng": 21.03972
  },
  {
    "id": 784097,
    "name": "Vushtrri",
    "lat": 42.82306,
    "lng": 20.9675
  },
  {
    "id": 787456,
    "name": "Orahovac",
    "lat": 42.39944,
    "lng": 20.65472
  },
  {
    "id": 788470,
    "name": "Llazicë",
    "lat": 42.55528,
    "lng": 20.76333
  },
  {
    "id": 788731,
    "name": "Leposaviq",
    "lat": 43.10389,
    "lng": 20.80278
  },
  {
    "id": 783770,
    "name": "Zvečan",
    "lat": 42.9075,
    "lng": 20.84028
  },
  {
    "id": 789228,
    "name": "Kosovo Polje",
    "lat": 42.66394,
    "lng": 21.09611
  },
  {
    "id": 783802,
    "name": "Zubin Potok",
    "lat": 42.91444,
    "lng": 20.68972
  },
  {
    "id": 787534,
    "name": "Obiliq",
    "lat": 42.68694,
    "lng": 21.07028
  },
  {
    "id": 789721,
    "name": "Kačanik",
    "lat": 42.23194,
    "lng": 21.25944
  },
  {
    "id": 791539,
    "name": "Hani i Elezit",
    "lat": 42.15,
    "lng": 21.29667
  },
  {
    "id": 789227,
    "name": "Kamenica",
    "lat": 42.57806,
    "lng": 21.58028
  },
  {
    "id": 788652,
    "name": "Lipljan",
    "lat": 42.52167,
    "lng": 21.12583
  },
  {
    "id": 789455,
    "name": "Klina",
    "lat": 42.62167,
    "lng": 20.57778
  },
  {
    "id": 785388,
    "name": "Štrpce",
    "lat": 42.23944,
    "lng": 21.02722
  },
  {
    "id": 787589,
    "name": "Novo Brdo",
    "lat": 42.6159,
    "lng": 21.43405
  },
  {
    "id": 790354,
    "name": "Strellc i Epërm",
    "lat": 42.57843,
    "lng": 20.29398
  },
  {
    "id": 788187,
    "name": "Mamuša",
    "lat": 42.33083,
    "lng": 20.72694
  },
  {
    "id": 790002,
    "name": "Isniq",
    "lat": 42.5575,
    "lng": 20.30278
  },
  {
    "id": 785642,
    "name": "Srbica",
    "lat": 42.74667,
    "lng": 20.78861
  },
  {
    "id": 786478,
    "name": "Ranilug",
    "lat": 42.49222,
    "lng": 21.59889
  },
  {
    "id": 791161,
    "name": "Strellc i Ulët",
    "lat": 42.58063,
    "lng": 20.31619
  },
  {
    "id": 792375,
    "name": "Bradash",
    "lat": 42.94028,
    "lng": 21.13806
  },
  {
    "id": 789427,
    "name": "Klokot",
    "lat": 42.37139,
    "lng": 21.37444
  },
  {
    "id": 786734,
    "name": "Prilep",
    "lat": 42.5075,
    "lng": 20.31778
  },
  {
    "id": 788239,
    "name": "Mališevo",
    "lat": 42.48222,
    "lng": 20.74583
  },
  {
    "id": 786156,
    "name": "Irzniq",
    "lat": 42.52,
    "lng": 20.34722
  },
  {
    "id": 791043,
    "name": "Dranoc",
    "lat": 42.51556,
    "lng": 20.29222
  },
  {
    "id": 790704,
    "name": "Gllogjan",
    "lat": 42.50722,
    "lng": 20.36278
  },
  {
    "id": 787155,
    "name": "Peqan",
    "lat": 42.38361,
    "lng": 20.82194
  },
  {
    "id": 787197,
    "name": "Partesh",
    "lat": 42.40194,
    "lng": 21.43361
  },
  {
    "id": 792185,
    "name": "Budakovo",
    "lat": 42.355,
    "lng": 20.925
  },
  {
    "id": 788726,
    "name": "Leshan",
    "lat": 42.32778,
    "lng": 20.78111
  },
  {
    "id": 791483,
    "name": "Gjinoc",
    "lat": 42.31833,
    "lng": 20.81861
  },
  {
    "id": 790486,
    "name": "Lluka e Eperme",
    "lat": 42.545,
    "lng": 20.30778
  },
  {
    "id": 788536,
    "name": "Lumbardhi",
    "lat": 42.54667,
    "lng": 20.34667
  },
  {
    "id": 787268,
    "name": "Pagaruša",
    "lat": 42.42,
    "lng": 20.74222
  },
  {
    "id": 793226,
    "name": "Papraqan",
    "lat": 42.55278,
    "lng": 20.33111
  },
  {
    "id": 788543,
    "name": "Lëbushë",
    "lat": 42.56306,
    "lng": 20.29083
  },
  {
    "id": 789199,
    "name": "Kosuriq",
    "lat": 42.57028,
    "lng": 20.46472
  },
  {
    "id": 787650,
    "name": "Nishor",
    "lat": 42.42389,
    "lng": 20.80167
  },
  {
    "id": 830410,
    "name": "Lloqan",
    "lat": 42.52444,
    "lng": 20.28083
  },
  {
    "id": 790977,
    "name": "Dubova (Driloni)",
    "lat": 42.71194,
    "lng": 20.36972
  },
  {
    "id": 790265,
    "name": "Gračanica",
    "lat": 42.60111,
    "lng": 21.19583
  },
  {
    "id": 787182,
    "name": "Pasjane",
    "lat": 42.40694,
    "lng": 21.49556
  },
  {
    "id": 788571,
    "name": "Lybeniq",
    "lat": 42.59778,
    "lng": 20.29139
  },
  {
    "id": 792202,
    "name": "Buqan",
    "lat": 42.55806,
    "lng": 20.45278
  },
  {
    "id": 830409,
    "name": "Lluka e Poshtme",
    "lat": 42.54583,
    "lng": 20.33556
  },
  {
    "id": 786828,
    "name": "Pozhar",
    "lat": 42.53722,
    "lng": 20.35111
  },
  {
    "id": 785760,
    "name": "Slup",
    "lat": 42.50889,
    "lng": 20.28194
  },
  {
    "id": 786096,
    "name": "Shaptej",
    "lat": 42.49861,
    "lng": 20.37889
  },
  {
    "id": 793169,
    "name": "Hade",
    "lat": 42.66679,
    "lng": 21.03298
  }
]