[
  {
    "id": 71137,
    "name": "Sanaa",
    "lat": 15.35452,
    "lng": 44.20646
  },
  {
    "id": 415189,
    "name": "Aden",
    "lat": 12.77957,
    "lng": 45.03852
  },
  {
    "id": 70225,
    "name": "Taiz",
    "lat": 13.57952,
    "lng": 44.02091
  },
  {
    "id": 74477,
    "name": "Ibb",
    "lat": 13.96667,
    "lng": 44.18333
  },
  {
    "id": 79415,
    "name": "Al Ḩudaydah",
    "lat": 14.79781,
    "lng": 42.95452
  },
  {
    "id": 78754,
    "name": "Mukalla",
    "lat": 14.54248,
    "lng": 49.12424
  },
  {
    "id": 76184,
    "name": "Dhamār",
    "lat": 14.54274,
    "lng": 44.40514
  },
  {
    "id": 78428,
    "name": "‘Amrān",
    "lat": 15.6594,
    "lng": 43.94385
  },
  {
    "id": 70979,
    "name": "Sayyān",
    "lat": 15.17177,
    "lng": 44.32442
  },
  {
    "id": 69500,
    "name": "Zabīd",
    "lat": 14.1951,
    "lng": 43.31518
  },
  {
    "id": 71334,
    "name": "Sa'dah",
    "lat": 16.94021,
    "lng": 43.76393
  },
  {
    "id": 77408,
    "name": "Bājil",
    "lat": 15.05898,
    "lng": 43.28731
  },
  {
    "id": 75337,
    "name": "Ḩajjah",
    "lat": 15.69425,
    "lng": 43.60582
  },
  {
    "id": 76154,
    "name": "Dhī as Sufāl",
    "lat": 13.83446,
    "lng": 44.11469
  },
  {
    "id": 79836,
    "name": "Al Bayda",
    "lat": 13.98523,
    "lng": 45.57272
  },
  {
    "id": 77726,
    "name": "Ataq",
    "lat": 14.53767,
    "lng": 46.83187
  },
  {
    "id": 76991,
    "name": "Bayt al Faqīh",
    "lat": 14.51635,
    "lng": 43.32446
  },
  {
    "id": 69559,
    "name": "Yarīm",
    "lat": 14.29804,
    "lng": 44.37795
  },
  {
    "id": 71273,
    "name": "Saḩar",
    "lat": 15.31637,
    "lng": 44.3088
  },
  {
    "id": 73560,
    "name": "Laḩij",
    "lat": 13.05667,
    "lng": 44.88194
  },
  {
    "id": 69426,
    "name": "Zinjibār",
    "lat": 13.12871,
    "lng": 45.38073
  },
  {
    "id": 79455,
    "name": "Al Ḩazm",
    "lat": 16.16406,
    "lng": 44.77692
  },
  {
    "id": 78751,
    "name": "Mocha",
    "lat": 13.31814,
    "lng": 43.24991
  },
  {
    "id": 72968,
    "name": "Ma'rib",
    "lat": 15.46253,
    "lng": 45.32581
  },
  {
    "id": 80384,
    "name": "Aḑ Ḑāli‘",
    "lat": 13.69572,
    "lng": 44.73137
  },
  {
    "id": 74219,
    "name": "Jawf al Maqbābah",
    "lat": 13.83783,
    "lng": 45.83488
  },
  {
    "id": 79700,
    "name": "Al Ghayz̧ah",
    "lat": 16.20787,
    "lng": 52.17605
  },
  {
    "id": 78977,
    "name": "Al Maḩwīt",
    "lat": 15.47007,
    "lng": 43.54481
  },
  {
    "id": 11776817,
    "name": "Jadder Cemetery",
    "lat": 15.467,
    "lng": 44.17787
  },
  {
    "id": 75427,
    "name": "Hadibu",
    "lat": 12.64881,
    "lng": 54.01895
  },
  {
    "id": 70676,
    "name": "Shibām",
    "lat": 15.92694,
    "lng": 48.62667
  },
  {
    "id": 12217890,
    "name": "CPF",
    "lat": 15.59166,
    "lng": 49.13601
  },
  {
    "id": 12167139,
    "name": "Al Madakisha",
    "lat": 13.23663,
    "lng": 44.40565
  },
  {
    "id": 11776813,
    "name": "Village of ALAMRAH",
    "lat": 13.74318,
    "lng": 43.72992
  },
  {
    "id": 71799,
    "name": "Qalansīyah",
    "lat": 12.68958,
    "lng": 53.48709
  },
  {
    "id": 8308217,
    "name": "Khimār",
    "lat": 14.3198,
    "lng": 46.73922
  },
  {
    "id": 73685,
    "name": "Kilmia",
    "lat": 12.18576,
    "lng": 52.23332
  },
  {
    "id": 12167129,
    "name": "Al Qabyal",
    "lat": 13.23672,
    "lng": 44.4061
  },
  {
    "id": 11153801,
    "name": "Al-Medy Village, قرية المدي",
    "lat": 14.40152,
    "lng": 43.79178
  },
  {
    "id": 79015,
    "name": "Al Madu",
    "lat": 13.85668,
    "lng": 44.8184
  },
  {
    "id": 12097222,
    "name": "Ahl Mohammed bin Ahmed",
    "lat": 13.27733,
    "lng": 45.39048
  },
  {
    "id": 11125824,
    "name": "AL-khashā upper",
    "lat": 14.34044,
    "lng": 46.71365
  },
  {
    "id": 12167138,
    "name": "Najd Al Tha'ub",
    "lat": 13.22179,
    "lng": 44.41215
  },
  {
    "id": 71212,
    "name": "Salābah",
    "lat": 14.31603,
    "lng": 46.72468
  },
  {
    "id": 11125823,
    "name": "AL-khashā Lower",
    "lat": 14.34696,
    "lng": 46.73117
  },
  {
    "id": 7356251,
    "name": "Qaryat Al kudshi al Ra'inah",
    "lat": 13.69054,
    "lng": 43.87201
  },
  {
    "id": 7792750,
    "name": "Suḩayl Shibām",
    "lat": 15.91448,
    "lng": 48.63864
  }
]