[
  {
    "id": 909137,
    "name": "Lusaka",
    "lat": -15.40669,
    "lon": 28.28713
  },
  {
    "id": 911148,
    "name": "Kitwe",
    "lat": -12.80243,
    "lon": 28.21323
  },
  {
    "id": 901344,
    "name": "Ndola",
    "lat": -12.95867,
    "lon": 28.63659
  },
  {
    "id": 918702,
    "name": "Chipata",
    "lat": -13.63333,
    "lon": 32.65
  },
  {
    "id": 897045,
    "name": "Solwezi",
    "lat": -12.1688,
    "lon": 26.38938
  },
  {
    "id": 916095,
    "name": "Kabwe",
    "lat": -14.4469,
    "lon": 28.44644
  },
  {
    "id": 919009,
    "name": "Chingola",
    "lat": -12.52897,
    "lon": 27.88382
  },
  {
    "id": 909863,
    "name": "Luanshya",
    "lat": -13.13667,
    "lon": 28.41661
  },
  {
    "id": 912764,
    "name": "Kasama",
    "lat": -10.21289,
    "lon": 31.18084
  },
  {
    "id": 910111,
    "name": "Livingstone",
    "lat": -17.84194,
    "lon": 25.85425
  },
  {
    "id": 907770,
    "name": "Mansa",
    "lat": -11.19976,
    "lon": 28.89431
  },
  {
    "id": 905395,
    "name": "Mufulira",
    "lat": -12.54982,
    "lon": 28.24071
  },
  {
    "id": 13132725,
    "name": "Chunga",
    "lat": -15.31737,
    "lon": 28.26868
  },
  {
    "id": 919544,
    "name": "Chililabombwe",
    "lat": -12.36475,
    "lon": 27.82286
  },
  {
    "id": 906054,
    "name": "Mongu",
    "lat": -15.24835,
    "lon": 23.12741
  },
  {
    "id": 907111,
    "name": "Mazabuka",
    "lat": -15.85601,
    "lon": 27.748
  },
  {
    "id": 915883,
    "name": "Kafue",
    "lat": -15.76911,
    "lon": 28.18136
  },
  {
    "id": 914959,
    "name": "Kalulushi",
    "lat": -12.84151,
    "lon": 28.09479
  },
  {
    "id": 917748,
    "name": "Choma",
    "lat": -16.80889,
    "lon": 26.9875
  },
  {
    "id": 13132732,
    "name": "Namalombwe",
    "lat": -15.39053,
    "lon": 28.18986
  },
  {
    "id": 175555,
    "name": "Nakonde",
    "lat": -9.34213,
    "lon": 32.745
  },
  {
    "id": 913029,
    "name": "Kapiri Mposhi",
    "lat": -13.97147,
    "lon": 28.66985
  },
  {
    "id": 13132727,
    "name": "Madido",
    "lat": -15.35454,
    "lon": 28.37416
  },
  {
    "id": 175499,
    "name": "Nchelenge",
    "lat": -9.34506,
    "lon": 28.73396
  },
  {
    "id": 905846,
    "name": "Mpika",
    "lat": -11.83431,
    "lon": 31.45287
  },
  {
    "id": 906044,
    "name": "Monze",
    "lat": -16.28333,
    "lon": 27.48333
  },
  {
    "id": 899825,
    "name": "Petauke",
    "lat": -14.24117,
    "lon": 31.31975
  },
  {
    "id": 917688,
    "name": "Chongwe",
    "lat": -15.32916,
    "lon": 28.68204
  },
  {
    "id": 175961,
    "name": "Mpulungu",
    "lat": -8.76234,
    "lon": 31.11405
  },
  {
    "id": 7932530,
    "name": "Chilanga Township",
    "lat": -15.57079,
    "lon": 28.2701
  },
  {
    "id": 899274,
    "name": "Samfya",
    "lat": -11.36491,
    "lon": 29.55652
  },
  {
    "id": 904422,
    "name": "Mumbwa",
    "lat": -14.98293,
    "lon": 27.0619
  },
  {
    "id": 906221,
    "name": "Mkushi",
    "lat": -13.62015,
    "lon": 29.3939
  },
  {
    "id": 912072,
    "name": "Katete",
    "lat": -14.05,
    "lon": 32.08333
  },
  {
    "id": 909299,
    "name": "Lundazi",
    "lat": -12.29292,
    "lon": 33.1782
  },
  {
    "id": 176146,
    "name": "Mbala",
    "lat": -8.84024,
    "lon": 31.36587
  },
  {
    "id": 13132724,
    "name": "Chisankane",
    "lat": -15.48211,
    "lon": 28.35099
  },
  {
    "id": 913613,
    "name": "Kansanshi",
    "lat": -12.09514,
    "lon": 26.42727
  },
  {
    "id": 918905,
    "name": "Chinsali",
    "lat": -10.54142,
    "lon": 32.08162
  },
  {
    "id": 176758,
    "name": "Kaputa",
    "lat": -8.46887,
    "lon": 29.66193
  },
  {
    "id": 918488,
    "name": "Chirundu",
    "lat": -16.03577,
    "lon": 28.84311
  },
  {
    "id": 920820,
    "name": "Chambishi",
    "lat": -12.63247,
    "lon": 28.05367
  },
  {
    "id": 913323,
    "name": "Kaoma",
    "lat": -14.78333,
    "lon": 24.8
  },
  {
    "id": 916668,
    "name": "Isoka",
    "lat": -10.16062,
    "lon": 32.63353
  },
  {
    "id": 176555,
    "name": "Kawambwa",
    "lat": -9.7915,
    "lon": 29.07913
  },
  {
    "id": 915086,
    "name": "Kalomo",
    "lat": -17.02581,
    "lon": 26.48369
  },
  {
    "id": 175967,
    "name": "Mporokoso",
    "lat": -9.37273,
    "lon": 30.12501
  },
  {
    "id": 898912,
    "name": "Serenje",
    "lat": -13.23251,
    "lon": 30.23522
  },
  {
    "id": 898905,
    "name": "Sesheke",
    "lat": -17.47593,
    "lon": 24.29684
  },
  {
    "id": 912628,
    "name": "Kasempa",
    "lat": -13.45836,
    "lon": 25.8338
  },
  {
    "id": 13132728,
    "name": "Manyama",
    "lat": -12.31477,
    "lon": 25.84862
  },
  {
    "id": 908913,
    "name": "Luwingu",
    "lat": -10.2621,
    "lon": 29.92712
  },
  {
    "id": 13132729,
    "name": "Mapalo",
    "lat": -12.93688,
    "lon": 28.67206
  },
  {
    "id": 898188,
    "name": "Siavonga",
    "lat": -16.53818,
    "lon": 28.70876
  },
  {
    "id": 895953,
    "name": "Zambezi",
    "lat": -13.54323,
    "lon": 23.10467
  },
  {
    "id": 13132730,
    "name": "Mufumbwe",
    "lat": -13.13701,
    "lon": 25.00653
  },
  {
    "id": 902620,
    "name": "Mwinilunga",
    "lat": -11.73584,
    "lon": 24.42926
  },
  {
    "id": 905789,
    "name": "Mpongwe",
    "lat": -13.50914,
    "lon": 28.15504
  },
  {
    "id": 6695527,
    "name": "Itezhi-Tezhi",
    "lat": -15.73691,
    "lon": 26.04155
  },
  {
    "id": 908718,
    "name": "Maamba",
    "lat": -17.36667,
    "lon": 27.15
  },
  {
    "id": 13132726,
    "name": "Lusaka West",
    "lat": -15.31864,
    "lon": 28.11026
  },
  {
    "id": 898947,
    "name": "Senanga",
    "lat": -16.11667,
    "lon": 23.26667
  },
  {
    "id": 13132733,
    "name": "Ntandabale",
    "lat": -15.38958,
    "lon": 28.42201
  },
  {
    "id": 13132734,
    "name": "Palabana",
    "lat": -15.44623,
    "lon": 28.53436
  },
  {
    "id": 909488,
    "name": "Lukulu",
    "lat": -14.37067,
    "lon": 23.24196
  },
  {
    "id": 907705,
    "name": "Manyinga",
    "lat": -13.41646,
    "lon": 24.33532
  },
  {
    "id": 900056,
    "name": "Nyimba",
    "lat": -14.55656,
    "lon": 30.8149
  },
  {
    "id": 920470,
    "name": "Chavuma",
    "lat": -13.06667,
    "lon": 22.68333
  },
  {
    "id": 897454,
    "name": "Sinda",
    "lat": -14.21004,
    "lon": 31.7629
  },
  {
    "id": 915471,
    "name": "Kalabo",
    "lat": -14.99307,
    "lon": 22.67926
  },
  {
    "id": 918398,
    "name": "Chisasa",
    "lat": -12.10932,
    "lon": 25.49613
  },
  {
    "id": 8298600,
    "name": "Nampundwe",
    "lat": -15.50819,
    "lon": 27.92441
  },
  {
    "id": 13132731,
    "name": "Mwansabombwe",
    "lat": -9.82202,
    "lon": 28.76038
  },
  {
    "id": 901766,
    "name": "Namwala",
    "lat": -15.75042,
    "lon": 26.43839
  },
  {
    "id": 897456,
    "name": "Sinazongwe",
    "lat": -17.2614,
    "lon": 27.46179
  },
  {
    "id": 177748,
    "name": "Chiengi",
    "lat": -8.66043,
    "lon": 29.16142
  },
  {
    "id": 916246,
    "name": "Kabompo",
    "lat": -13.59268,
    "lon": 24.20081
  },
  {
    "id": 916938,
    "name": "Ibenga",
    "lat": -13.36667,
    "lon": 28.43333
  },
  {
    "id": 13132723,
    "name": "Chinkuli",
    "lat": -15.29973,
    "lon": 28.41596
  },
  {
    "id": 912226,
    "name": "Kataba",
    "lat": -11.88333,
    "lon": 29.78333
  },
  {
    "id": 13132721,
    "name": "Chilongolo",
    "lat": -15.49236,
    "lon": 28.16456
  },
  {
    "id": 920901,
    "name": "Chama",
    "lat": -11.21303,
    "lon": 33.1521
  },
  {
    "id": 909722,
    "name": "Lubwe",
    "lat": -11.11654,
    "lon": 29.64619
  },
  {
    "id": 904241,
    "name": "Mungwi",
    "lat": -10.1732,
    "lon": 31.36942
  },
  {
    "id": 911300,
    "name": "Kazungula",
    "lat": -17.79356,
    "lon": 25.27473
  },
  {
    "id": 910361,
    "name": "Limulunga",
    "lat": -15.09691,
    "lon": 23.13757
  },
  {
    "id": 902344,
    "name": "Nakambala",
    "lat": -15.83244,
    "lon": 27.77994
  },
  {
    "id": 13132720,
    "name": "Chalimbana",
    "lat": -15.38546,
    "lon": 28.70085
  },
  {
    "id": 13132722,
    "name": "Chilubi",
    "lat": -11.11459,
    "lon": 29.94634
  },
  {
    "id": 909752,
    "name": "Lubombo",
    "lat": -15.86698,
    "lon": 27.87632
  },
  {
    "id": 909887,
    "name": "Luangwa",
    "lat": -15.61667,
    "lon": 30.41667
  },
  {
    "id": 175808,
    "name": "Mununga",
    "lat": -9.04865,
    "lon": 29.04265
  },
  {
    "id": 915285,
    "name": "Kalengwa",
    "lat": -13.46586,
    "lon": 25.00271
  },
  {
    "id": 905382,
    "name": "Mufumbwe",
    "lat": -13.68333,
    "lon": 24.8
  },
  {
    "id": 920233,
    "name": "Chibombo",
    "lat": -14.65685,
    "lon": 28.07057
  },
  {
    "id": 902721,
    "name": "Mwense",
    "lat": -10.38447,
    "lon": 28.698
  },
  {
    "id": 921028,
    "name": "Chadiza",
    "lat": -14.06779,
    "lon": 32.43917
  },
  {
    "id": 917011,
    "name": "Gwembe",
    "lat": -16.49755,
    "lon": 27.60691
  }
]