[
  {
    "id": 3191281,
    "name": "Sarajevo",
    "lat": 43.84864,
    "lng": 18.35644
  },
  {
    "id": 3204541,
    "name": "Banja Luka",
    "lat": 44.77879,
    "lng": 17.20629
  },
  {
    "id": 3186573,
    "name": "Zenica",
    "lat": 44.20169,
    "lng": 17.90397
  },
  {
    "id": 3188582,
    "name": "Tuzla",
    "lat": 44.53842,
    "lng": 18.66709
  },
  {
    "id": 3194828,
    "name": "Mostar",
    "lat": 43.34333,
    "lng": 17.80806
  },
  {
    "id": 3204222,
    "name": "Bihać",
    "lat": 44.81694,
    "lng": 15.87083
  },
  {
    "id": 3199145,
    "name": "Ilidža",
    "lat": 43.83148,
    "lng": 18.30697
  },
  {
    "id": 3196079,
    "name": "Lukavac",
    "lat": 44.54245,
    "lng": 18.52618
  },
  {
    "id": 3203099,
    "name": "Bugojno",
    "lat": 44.05722,
    "lng": 17.45083
  },
  {
    "id": 3203521,
    "name": "Brčko",
    "lat": 44.87162,
    "lng": 18.8163
  },
  {
    "id": 3204186,
    "name": "Bijeljina",
    "lat": 44.75874,
    "lng": 19.21437
  },
  {
    "id": 3192409,
    "name": "Prijedor",
    "lat": 44.97991,
    "lng": 16.71401
  },
  {
    "id": 3188893,
    "name": "Trebinje",
    "lat": 42.71197,
    "lng": 18.34362
  },
  {
    "id": 3188924,
    "name": "Travnik",
    "lat": 44.22637,
    "lng": 17.66583
  },
  {
    "id": 3201984,
    "name": "Doboj",
    "lat": 44.73179,
    "lng": 18.08698
  },
  {
    "id": 3202822,
    "name": "Cazin",
    "lat": 44.96694,
    "lng": 15.94306
  },
  {
    "id": 3188225,
    "name": "Velika Kladuša",
    "lat": 45.18497,
    "lng": 15.80579
  },
  {
    "id": 3187609,
    "name": "Visoko",
    "lat": 43.98889,
    "lng": 18.17806
  },
  {
    "id": 3200396,
    "name": "Goražde",
    "lat": 43.66795,
    "lng": 18.97564
  },
  {
    "id": 3337476,
    "name": "Konjic",
    "lat": 43.65126,
    "lng": 17.96082
  },
  {
    "id": 3199779,
    "name": "Gračanica",
    "lat": 44.70307,
    "lng": 18.3101
  },
  {
    "id": 3199744,
    "name": "Gradačac",
    "lat": 44.87851,
    "lng": 18.42764
  },
  {
    "id": 3203653,
    "name": "Bosanska Krupa",
    "lat": 44.8825,
    "lng": 16.15139
  }
]