[
  {
    "id": 1820906,
    "name": "Bandar Seri Begawan",
    "lat": 4.89035,
    "lng": 114.94006
  },
  {
    "id": 1820575,
    "name": "Sengkurong",
    "lat": 4.88333,
    "lng": 114.83333
  },
  {
    "id": 1820635,
    "name": "Mentiri",
    "lat": 4.97058,
    "lng": 115.02078
  },
  {
    "id": 1820491,
    "name": "Kuala Belait",
    "lat": 4.58361,
    "lng": 114.2312
  },
  {
    "id": 1820187,
    "name": "Seria",
    "lat": 4.60637,
    "lng": 114.32476
  },
  {
    "id": 1820071,
    "name": "Tutong",
    "lat": 4.80278,
    "lng": 114.64917
  },
  {
    "id": 1820574,
    "name": "Serasa",
    "lat": 5.01761,
    "lng": 115.05798
  },
  {
    "id": 1820557,
    "name": "Liang",
    "lat": 4.67747,
    "lng": 114.49587
  }
]