[
  {
    "id": 2260535,
    "name": "Brazzaville",
    "lat": -4.26613,
    "lng": 15.28318
  },
  {
    "id": 2255414,
    "name": "Pointe-Noire",
    "lat": -4.77609,
    "lng": 11.86352
  },
  {
    "id": 2258261,
    "name": "Dolisie",
    "lat": -4.19834,
    "lng": 12.66664
  },
  {
    "id": 8521334,
    "name": "Nkayi",
    "lat": -4.18396,
    "lng": 13.2859
  },
  {
    "id": 2259383,
    "name": "Kayes",
    "lat": -4.20493,
    "lng": 13.28608
  },
  {
    "id": 2259655,
    "name": "Impfondo",
    "lat": 1.61804,
    "lng": 18.05981
  },
  {
    "id": 2255564,
    "name": "Ouesso",
    "lat": 1.61361,
    "lng": 16.05167
  },
  {
    "id": 2255542,
    "name": "Owando",
    "lat": -0.48193,
    "lng": 15.89988
  },
  {
    "id": 2255285,
    "name": "Sibiti",
    "lat": -3.68192,
    "lng": 13.34985
  },
  {
    "id": 2258080,
    "name": "Loutété",
    "lat": -4.29611,
    "lng": 13.85083
  },
  {
    "id": 2258604,
    "name": "Bouansa",
    "lat": -4.21861,
    "lng": 13.76167
  },
  {
    "id": 2259947,
    "name": "Gamboma",
    "lat": -1.87639,
    "lng": 15.86444
  },
  {
    "id": 2258378,
    "name": "Loandjili",
    "lat": -4.75611,
    "lng": 11.85778
  },
  {
    "id": 2256900,
    "name": "Mossaka",
    "lat": -1.21982,
    "lng": 16.79921
  },
  {
    "id": 2565524,
    "name": "Mindouli",
    "lat": 3.10278,
    "lng": 18.51111
  },
  {
    "id": 2569660,
    "name": "Oyo",
    "lat": -1.165,
    "lng": 15.97
  },
  {
    "id": 2257879,
    "name": "Makoua",
    "lat": 0.00694,
    "lng": 15.63333
  },
  {
    "id": 2258248,
    "name": "Loudima",
    "lat": -4.11616,
    "lng": 13.06755
  },
  {
    "id": 2256895,
    "name": "Mossendjo",
    "lat": -2.94968,
    "lng": 12.70423
  },
  {
    "id": 2257329,
    "name": "Mouyondzi",
    "lat": -3.99437,
    "lng": 13.92719
  },
  {
    "id": 2260945,
    "name": "Bétou",
    "lat": 3.055,
    "lng": 18.51722
  },
  {
    "id": 2260401,
    "name": "Djambala",
    "lat": -2.53806,
    "lng": 14.7541
  },
  {
    "id": 2565574,
    "name": "Pokola",
    "lat": 1.405,
    "lng": 16.31833
  }
]