[
  {
    "id": 264371,
    "name": "Athens",
    "lat": 37.98376,
    "lng": 23.72784
  },
  {
    "id": 734077,
    "name": "Thessaloníki",
    "lat": 40.64072,
    "lng": 22.93493
  },
  {
    "id": 255683,
    "name": "Pátra",
    "lat": 38.2462,
    "lng": 21.73508
  },
  {
    "id": 255274,
    "name": "Piraeus",
    "lat": 37.94203,
    "lng": 23.64619
  },
  {
    "id": 258576,
    "name": "Lárisa",
    "lat": 39.62847,
    "lng": 22.42112
  },
  {
    "id": 255524,
    "name": "Peristéri",
    "lat": 38.01539,
    "lng": 23.69187
  },
  {
    "id": 261745,
    "name": "Irákleion",
    "lat": 35.32787,
    "lng": 25.14341
  },
  {
    "id": 261414,
    "name": "Kallithéa",
    "lat": 37.95,
    "lng": 23.7
  },
  {
    "id": 265488,
    "name": "Acharnés",
    "lat": 38.08333,
    "lng": 23.73333
  },
  {
    "id": 736083,
    "name": "Kalamariá",
    "lat": 40.5825,
    "lng": 22.95028
  },
  {
    "id": 256429,
    "name": "Níkaia",
    "lat": 37.96667,
    "lng": 23.65
  },
  {
    "id": 262036,
    "name": "Glyfáda",
    "lat": 37.86289,
    "lng": 23.75802
  },
  {
    "id": 251833,
    "name": "Volos",
    "lat": 39.36923,
    "lng": 22.94769
  },
  {
    "id": 256601,
    "name": "Ílion",
    "lat": 38.03333,
    "lng": 23.7
  },
  {
    "id": 8310138,
    "name": "Ilioúpoli",
    "lat": 37.93149,
    "lng": 23.76779
  },
  {
    "id": 260204,
    "name": "Keratsíni",
    "lat": 37.9625,
    "lng": 23.61972
  },
  {
    "id": 736291,
    "name": "Évosmos",
    "lat": 40.67056,
    "lng": 22.90833
  },
  {
    "id": 260172,
    "name": "Khalándrion",
    "lat": 38.02369,
    "lng": 23.80068
  },
  {
    "id": 256575,
    "name": "Néa Smýrni",
    "lat": 37.94504,
    "lng": 23.71416
  },
  {
    "id": 265243,
    "name": "Maroúsi",
    "lat": 38.05,
    "lng": 23.8
  },
  {
    "id": 263986,
    "name": "Agios Dimitrios",
    "lat": 37.93333,
    "lng": 23.73333
  },
  {
    "id": 8358544,
    "name": "Zográfos",
    "lat": 37.97574,
    "lng": 23.76911
  },
  {
    "id": 265533,
    "name": "Aigáleo",
    "lat": 37.98333,
    "lng": 23.68333
  },
  {
    "id": 256614,
    "name": "Néa Ionía",
    "lat": 38.0357,
    "lng": 23.75733
  },
  {
    "id": 261779,
    "name": "Ioánnina",
    "lat": 39.66341,
    "lng": 20.85187
  },
  {
    "id": 256075,
    "name": "Palaió Fáliro",
    "lat": 37.92812,
    "lng": 23.70105
  },
  {
    "id": 8310183,
    "name": "Korydallós",
    "lat": 37.98468,
    "lng": 23.64711
  },
  {
    "id": 252664,
    "name": "Tríkala",
    "lat": 39.55493,
    "lng": 21.76837
  },
  {
    "id": 251948,
    "name": "Výronas",
    "lat": 37.96105,
    "lng": 23.753
  },
  {
    "id": 264194,
    "name": "Agía Paraskeví",
    "lat": 38.01667,
    "lng": 23.83333
  },
  {
    "id": 262135,
    "name": "Galátsi",
    "lat": 38.01667,
    "lng": 23.75
  },
  {
    "id": 260133,
    "name": "Chalkída",
    "lat": 38.46354,
    "lng": 23.60284
  },
  {
    "id": 255377,
    "name": "Petroúpolis",
    "lat": 38.04187,
    "lng": 23.68494
  },
  {
    "id": 734330,
    "name": "Sérres",
    "lat": 41.08499,
    "lng": 23.54757
  },
  {
    "id": 734538,
    "name": "Políchni",
    "lat": 40.66671,
    "lng": 22.94881
  },
  {
    "id": 400666,
    "name": "Ródos",
    "lat": 36.43556,
    "lng": 28.22199
  },
  {
    "id": 261604,
    "name": "Kalamata",
    "lat": 37.03913,
    "lng": 22.11265
  },
  {
    "id": 735861,
    "name": "Kavála",
    "lat": 40.93959,
    "lng": 24.40687
  },
  {
    "id": 260114,
    "name": "Chaniá",
    "lat": 35.51124,
    "lng": 24.02921
  },
  {
    "id": 735914,
    "name": "Kateríni",
    "lat": 40.26956,
    "lng": 22.50608
  },
  {
    "id": 736928,
    "name": "Alexandroupoli",
    "lat": 40.84995,
    "lng": 25.87644
  },
  {
    "id": 258620,
    "name": "Lamía",
    "lat": 38.89947,
    "lng": 22.4335
  },
  {
    "id": 261743,
    "name": "Irákleio",
    "lat": 38.05282,
    "lng": 23.76523
  },
  {
    "id": 733840,
    "name": "Xánthi",
    "lat": 41.13488,
    "lng": 24.888
  },
  {
    "id": 259824,
    "name": "Kifisiá",
    "lat": 38.07438,
    "lng": 23.81106
  },
  {
    "id": 265560,
    "name": "Agrínio",
    "lat": 38.62139,
    "lng": 21.40778
  },
  {
    "id": 734150,
    "name": "Stavroúpoli",
    "lat": 40.66944,
    "lng": 22.93806
  },
  {
    "id": 260183,
    "name": "Chaïdári",
    "lat": 38.01135,
    "lng": 23.66597
  },
  {
    "id": 735640,
    "name": "Komotiní",
    "lat": 41.11758,
    "lng": 25.40587
  },
  {
    "id": 734301,
    "name": "Sykiés",
    "lat": 40.64944,
    "lng": 22.95083
  },
  {
    "id": 736364,
    "name": "Dráma",
    "lat": 41.15283,
    "lng": 24.1473
  },
  {
    "id": 733905,
    "name": "Véroia",
    "lat": 40.52437,
    "lng": 22.20242
  },
  {
    "id": 261614,
    "name": "Álimos",
    "lat": 37.91033,
    "lng": 23.72361
  },
  {
    "id": 2463679,
    "name": "Corfu",
    "lat": 39.62441,
    "lng": 19.92016
  },
  {
    "id": 735563,
    "name": "Kozáni",
    "lat": 40.29931,
    "lng": 21.78984
  },
  {
    "id": 252910,
    "name": "Thívai",
    "lat": 38.325,
    "lng": 23.31889
  },
  {
    "id": 734643,
    "name": "Pylaía",
    "lat": 40.59918,
    "lng": 22.98613
  },
  {
    "id": 8358563,
    "name": "Ágioi Anárgyroi",
    "lat": 38.03013,
    "lng": 23.72379
  },
  {
    "id": 264516,
    "name": "Argyroúpoli",
    "lat": 37.90594,
    "lng": 23.75035
  },
  {
    "id": 264888,
    "name": "Áno Liósia",
    "lat": 38.08333,
    "lng": 23.7
  },
  {
    "id": 260989,
    "name": "Kardítsa",
    "lat": 39.36485,
    "lng": 21.92191
  },
  {
    "id": 9034728,
    "name": "Néa Ionía",
    "lat": 39.37904,
    "lng": 22.92752
  },
  {
    "id": 254352,
    "name": "Rethymno",
    "lat": 35.36555,
    "lng": 24.48232
  },
  {
    "id": 259949,
    "name": "Cholargós",
    "lat": 38.0,
    "lng": 23.8
  },
  {
    "id": 6324534,
    "name": "Vrilissia",
    "lat": 38.03381,
    "lng": 23.82962
  },
  {
    "id": 264445,
    "name": "Asprópyrgos",
    "lat": 38.06134,
    "lng": 23.58971
  },
  {
    "id": 259289,
    "name": "Kórinthos",
    "lat": 37.94007,
    "lng": 22.9513
  },
  {
    "id": 734426,
    "name": "Ptolemaḯda",
    "lat": 40.51472,
    "lng": 21.67861
  },
  {
    "id": 8201845,
    "name": "Gérakas",
    "lat": 38.02277,
    "lng": 23.8576
  },
  {
    "id": 259128,
    "name": "Metamórfosi",
    "lat": 38.06576,
    "lng": 23.76356
  },
  {
    "id": 251780,
    "name": "Voúla",
    "lat": 37.84221,
    "lng": 23.77651
  },
  {
    "id": 261249,
    "name": "Kamaterón",
    "lat": 38.05586,
    "lng": 23.70515
  },
  {
    "id": 256866,
    "name": "Mytilene",
    "lat": 39.10772,
    "lng": 26.55529
  },
  {
    "id": 733776,
    "name": "Giannitsá",
    "lat": 40.79194,
    "lng": 22.4075
  },
  {
    "id": 11747175,
    "name": "Neapoli",
    "lat": 40.6532,
    "lng": 22.94156
  },
  {
    "id": 252601,
    "name": "Trípoli",
    "lat": 37.50959,
    "lng": 22.37883
  },
  {
    "id": 264111,
    "name": "Agía Varvára",
    "lat": 37.98938,
    "lng": 23.66011
  },
  {
    "id": 261678,
    "name": "Kaisarianí",
    "lat": 37.9634,
    "lng": 23.76523
  },
  {
    "id": 256621,
    "name": "Néa Filadélfeia",
    "lat": 38.03491,
    "lng": 23.73811
  },
  {
    "id": 256750,
    "name": "Moskháton",
    "lat": 37.94789,
    "lng": 23.6788
  },
  {
    "id": 255588,
    "name": "Pérama",
    "lat": 37.96775,
    "lng": 23.5721
  },
  {
    "id": 254144,
    "name": "Salamína",
    "lat": 37.96427,
    "lng": 23.49649
  },
  {
    "id": 262752,
    "name": "Elefsína",
    "lat": 38.04135,
    "lng": 23.54295
  },
  {
    "id": 259973,
    "name": "Chios",
    "lat": 38.36875,
    "lng": 26.13718
  },
  {
    "id": 257365,
    "name": "Mégara",
    "lat": 37.99471,
    "lng": 23.34324
  },
  {
    "id": 735736,
    "name": "Kilkís",
    "lat": 40.99302,
    "lng": 22.87433
  },
  {
    "id": 263312,
    "name": "Dhafní",
    "lat": 37.95002,
    "lng": 23.73437
  },
  {
    "id": 257302,
    "name": "Melíssia",
    "lat": 38.05,
    "lng": 23.83333
  },
  {
    "id": 255229,
    "name": "Pýrgos",
    "lat": 37.67513,
    "lng": 21.44102
  },
  {
    "id": 264670,
    "name": "Árgos",
    "lat": 37.63333,
    "lng": 22.73333
  },
  {
    "id": 264559,
    "name": "Árta",
    "lat": 39.16014,
    "lng": 20.98561
  },
  {
    "id": 258463,
    "name": "Livadeiá",
    "lat": 38.43616,
    "lng": 22.87665
  },
  {
    "id": 258038,
    "name": "Artémida",
    "lat": 37.96727,
    "lng": 23.99684
  },
  {
    "id": 8358562,
    "name": "Péfki",
    "lat": 38.06019,
    "lng": 23.79264
  },
  {
    "id": 734883,
    "name": "Oraiókastro",
    "lat": 40.73083,
    "lng": 22.91722
  },
  {
    "id": 265500,
    "name": "Aígio",
    "lat": 38.24861,
    "lng": 22.08194
  },
  {
    "id": 735030,
    "name": "Náousa",
    "lat": 40.62944,
    "lng": 22.06806
  },
  {
    "id": 259245,
    "name": "Kos",
    "lat": 36.89295,
    "lng": 27.28768
  },
  {
    "id": 259251,
    "name": "Koropí",
    "lat": 37.89886,
    "lng": 23.87181
  },
  {
    "id": 736357,
    "name": "Édessa",
    "lat": 40.8026,
    "lng": 22.04751
  },
  {
    "id": 734712,
    "name": "Peraía",
    "lat": 40.49874,
    "lng": 22.92617
  },
  {
    "id": 736229,
    "name": "Flórina",
    "lat": 40.78197,
    "lng": 21.40981
  },
  {
    "id": 734771,
    "name": "Panórama",
    "lat": 40.58779,
    "lng": 23.0315
  },
  {
    "id": 256622,
    "name": "Néa Erythraía",
    "lat": 38.0927,
    "lng": 23.82223
  },
  {
    "id": 254698,
    "name": "Préveza",
    "lat": 38.95617,
    "lng": 20.7505
  },
  {
    "id": 262719,
    "name": "Ellinikó",
    "lat": 37.89013,
    "lng": 23.74406
  },
  {
    "id": 265252,
    "name": "Amaliáda",
    "lat": 37.79842,
    "lng": 21.35068
  },
  {
    "id": 736621,
    "name": "Ágios Athanásios",
    "lat": 40.71598,
    "lng": 22.72841
  },
  {
    "id": 253394,
    "name": "Sparta",
    "lat": 37.07446,
    "lng": 22.43009
  },
  {
    "id": 734880,
    "name": "Orestiáda",
    "lat": 41.50306,
    "lng": 26.52972
  },
  {
    "id": 8478257,
    "name": "Agios Ioannis Rentis",
    "lat": 37.96491,
    "lng": 23.66511
  },
  {
    "id": 252270,
    "name": "Vári",
    "lat": 37.8332,
    "lng": 23.80311
  },
  {
    "id": 735215,
    "name": "Meneméni",
    "lat": 40.65829,
    "lng": 22.89712
  },
  {
    "id": 256598,
    "name": "Néa Mákri",
    "lat": 38.08733,
    "lng": 23.97642
  }
]