[
  {
    "id": 98182,
    "name": "Baghdad",
    "lat": 33.34058,
    "lng": 44.40088
  },
  {
    "id": 99072,
    "name": "Mosul",
    "lat": 36.335,
    "lng": 43.11889
  },
  {
    "id": 95446,
    "name": "Erbil",
    "lat": 36.19117,
    "lng": 44.00943
  },
  {
    "id": 99532,
    "name": "Basrah",
    "lat": 30.50852,
    "lng": 47.7804
  },
  {
    "id": 94824,
    "name": "Karbala",
    "lat": 32.61603,
    "lng": 44.02488
  },
  {
    "id": 94787,
    "name": "Kirkuk",
    "lat": 35.46806,
    "lng": 44.39222
  },
  {
    "id": 100077,
    "name": "Abū Ghurayb",
    "lat": 33.30563,
    "lng": 44.18477
  },
  {
    "id": 98463,
    "name": "As Sulaymānīyah",
    "lat": 35.56496,
    "lng": 45.4329
  },
  {
    "id": 98854,
    "name": "Nasiriyah",
    "lat": 31.05799,
    "lng": 46.25726
  },
  {
    "id": 98860,
    "name": "Najaf",
    "lat": 32.02594,
    "lng": 44.34625
  },
  {
    "id": 99347,
    "name": "Al Ḩillah",
    "lat": 32.46367,
    "lng": 44.41963
  },
  {
    "id": 99100,
    "name": "Al Maḩmūdīyah",
    "lat": 33.06221,
    "lng": 44.36564
  },
  {
    "id": 96994,
    "name": "Dihok",
    "lat": 36.86608,
    "lng": 42.9879
  },
  {
    "id": 99608,
    "name": "Al ‘Amārah",
    "lat": 31.83561,
    "lng": 47.14483
  },
  {
    "id": 99762,
    "name": "Ad Dīwānīyah",
    "lat": 31.99289,
    "lng": 44.92552
  },
  {
    "id": 99131,
    "name": "Al Kūt",
    "lat": 32.5128,
    "lng": 45.81817
  },
  {
    "id": 98993,
    "name": "Al Qurnah",
    "lat": 31.01547,
    "lng": 47.43362
  },
  {
    "id": 99106,
    "name": "Al Madīnah",
    "lat": 30.96324,
    "lng": 47.26998
  },
  {
    "id": 95005,
    "name": "Kelar",
    "lat": 34.62805,
    "lng": 45.31852
  },
  {
    "id": 98717,
    "name": "Ramadi",
    "lat": 33.42056,
    "lng": 43.30778
  },
  {
    "id": 99454,
    "name": "Al Fallūjah",
    "lat": 33.34913,
    "lng": 43.78599
  },
  {
    "id": 91597,
    "name": "Sāmarrā’",
    "lat": 34.1959,
    "lng": 43.88568
  },
  {
    "id": 98530,
    "name": "As Samawah",
    "lat": 31.33198,
    "lng": 45.2944
  },
  {
    "id": 97990,
    "name": "Baqubah",
    "lat": 33.75403,
    "lng": 44.60518
  },
  {
    "id": 90708,
    "name": "Sīnah",
    "lat": 36.80851,
    "lng": 43.03935
  },
  {
    "id": 96961,
    "name": "Soran",
    "lat": 36.65558,
    "lng": 44.54217
  },
  {
    "id": 98245,
    "name": "Az Zubayr",
    "lat": 30.39213,
    "lng": 47.70175
  },
  {
    "id": 99135,
    "name": "Kufa",
    "lat": 32.05114,
    "lng": 44.44017
  },
  {
    "id": 98846,
    "name": "An Nu‘mānīyah",
    "lat": 32.55621,
    "lng": 45.41293
  },
  {
    "id": 89824,
    "name": "Umm Qaşr",
    "lat": 30.0362,
    "lng": 47.91951
  },
  {
    "id": 99446,
    "name": "Al Fāw",
    "lat": 29.97421,
    "lng": 48.47309
  },
  {
    "id": 99226,
    "name": "Nāḩiyat al Iskandarīyah",
    "lat": 32.8873,
    "lng": 44.34619
  },
  {
    "id": 89570,
    "name": "Zaxo",
    "lat": 37.14871,
    "lng": 42.68591
  },
  {
    "id": 99344,
    "name": "Al Hindīyah",
    "lat": 32.54193,
    "lng": 44.22469
  },
  {
    "id": 98622,
    "name": "Ash Shaţrah",
    "lat": 31.40906,
    "lng": 46.1727
  },
  {
    "id": 447022,
    "name": "Hajiawa",
    "lat": 36.23579,
    "lng": 44.79469
  },
  {
    "id": 99350,
    "name": "Al Ḩayy",
    "lat": 32.17419,
    "lng": 46.04345
  },
  {
    "id": 97417,
    "name": "Jamjamāl",
    "lat": 35.53356,
    "lng": 44.8343
  },
  {
    "id": 92138,
    "name": "Al Qā’im",
    "lat": 34.39251,
    "lng": 40.98945
  },
  {
    "id": 10303650,
    "name": "Simele",
    "lat": 36.85833,
    "lng": 42.8501
  },
  {
    "id": 99169,
    "name": "Khāliş",
    "lat": 33.80809,
    "lng": 44.53343
  },
  {
    "id": 90026,
    "name": "Ţūz Khūrmātū",
    "lat": 34.88808,
    "lng": 44.63256
  },
  {
    "id": 98629,
    "name": "Ash Shāmīyah",
    "lat": 31.96257,
    "lng": 44.60075
  },
  {
    "id": 96205,
    "name": "Ḩalabja",
    "lat": 35.17778,
    "lng": 45.98611
  },
  {
    "id": 99039,
    "name": "Al Musayyib",
    "lat": 32.77872,
    "lng": 44.29005
  },
  {
    "id": 99062,
    "name": "Al Miqdādīyah",
    "lat": 33.97861,
    "lng": 44.93694
  },
  {
    "id": 92430,
    "name": "Al-Hamdaniya",
    "lat": 36.27093,
    "lng": 43.37758
  },
  {
    "id": 98685,
    "name": "Ar Rumaythah",
    "lat": 31.52845,
    "lng": 45.20377
  },
  {
    "id": 94220,
    "name": "Koysinceq",
    "lat": 36.08289,
    "lng": 44.62873
  },
  {
    "id": 99548,
    "name": "Al ‘Azīzīyah",
    "lat": 32.90941,
    "lng": 45.06359
  },
  {
    "id": 90150,
    "name": "Tikrīt",
    "lat": 34.61581,
    "lng": 43.67861
  },
  {
    "id": 98459,
    "name": "Aş Şuwayrah",
    "lat": 32.92556,
    "lng": 44.77583
  },
  {
    "id": 98112,
    "name": "Balad",
    "lat": 34.01485,
    "lng": 44.14574
  },
  {
    "id": 448149,
    "name": "Sinjār",
    "lat": 36.3209,
    "lng": 41.87656
  },
  {
    "id": 99010,
    "name": "al-Qasim",
    "lat": 32.29799,
    "lng": 44.68282
  },
  {
    "id": 97783,
    "name": "Bayjī",
    "lat": 34.92915,
    "lng": 43.48878
  },
  {
    "id": 95788,
    "name": "Hīt",
    "lat": 33.63664,
    "lng": 42.82768
  },
  {
    "id": 99103,
    "name": "Al Maḩāwīl",
    "lat": 32.66138,
    "lng": 44.40854
  },
  {
    "id": 96309,
    "name": "Ḩadīthah",
    "lat": 34.13661,
    "lng": 42.37727
  },
  {
    "id": 99434,
    "name": "Nahiyat Ghammas",
    "lat": 31.74311,
    "lng": 44.6196
  },
  {
    "id": 91812,
    "name": "Nāḩīyat Saddat al Hindīyah",
    "lat": 32.71557,
    "lng": 44.27857
  },
  {
    "id": 94298,
    "name": "Kifrī",
    "lat": 34.68963,
    "lng": 44.96057
  },
  {
    "id": 93709,
    "name": "Mandalī",
    "lat": 33.7481,
    "lng": 45.55503
  },
  {
    "id": 97825,
    "name": "Batifa",
    "lat": 37.17454,
    "lng": 43.01233
  },
  {
    "id": 98012,
    "name": "Baynjiwayn",
    "lat": 35.62054,
    "lng": 45.94908
  },
  {
    "id": 6765385,
    "name": "‘Anah",
    "lat": 34.36857,
    "lng": 41.98194
  },
  {
    "id": 99759,
    "name": "Ad Dujayl",
    "lat": 33.84667,
    "lng": 44.23444
  },
  {
    "id": 90353,
    "name": "Tallkayf",
    "lat": 36.49118,
    "lng": 43.12114
  },
  {
    "id": 99060,
    "name": "Al Mishkhāb",
    "lat": 31.80437,
    "lng": 44.4893
  },
  {
    "id": 98822,
    "name": "‘Aqrah",
    "lat": 36.76038,
    "lng": 43.89428
  },
  {
    "id": 92002,
    "name": "Ṟuwandiz",
    "lat": 36.6114,
    "lng": 44.52194
  },
  {
    "id": 98589,
    "name": "Nāḩiyat ash Shināfīyah",
    "lat": 31.58376,
    "lng": 44.64675
  },
  {
    "id": 98677,
    "name": "Ar Ruţbah",
    "lat": 33.03718,
    "lng": 40.28586
  },
  {
    "id": 99738,
    "name": "‘Afak",
    "lat": 32.0643,
    "lng": 45.24743
  },
  {
    "id": 99439,
    "name": "Nāḩiyat al Fuhūd",
    "lat": 30.96972,
    "lng": 46.72278
  },
  {
    "id": 99306,
    "name": "‘Alī al Gharbī",
    "lat": 32.46186,
    "lng": 46.68794
  }
]