[
  {
    "id": 1070940,
    "name": "Antananarivo",
    "lat": -18.91368,
    "lng": 47.53613
  },
  {
    "id": 1053384,
    "name": "Toamasina",
    "lat": -18.1492,
    "lng": 49.40234
  },
  {
    "id": 1069166,
    "name": "Antsirabe",
    "lat": -19.86586,
    "lng": 47.03333
  },
  {
    "id": 1062663,
    "name": "Mahajanga",
    "lat": -15.71667,
    "lng": 46.31667
  },
  {
    "id": 1064890,
    "name": "Fianarantsoa",
    "lat": -21.45267,
    "lng": 47.08569
  },
  {
    "id": 1055429,
    "name": "Toliara",
    "lat": -23.35,
    "lng": 43.66667
  },
  {
    "id": 1069129,
    "name": "Antsiranana",
    "lat": -12.31732,
    "lng": 49.29188
  },
  {
    "id": 1056899,
    "name": "Sambava",
    "lat": -14.26667,
    "lng": 50.16667
  },
  {
    "id": 1064121,
    "name": "Imerintsiatosika",
    "lat": -18.98333,
    "lng": 47.31667
  },
  {
    "id": 1071296,
    "name": "Antalaha",
    "lat": -14.90033,
    "lng": 50.27876
  },
  {
    "id": 1055433,
    "name": "Tôlanaro",
    "lat": -25.03249,
    "lng": 46.98329
  },
  {
    "id": 1070661,
    "name": "Antanifotsy",
    "lat": -19.65,
    "lng": 47.31667
  },
  {
    "id": 1079048,
    "name": "Ambovombe",
    "lat": -25.17838,
    "lng": 46.08722
  },
  {
    "id": 1082243,
    "name": "Ambilobe",
    "lat": -13.2,
    "lng": 49.05
  },
  {
    "id": 1083724,
    "name": "Ambanja",
    "lat": -13.669,
    "lng": 48.453
  },
  {
    "id": 1058532,
    "name": "Moramanga",
    "lat": -18.94948,
    "lng": 48.23007
  },
  {
    "id": 1069579,
    "name": "Antsalova",
    "lat": -18.66667,
    "lng": 44.61667
  },
  {
    "id": 1058381,
    "name": "Morondava",
    "lat": -20.28869,
    "lng": 44.31782
  },
  {
    "id": 1076105,
    "name": "Hell-Ville",
    "lat": -13.39718,
    "lng": 48.26663
  },
  {
    "id": 1063858,
    "name": "Ivato",
    "lat": -18.8,
    "lng": 47.48333
  },
  {
    "id": 1082639,
    "name": "Ambatondrazaka",
    "lat": -17.83333,
    "lng": 48.41667
  },
  {
    "id": 1081790,
    "name": "Amboasary",
    "lat": -25.03333,
    "lng": 46.38333
  },
  {
    "id": 1054463,
    "name": "Tsiroanomandidy",
    "lat": -18.76969,
    "lng": 46.04653
  },
  {
    "id": 1061605,
    "name": "Manakara",
    "lat": -22.14862,
    "lng": 48.01055
  },
  {
    "id": 1083968,
    "name": "Ambalavao",
    "lat": -21.83333,
    "lng": 46.93333
  },
  {
    "id": 1060283,
    "name": "Maroantsetra",
    "lat": -15.43527,
    "lng": 49.73794
  },
  {
    "id": 1064980,
    "name": "Fenoarivo Atsinanana",
    "lat": -17.38095,
    "lng": 49.40826
  },
  {
    "id": 1079088,
    "name": "Ambositra",
    "lat": -20.53034,
    "lng": 47.24344
  },
  {
    "id": 1056151,
    "name": "Soavinandriana",
    "lat": -19.16667,
    "lng": 46.73333
  },
  {
    "id": 1064275,
    "name": "Ihosy",
    "lat": -22.40293,
    "lng": 46.12576
  },
  {
    "id": 1059507,
    "name": "Marovoay",
    "lat": -16.11064,
    "lng": 46.64383
  },
  {
    "id": 1054329,
    "name": "Vangaindrano",
    "lat": -23.35,
    "lng": 47.6
  },
  {
    "id": 1068971,
    "name": "Antsohihy",
    "lat": -14.87959,
    "lng": 47.98751
  },
  {
    "id": 1078553,
    "name": "Ampanihy",
    "lat": -24.6937,
    "lng": 44.74581
  },
  {
    "id": 1062553,
    "name": "Mahanoro",
    "lat": -19.9,
    "lng": 48.8
  },
  {
    "id": 1083239,
    "name": "Ambatofinandrahana",
    "lat": -20.55284,
    "lng": 46.80365
  },
  {
    "id": 1076194,
    "name": "Andilamena",
    "lat": -17.01009,
    "lng": 48.57313
  },
  {
    "id": 1056386,
    "name": "Soanierana Ivongo",
    "lat": -16.91667,
    "lng": 49.58333
  },
  {
    "id": 1064234,
    "name": "Ikongo",
    "lat": -21.88333,
    "lng": 47.43333
  },
  {
    "id": 1054192,
    "name": "Vavatenina",
    "lat": -17.46667,
    "lng": 49.2
  },
  {
    "id": 1065140,
    "name": "Faratsiho",
    "lat": -19.4,
    "lng": 46.95
  },
  {
    "id": 1061412,
    "name": "Mananara",
    "lat": -16.16864,
    "lng": 49.76622
  },
  {
    "id": 1058080,
    "name": "Nosy Varika",
    "lat": -20.58333,
    "lng": 48.53333
  },
  {
    "id": 1065158,
    "name": "Farafangana",
    "lat": -22.82223,
    "lng": 47.82615
  },
  {
    "id": 1076454,
    "name": "Andapa",
    "lat": -14.65,
    "lng": 49.65
  },
  {
    "id": 1066514,
    "name": "Betafo",
    "lat": -19.83333,
    "lng": 46.85
  },
  {
    "id": 1083257,
    "name": "Ambato Boeny",
    "lat": -16.46667,
    "lng": 46.71667
  },
  {
    "id": 1078446,
    "name": "Amparafaravola",
    "lat": -17.5876,
    "lng": 48.22391
  },
  {
    "id": 1082992,
    "name": "Ambatolampy",
    "lat": -19.38333,
    "lng": 47.41667
  },
  {
    "id": 1059949,
    "name": "Maromandia",
    "lat": -14.21667,
    "lng": 48.08333
  },
  {
    "id": 1081199,
    "name": "Ambodimanga II",
    "lat": -17.26667,
    "lng": 49.16667
  },
  {
    "id": 1068670,
    "name": "Bealanana",
    "lat": -14.54329,
    "lng": 48.74981
  },
  {
    "id": 1068955,
    "name": "Antsohimbondrona",
    "lat": -13.08333,
    "lng": 48.85
  },
  {
    "id": 1065222,
    "name": "Fandriana",
    "lat": -20.23333,
    "lng": 47.38333
  },
  {
    "id": 1061700,
    "name": "Mampikony",
    "lat": -16.092,
    "lng": 47.647
  },
  {
    "id": 1068865,
    "name": "Arivonimamo",
    "lat": -19.01667,
    "lng": 47.18333
  },
  {
    "id": 1054500,
    "name": "Tsiombe",
    "lat": -25.3,
    "lng": 45.48333
  },
  {
    "id": 1072849,
    "name": "Ankazobe",
    "lat": -18.31667,
    "lng": 47.11667
  },
  {
    "id": 1081530,
    "name": "Ambodifotatra",
    "lat": -16.98333,
    "lng": 49.85
  },
  {
    "id": 1057277,
    "name": "Sahavato",
    "lat": -20.6,
    "lng": 48.33333
  },
  {
    "id": 1062842,
    "name": "Maevatanana",
    "lat": -16.95,
    "lng": 46.83333
  },
  {
    "id": 1066310,
    "name": "Betioky",
    "lat": -23.72065,
    "lng": 44.38069
  },
  {
    "id": 1059059,
    "name": "Miandrarivo",
    "lat": -19.43333,
    "lng": 46.75
  },
  {
    "id": 1053778,
    "name": "Vohipaho",
    "lat": -23.55,
    "lng": 47.5
  },
  {
    "id": 1061335,
    "name": "Mananjary",
    "lat": -21.23034,
    "lng": 48.34173
  },
  {
    "id": 1055059,
    "name": "Tsaratanana",
    "lat": -16.79706,
    "lng": 47.65165
  },
  {
    "id": 1060007,
    "name": "Marolambo",
    "lat": -20.05,
    "lng": 48.11667
  },
  {
    "id": 1072879,
    "name": "Ankazoabo",
    "lat": -22.28333,
    "lng": 44.51667
  },
  {
    "id": 1073482,
    "name": "Anjozorobe",
    "lat": -18.4,
    "lng": 47.86667
  },
  {
    "id": 1054035,
    "name": "Vohibinany",
    "lat": -17.35,
    "lng": 49.03333
  },
  {
    "id": 1080522,
    "name": "Ambohidratrimo",
    "lat": -18.818,
    "lng": 47.43382
  },
  {
    "id": 1078966,
    "name": "Ampahana",
    "lat": -14.75,
    "lng": 50.21667
  },
  {
    "id": 1058390,
    "name": "Morombe",
    "lat": -21.74499,
    "lng": 43.36055
  },
  {
    "id": 1057996,
    "name": "Boriziny",
    "lat": -15.55,
    "lng": 47.66667
  },
  {
    "id": 1067531,
    "name": "Belo sur Tsiribihina",
    "lat": -19.69787,
    "lng": 44.54587
  },
  {
    "id": 1061912,
    "name": "Maintirano",
    "lat": -18.06354,
    "lng": 44.02951
  },
  {
    "id": 1060673,
    "name": "Manjakandriana",
    "lat": -18.91667,
    "lng": 47.8
  },
  {
    "id": 1064311,
    "name": "Iharan̈a",
    "lat": -13.35,
    "lng": 50.0
  },
  {
    "id": 1067565,
    "name": "Beloha",
    "lat": -25.16667,
    "lng": 45.05
  },
  {
    "id": 1057095,
    "name": "Sakaraha",
    "lat": -22.9,
    "lng": 44.53333
  },
  {
    "id": 1059051,
    "name": "Miandrivazo",
    "lat": -19.52905,
    "lng": 45.45559
  },
  {
    "id": 1078171,
    "name": "Ampasimanolotra",
    "lat": -18.81667,
    "lng": 49.06667
  },
  {
    "id": 1056531,
    "name": "Sitampiky",
    "lat": -16.66667,
    "lng": 46.1
  },
  {
    "id": 1056381,
    "name": "Soanindrariny",
    "lat": -19.9,
    "lng": 47.23333
  },
  {
    "id": 1067982,
    "name": "Bekily",
    "lat": -24.21667,
    "lng": 45.31667
  },
  {
    "id": 1053507,
    "name": "Vondrozo",
    "lat": -22.81667,
    "lng": 47.28333
  },
  {
    "id": 1064978,
    "name": "Fenoarivo Be",
    "lat": -18.43333,
    "lng": 46.56667
  },
  {
    "id": 1066831,
    "name": "Beroroha",
    "lat": -21.66667,
    "lng": 45.16667
  },
  {
    "id": 1068387,
    "name": "Befandriana",
    "lat": -15.2567,
    "lng": 48.54249
  },
  {
    "id": 1066248,
    "name": "Betroka",
    "lat": -23.26667,
    "lng": 46.08333
  },
  {
    "id": 1081863,
    "name": "Amboanjo",
    "lat": -22.0,
    "lng": 47.85
  },
  {
    "id": 1079777,
    "name": "Ambohitrolomahitsy",
    "lat": -18.7,
    "lng": 47.68333
  },
  {
    "id": 1057688,
    "name": "Sadabe",
    "lat": -18.63333,
    "lng": 47.7
  },
  {
    "id": 1054257,
    "name": "Vatomandry",
    "lat": -19.33018,
    "lng": 48.97791
  },
  {
    "id": 1064366,
    "name": "Ifanadiana",
    "lat": -21.3,
    "lng": 47.63333
  },
  {
    "id": 1083676,
    "name": "Ambarakaraka",
    "lat": -13.5,
    "lng": 48.86667
  },
  {
    "id": 1084740,
    "name": "Alarobia",
    "lat": -18.96667,
    "lng": 47.73333
  },
  {
    "id": 1072711,
    "name": "Ankazondandy",
    "lat": -18.7,
    "lng": 47.78333
  },
  {
    "id": 1053765,
    "name": "Vohipeno",
    "lat": -22.35,
    "lng": 47.83333
  },
  {
    "id": 1064258,
    "name": "Ikalamavony",
    "lat": -21.15,
    "lng": 46.58333
  },
  {
    "id": 1056487,
    "name": "Soalala",
    "lat": -16.1,
    "lng": 45.31667
  }
]