[
  {
    "id": 2562541,
    "name": "San Pawl il-Baħar",
    "lat": 35.95064,
    "lng": 14.41561
  },
  {
    "id": 2563191,
    "name": "Birkirkara",
    "lat": 35.89706,
    "lng": 14.46115
  },
  {
    "id": 2562704,
    "name": "Mosta",
    "lat": 35.90942,
    "lng": 14.42566
  },
  {
    "id": 2562501,
    "name": "Sliema",
    "lat": 35.91247,
    "lng": 14.50175
  },
  {
    "id": 2562629,
    "name": "Qormi",
    "lat": 35.87601,
    "lng": 14.472
  },
  {
    "id": 2562266,
    "name": "Żabbar",
    "lat": 35.87687,
    "lng": 14.53592
  }
]