[
  {
    "id": 3617763,
    "name": "Managua",
    "lat": 12.13282,
    "lng": -86.2504
  },
  {
    "id": 3618030,
    "name": "León",
    "lat": 12.43527,
    "lng": -86.87862
  },
  {
    "id": 3617723,
    "name": "Masaya",
    "lat": 11.97316,
    "lng": -86.09587
  },
  {
    "id": 3620381,
    "name": "Chinandega",
    "lat": 12.62951,
    "lng": -87.13133
  },
  {
    "id": 3617708,
    "name": "Matagalpa",
    "lat": 12.92795,
    "lng": -85.91906
  },
  {
    "id": 3619194,
    "name": "Estelí",
    "lat": 13.09291,
    "lng": -86.35589
  },
  {
    "id": 3619136,
    "name": "Granada",
    "lat": 11.93062,
    "lng": -85.95368
  },
  {
    "id": 3617697,
    "name": "Mateare",
    "lat": 12.23512,
    "lng": -86.42809
  },
  {
    "id": 3618929,
    "name": "Jinotega",
    "lat": 13.09103,
    "lng": -86.00234
  },
  {
    "id": 3619267,
    "name": "El Viejo",
    "lat": 12.66348,
    "lng": -87.16663
  },
  {
    "id": 3617459,
    "name": "Nueva Guinea",
    "lat": 11.68758,
    "lng": -84.45616
  },
  {
    "id": 3828262,
    "name": "Ciudad Sandino",
    "lat": 12.15889,
    "lng": -86.34417
  },
  {
    "id": 3618908,
    "name": "Juigalpa",
    "lat": 12.10591,
    "lng": -85.36549
  },
  {
    "id": 3616035,
    "name": "Tipitapa",
    "lat": 12.19732,
    "lng": -86.09706
  },
  {
    "id": 3620680,
    "name": "Bluefields",
    "lat": 12.01292,
    "lng": -83.76449
  },
  {
    "id": 3620170,
    "name": "Diriamba",
    "lat": 11.85812,
    "lng": -86.23922
  },
  {
    "id": 3617448,
    "name": "Ocotal",
    "lat": 13.63222,
    "lng": -86.47399
  },
  {
    "id": 3617154,
    "name": "Puerto Cabezas",
    "lat": 14.03507,
    "lng": -83.38882
  },
  {
    "id": 3620390,
    "name": "Chichigalpa",
    "lat": 12.57758,
    "lng": -87.02705
  },
  {
    "id": 3617052,
    "name": "Rivas",
    "lat": 11.43977,
    "lng": -85.82749
  },
  {
    "id": 3616594,
    "name": "San Rafael del Sur",
    "lat": 11.84854,
    "lng": -86.43839
  },
  {
    "id": 3618926,
    "name": "Jinotepe",
    "lat": 11.84828,
    "lng": -86.19916
  },
  {
    "id": 3620674,
    "name": "Boaco",
    "lat": 12.47255,
    "lng": -85.65956
  },
  {
    "id": 3617522,
    "name": "Nagarote",
    "lat": 12.26593,
    "lng": -86.56474
  },
  {
    "id": 3618954,
    "name": "Jalapa",
    "lat": 13.92221,
    "lng": -86.12346
  },
  {
    "id": 3618411,
    "name": "La Paz Centro",
    "lat": 12.34,
    "lng": -86.67528
  },
  {
    "id": 3616682,
    "name": "San Marcos",
    "lat": 11.90949,
    "lng": -86.20351
  },
  {
    "id": 3617725,
    "name": "Masatepe",
    "lat": 11.91445,
    "lng": -86.14458
  },
  {
    "id": 3617513,
    "name": "Nandaime",
    "lat": 11.75696,
    "lng": -86.05286
  },
  {
    "id": 3617095,
    "name": "Rama",
    "lat": 12.15965,
    "lng": -84.21952
  },
  {
    "id": 3616232,
    "name": "Somoto",
    "lat": 13.4841,
    "lng": -86.58229
  },
  {
    "id": 3620269,
    "name": "Corinto",
    "lat": 12.4825,
    "lng": -87.17304
  },
  {
    "id": 3617069,
    "name": "Río Blanco",
    "lat": 12.93435,
    "lng": -85.22354
  },
  {
    "id": 3620544,
    "name": "Camoapa",
    "lat": 12.38383,
    "lng": -85.51277
  },
  {
    "id": 3619853,
    "name": "El Crucero",
    "lat": 11.99008,
    "lng": -86.30954
  },
  {
    "id": 3616253,
    "name": "Siuna",
    "lat": 13.73321,
    "lng": -84.77725
  },
  {
    "id": 3616234,
    "name": "Somotillo",
    "lat": 13.04387,
    "lng": -86.90506
  }
]