[
  {
    "id": 792680,
    "name": "Belgrade",
    "lat": 44.80401,
    "lng": 20.46513
  },
  {
    "id": 787657,
    "name": "Niš",
    "lat": 43.32472,
    "lng": 21.90333
  },
  {
    "id": 3194360,
    "name": "Novi Sad",
    "lat": 45.25167,
    "lng": 19.83694
  },
  {
    "id": 783920,
    "name": "Zemun",
    "lat": 44.8458,
    "lng": 20.40116
  },
  {
    "id": 789128,
    "name": "Kragujevac",
    "lat": 44.01667,
    "lng": 20.91667
  },
  {
    "id": 792078,
    "name": "Čačak",
    "lat": 43.89139,
    "lng": 20.34972
  },
  {
    "id": 3189595,
    "name": "Subotica",
    "lat": 46.1,
    "lng": 19.66667
  },
  {
    "id": 788709,
    "name": "Leskovac",
    "lat": 42.99806,
    "lng": 21.94611
  },
  {
    "id": 787595,
    "name": "Novi Pazar",
    "lat": 43.13667,
    "lng": 20.51222
  },
  {
    "id": 789107,
    "name": "Kraljevo",
    "lat": 43.72583,
    "lng": 20.68944
  },
  {
    "id": 783814,
    "name": "Zrenjanin",
    "lat": 45.38361,
    "lng": 20.38194
  },
  {
    "id": 787237,
    "name": "Pančevo",
    "lat": 44.87177,
    "lng": 20.64167
  },
  {
    "id": 788975,
    "name": "Kruševac",
    "lat": 43.58,
    "lng": 21.33389
  },
  {
    "id": 3188434,
    "name": "Užice",
    "lat": 43.85861,
    "lng": 19.84878
  },
  {
    "id": 785756,
    "name": "Smederevo",
    "lat": 44.66436,
    "lng": 20.92763
  },
  {
    "id": 3188402,
    "name": "Valjevo",
    "lat": 44.27513,
    "lng": 19.89821
  },
  {
    "id": 784227,
    "name": "Vranje",
    "lat": 42.55139,
    "lng": 21.90028
  },
  {
    "id": 3191376,
    "name": "Šabac",
    "lat": 44.74667,
    "lng": 19.69
  },
  {
    "id": 784024,
    "name": "Zaječar",
    "lat": 43.90358,
    "lng": 22.26405
  },
  {
    "id": 784873,
    "name": "Trstenik",
    "lat": 43.61694,
    "lng": 21.0025
  },
  {
    "id": 3190342,
    "name": "Sombor",
    "lat": 45.77417,
    "lng": 19.11222
  },
  {
    "id": 789518,
    "name": "Kikinda",
    "lat": 45.82972,
    "lng": 20.46528
  },
  {
    "id": 786827,
    "name": "Požarevac",
    "lat": 44.62133,
    "lng": 21.18782
  },
  {
    "id": 787050,
    "name": "Pirot",
    "lat": 43.15306,
    "lng": 22.58611
  },
  {
    "id": 792456,
    "name": "Bor",
    "lat": 44.07488,
    "lng": 22.09591
  },
  {
    "id": 3190103,
    "name": "Sremska Mitrovica",
    "lat": 44.97639,
    "lng": 19.61222
  },
  {
    "id": 784136,
    "name": "Vršac",
    "lat": 45.11667,
    "lng": 21.30361
  },
  {
    "id": 789923,
    "name": "Jagodina",
    "lat": 43.97713,
    "lng": 21.26121
  },
  {
    "id": 3191429,
    "name": "Ruma",
    "lat": 45.00806,
    "lng": 19.82222
  },
  {
    "id": 3204674,
    "name": "Bačka Palanka",
    "lat": 45.24966,
    "lng": 19.39664
  },
  {
    "id": 790015,
    "name": "Inđija",
    "lat": 45.04816,
    "lng": 20.08165
  },
  {
    "id": 786690,
    "name": "Prokuplje",
    "lat": 43.23417,
    "lng": 21.58806
  },
  {
    "id": 785753,
    "name": "Smederevska Palanka",
    "lat": 44.36548,
    "lng": 20.95885
  },
  {
    "id": 3187297,
    "name": "Vrbas",
    "lat": 45.57139,
    "lng": 19.64083
  },
  {
    "id": 792814,
    "name": "Bečej",
    "lat": 45.61632,
    "lng": 20.03331
  },
  {
    "id": 6619277,
    "name": "Knjazevac",
    "lat": 43.56634,
    "lng": 22.25701
  },
  {
    "id": 793111,
    "name": "Aranđelovac",
    "lat": 44.30694,
    "lng": 20.56
  },
  {
    "id": 790367,
    "name": "Gornji Milanovac",
    "lat": 44.02603,
    "lng": 20.46152
  },
  {
    "id": 788771,
    "name": "Lazarevac",
    "lat": 44.38534,
    "lng": 20.2557
  },
  {
    "id": 785615,
    "name": "Sremčica",
    "lat": 44.67653,
    "lng": 20.39232
  },
  {
    "id": 791678,
    "name": "Ćuprija",
    "lat": 43.9275,
    "lng": 21.37
  },
  {
    "id": 785965,
    "name": "Senta",
    "lat": 45.9275,
    "lng": 20.07722
  },
  {
    "id": 3196153,
    "name": "Loznica",
    "lat": 44.53118,
    "lng": 19.24267
  },
  {
    "id": 3204793,
    "name": "Apatin",
    "lat": 45.6726,
    "lng": 18.978
  },
  {
    "id": 3200802,
    "name": "Futog",
    "lat": 45.23874,
    "lng": 19.71416
  },
  {
    "id": 787718,
    "name": "Negotin",
    "lat": 44.22639,
    "lng": 22.53083
  },
  {
    "id": 787516,
    "name": "Obrenovac",
    "lat": 44.65486,
    "lng": 20.20017
  },
  {
    "id": 785559,
    "name": "Stara Pazova",
    "lat": 44.985,
    "lng": 20.16083
  },
  {
    "id": 3204672,
    "name": "Bačka Topola",
    "lat": 45.81516,
    "lng": 19.6318
  },
  {
    "id": 787615,
    "name": "Nova Pazova",
    "lat": 44.94366,
    "lng": 20.21931
  }
]