[
  {
    "id": 105343,
    "name": "Jeddah",
    "lat": 21.49012,
    "lng": 39.18624
  },
  {
    "id": 108410,
    "name": "Riyadh",
    "lat": 24.68773,
    "lng": 46.72185
  },
  {
    "id": 104515,
    "name": "Makkah",
    "lat": 21.42664,
    "lng": 39.82563
  },
  {
    "id": 109223,
    "name": "Madinah",
    "lat": 24.46861,
    "lng": 39.61417
  },
  {
    "id": 110336,
    "name": "Dammam",
    "lat": 26.43442,
    "lng": 50.10326
  },
  {
    "id": 101760,
    "name": "Sulţānah",
    "lat": 24.49258,
    "lng": 39.58572
  },
  {
    "id": 107304,
    "name": "Buraydah",
    "lat": 26.32599,
    "lng": 43.97497
  },
  {
    "id": 107968,
    "name": "Ta’if",
    "lat": 21.27028,
    "lng": 40.41583
  },
  {
    "id": 101628,
    "name": "Tabuk",
    "lat": 28.3998,
    "lng": 36.57151
  },
  {
    "id": 106281,
    "name": "Ha'il",
    "lat": 27.52188,
    "lng": 41.69073
  },
  {
    "id": 103630,
    "name": "Najrān",
    "lat": 17.49326,
    "lng": 44.12766
  },
  {
    "id": 109353,
    "name": "Al Kharj",
    "lat": 24.15541,
    "lng": 47.33457
  },
  {
    "id": 105072,
    "name": "Khamis Mushait",
    "lat": 18.3,
    "lng": 42.73333
  },
  {
    "id": 109571,
    "name": "Al Hufūf",
    "lat": 25.36467,
    "lng": 49.58764
  },
  {
    "id": 109101,
    "name": "Al Mubarraz",
    "lat": 25.40768,
    "lng": 49.59028
  },
  {
    "id": 106297,
    "name": "Hafar Al-Batin",
    "lat": 28.43279,
    "lng": 45.97077
  },
  {
    "id": 109435,
    "name": "Al Jubayl",
    "lat": 27.0174,
    "lng": 49.62251
  },
  {
    "id": 110690,
    "name": "Abha",
    "lat": 18.21639,
    "lng": 42.50528
  },
  {
    "id": 100425,
    "name": "Yanbu",
    "lat": 24.08954,
    "lng": 38.0618
  },
  {
    "id": 101732,
    "name": "Unaizah",
    "lat": 26.1,
    "lng": 44.0
  },
  {
    "id": 109323,
    "name": "Khobar",
    "lat": 26.27944,
    "lng": 50.20833
  },
  {
    "id": 108512,
    "name": "Arar",
    "lat": 30.97531,
    "lng": 41.03808
  },
  {
    "id": 102527,
    "name": "Sakakah",
    "lat": 29.96974,
    "lng": 40.20641
  },
  {
    "id": 107781,
    "name": "Az Zulfī",
    "lat": 26.29945,
    "lng": 44.81542
  },
  {
    "id": 105299,
    "name": "Jizan",
    "lat": 16.88917,
    "lng": 42.55111
  },
  {
    "id": 108648,
    "name": "Qurayyat",
    "lat": 31.33176,
    "lng": 37.34282
  },
  {
    "id": 11670045,
    "name": "Sabt Alalayah",
    "lat": 19.5773,
    "lng": 41.96357
  },
  {
    "id": 107797,
    "name": "Dhahran",
    "lat": 26.28864,
    "lng": 50.11396
  },
  {
    "id": 108927,
    "name": "Al Qaţīf",
    "lat": 26.56542,
    "lng": 50.0089
  },
  {
    "id": 109953,
    "name": "Al Bahah",
    "lat": 20.01288,
    "lng": 41.46767
  },
  {
    "id": 101554,
    "name": "Tārūt",
    "lat": 26.5733,
    "lng": 50.04028
  },
  {
    "id": 103369,
    "name": "Qal‘at Bīshah",
    "lat": 20.00054,
    "lng": 42.6052
  },
  {
    "id": 108435,
    "name": "Ar Rass",
    "lat": 25.86944,
    "lng": 43.4973
  },
  {
    "id": 12495725,
    "name": "Bariq",
    "lat": 18.92966,
    "lng": 41.92953
  },
  {
    "id": 410096,
    "name": "Ash Shafā",
    "lat": 21.07268,
    "lng": 40.31842
  },
  {
    "id": 109253,
    "name": "Al Līth",
    "lat": 20.14804,
    "lng": 40.27224
  },
  {
    "id": 102318,
    "name": "Sayhāt",
    "lat": 26.48345,
    "lng": 50.04849
  },
  {
    "id": 110312,
    "name": "Ad Dir‘īyah",
    "lat": 24.75187,
    "lng": 46.53874
  },
  {
    "id": 109380,
    "name": "Al Khafjī",
    "lat": 28.43905,
    "lng": 48.49132
  },
  {
    "id": 110325,
    "name": "Ad Dawādimī",
    "lat": 24.50772,
    "lng": 44.39237
  },
  {
    "id": 102651,
    "name": "Şabyā",
    "lat": 17.1495,
    "lng": 42.62537
  },
  {
    "id": 110619,
    "name": "Abū ‘Arīsh",
    "lat": 16.96887,
    "lng": 42.83251
  },
  {
    "id": 397833,
    "name": "Al Badā’i‘ al Wusţá",
    "lat": 25.98546,
    "lng": 43.73659
  },
  {
    "id": 102585,
    "name": "Şafwá",
    "lat": 26.6497,
    "lng": 49.95522
  },
  {
    "id": 110250,
    "name": "Afif",
    "lat": 23.9065,
    "lng": 42.91724
  },
  {
    "id": 109878,
    "name": "Al Bukayrīyah",
    "lat": 26.13915,
    "lng": 43.65782
  },
  {
    "id": 103035,
    "name": "Rābigh",
    "lat": 22.79856,
    "lng": 39.03493
  },
  {
    "id": 102985,
    "name": "Raḩīmah",
    "lat": 26.70791,
    "lng": 50.06194
  },
  {
    "id": 101312,
    "name": "Turaif",
    "lat": 31.67252,
    "lng": 38.66374
  },
  {
    "id": 101631,
    "name": "Ţubarjal",
    "lat": 30.49987,
    "lng": 38.21603
  },
  {
    "id": 110314,
    "name": "Ad Dilam",
    "lat": 23.99104,
    "lng": 47.16181
  },
  {
    "id": 100926,
    "name": "Umluj",
    "lat": 25.02126,
    "lng": 37.2685
  },
  {
    "id": 109131,
    "name": "Al Mithnab",
    "lat": 25.86012,
    "lng": 44.22228
  },
  {
    "id": 108841,
    "name": "Al-`Ula",
    "lat": 26.60853,
    "lng": 37.92316
  },
  {
    "id": 102170,
    "name": "Shaqra",
    "lat": 25.24019,
    "lng": 45.25104
  },
  {
    "id": 106667,
    "name": "Fayfā’",
    "lat": 17.2806,
    "lng": 43.13735
  },
  {
    "id": 104716,
    "name": "Laylá",
    "lat": 22.29206,
    "lng": 46.72376
  },
  {
    "id": 107312,
    "name": "Abqaiq",
    "lat": 25.93402,
    "lng": 49.6688
  },
  {
    "id": 393275,
    "name": "Turubah",
    "lat": 28.25849,
    "lng": 42.92457
  },
  {
    "id": 107744,
    "name": "Badr Ḩunayn",
    "lat": 23.78292,
    "lng": 38.79047
  },
  {
    "id": 409682,
    "name": "Thuwal",
    "lat": 22.28272,
    "lng": 39.11245
  },
  {
    "id": 102451,
    "name": "Şāmitah",
    "lat": 16.59601,
    "lng": 42.94435
  },
  {
    "id": 108773,
    "name": "Al Wajh",
    "lat": 26.23094,
    "lng": 36.46492
  },
  {
    "id": 109998,
    "name": "Al ‘Awwāmīyah",
    "lat": 26.59144,
    "lng": 49.97951
  },
  {
    "id": 106102,
    "name": "Ḩaql",
    "lat": 29.28627,
    "lng": 34.94687
  },
  {
    "id": 11835536,
    "name": "Riyāḑ al Khabrā’",
    "lat": 26.06672,
    "lng": 43.55344
  },
  {
    "id": 102744,
    "name": "Rumāḩ",
    "lat": 25.56395,
    "lng": 47.16408
  },
  {
    "id": 108617,
    "name": "An Nimas",
    "lat": 19.14547,
    "lng": 42.12009
  },
  {
    "id": 108048,
    "name": "As Sulayyil",
    "lat": 20.46067,
    "lng": 45.57792
  },
  {
    "id": 101322,
    "name": "Turabah",
    "lat": 21.21406,
    "lng": 41.6331
  },
  {
    "id": 109417,
    "name": "Al Jumūm",
    "lat": 21.61951,
    "lng": 39.69659
  },
  {
    "id": 106909,
    "name": "Duba",
    "lat": 27.35134,
    "lng": 35.69014
  },
  {
    "id": 107959,
    "name": "Aţ Ţaraf",
    "lat": 25.36232,
    "lng": 49.72757
  },
  {
    "id": 108918,
    "name": "Qaisumah",
    "lat": 28.31117,
    "lng": 46.12729
  },
  {
    "id": 104578,
    "name": "Mahd adh Dhahab",
    "lat": 23.49966,
    "lng": 40.88408
  },
  {
    "id": 104923,
    "name": "Khulayş",
    "lat": 22.15553,
    "lng": 39.32015
  },
  {
    "id": 108655,
    "name": "‘Inak",
    "lat": 26.51959,
    "lng": 50.02715
  },
  {
    "id": 12500245,
    "name": "Sarāt ‘Abīdah",
    "lat": 18.089,
    "lng": 43.132
  },
  {
    "id": 107588,
    "name": "Baq‘ā’",
    "lat": 27.90647,
    "lng": 42.38898
  },
  {
    "id": 110059,
    "name": "Al ‘Aqīq",
    "lat": 20.65,
    "lng": 41.41667
  },
  {
    "id": 109391,
    "name": "Al Khabrā’",
    "lat": 26.07179,
    "lng": 43.62497
  },
  {
    "id": 109915,
    "name": "Al Baţţālīyah",
    "lat": 25.43333,
    "lng": 49.63333
  },
  {
    "id": 109059,
    "name": "Al Munayzilah",
    "lat": 25.38333,
    "lng": 49.66667
  },
  {
    "id": 108782,
    "name": "‘Uyūn al Jiwā’",
    "lat": 26.49829,
    "lng": 43.6312
  }
]