[
  {
    "id": 1609350,
    "name": "Bangkok",
    "lat": 13.75398,
    "lng": 100.50144
  },
  {
    "id": 1606590,
    "name": "Samut Prakan",
    "lat": 13.5976,
    "lng": 100.5972
  },
  {
    "id": 1608133,
    "name": "Mueang Nonthaburi",
    "lat": 13.86075,
    "lng": 100.51477
  },
  {
    "id": 1611110,
    "name": "Chon Buri",
    "lat": 13.3622,
    "lng": 100.98345
  },
  {
    "id": 1607508,
    "name": "Phra Pradaeng",
    "lat": 13.65855,
    "lng": 100.53362
  },
  {
    "id": 7026720,
    "name": "Bang Khae",
    "lat": 13.69196,
    "lng": 100.40691
  },
  {
    "id": 1610780,
    "name": "Hat Yai",
    "lat": 7.00836,
    "lng": 100.47668
  },
  {
    "id": 1608048,
    "name": "Pak Kret",
    "lat": 13.91301,
    "lng": 100.49883
  },
  {
    "id": 7026886,
    "name": "Sai Mai",
    "lat": 13.92068,
    "lng": 100.64552
  },
  {
    "id": 1606250,
    "name": "Si Racha",
    "lat": 13.17372,
    "lng": 100.93111
  },
  {
    "id": 7027003,
    "name": "Watthana",
    "lat": 13.72978,
    "lng": 100.58536
  },
  {
    "id": 13494069,
    "name": "Khlong Sam Wa",
    "lat": 13.87139,
    "lng": 100.73719
  },
  {
    "id": 1619485,
    "name": "Bang Khun Thian",
    "lat": 13.66302,
    "lng": 100.43416
  },
  {
    "id": 6957690,
    "name": "Lat Krabang",
    "lat": 13.72341,
    "lng": 100.78436
  },
  {
    "id": 7026785,
    "name": "Chatuchak",
    "lat": 13.82893,
    "lng": 100.55985
  },
  {
    "id": 1618177,
    "name": "Ban Khlong Prawet",
    "lat": 13.71904,
    "lng": 100.68146
  },
  {
    "id": 7026787,
    "name": "Chom Thong",
    "lat": 13.67717,
    "lng": 100.48407
  },
  {
    "id": 1608258,
    "name": "Nong Chok",
    "lat": 13.85585,
    "lng": 100.86216
  },
  {
    "id": 1152473,
    "name": "Lampang",
    "lat": 18.29232,
    "lng": 99.49277
  },
  {
    "id": 1608236,
    "name": "Nong Khaem",
    "lat": 13.70528,
    "lng": 100.34923
  },
  {
    "id": 1619532,
    "name": "Bang Kapi",
    "lat": 13.7653,
    "lng": 100.647
  },
  {
    "id": 7026776,
    "name": "Bueng Kum",
    "lat": 13.78528,
    "lng": 100.66958
  },
  {
    "id": 1150515,
    "name": "Surat Thani",
    "lat": 9.14011,
    "lng": 99.33311
  },
  {
    "id": 1605239,
    "name": "Udon Thani",
    "lat": 17.41567,
    "lng": 102.78589
  },
  {
    "id": 6694101,
    "name": "Din Daeng",
    "lat": 13.7904,
    "lng": 100.57014
  },
  {
    "id": 1153671,
    "name": "Chiang Mai",
    "lat": 18.79038,
    "lng": 98.98468
  },
  {
    "id": 1608529,
    "name": "Nakhon Ratchasima",
    "lat": 14.97066,
    "lng": 102.10196
  },
  {
    "id": 1153269,
    "name": "Hua Hin",
    "lat": 12.57065,
    "lng": 99.95876
  },
  {
    "id": 6845329,
    "name": "Bang Sue",
    "lat": 13.81086,
    "lng": 100.53064
  },
  {
    "id": 1613549,
    "name": "Ban Samae Dam",
    "lat": 13.58956,
    "lng": 100.38734
  },
  {
    "id": 1605245,
    "name": "Ubon Ratchathani",
    "lat": 15.23844,
    "lng": 104.84866
  },
  {
    "id": 7026837,
    "name": "Lat Phrao",
    "lat": 13.80349,
    "lng": 100.60749
  },
  {
    "id": 1607782,
    "name": "Phasi Charoen",
    "lat": 13.71466,
    "lng": 100.43691
  },
  {
    "id": 1605403,
    "name": "Thon Buri",
    "lat": 13.725,
    "lng": 100.48511
  },
  {
    "id": 1609899,
    "name": "Khlong Luang",
    "lat": 14.06467,
    "lng": 100.64578
  },
  {
    "id": 1608534,
    "name": "Nakhon Pathom",
    "lat": 13.8196,
    "lng": 100.04427
  },
  {
    "id": 1619460,
    "name": "Bangkok Noi",
    "lat": 13.76266,
    "lng": 100.47798
  },
  {
    "id": 7026999,
    "name": "Thung Khru",
    "lat": 13.62875,
    "lng": 100.50964
  },
  {
    "id": 1614295,
    "name": "Pattaya",
    "lat": 12.93333,
    "lng": 100.88333
  },
  {
    "id": 7026898,
    "name": "Suan Luang",
    "lat": 13.73028,
    "lng": 100.65138
  },
  {
    "id": 7027001,
    "name": "Wang Thonglang",
    "lat": 13.78546,
    "lng": 100.61165
  },
  {
    "id": 1609776,
    "name": "Khon Kaen",
    "lat": 16.44671,
    "lng": 102.833
  },
  {
    "id": 7026833,
    "name": "Lak Si",
    "lat": 13.88724,
    "lng": 100.5792
  },
  {
    "id": 6908641,
    "name": "Khlong Toei",
    "lat": 13.71669,
    "lng": 100.57159
  },
  {
    "id": 1610858,
    "name": "Dusit",
    "lat": 13.7775,
    "lng": 100.51977
  },
  {
    "id": 1607017,
    "name": "Rayong",
    "lat": 12.68095,
    "lng": 101.25798
  },
  {
    "id": 1605843,
    "name": "Taling Chan",
    "lat": 13.77698,
    "lng": 100.4567
  },
  {
    "id": 8355932,
    "name": "Bang Bon",
    "lat": 13.66185,
    "lng": 100.39567
  },
  {
    "id": 1151933,
    "name": "Nakhon Si Thammarat",
    "lat": 8.43333,
    "lng": 99.96667
  },
  {
    "id": 1611269,
    "name": "Chanthaburi",
    "lat": 12.60961,
    "lng": 102.10447
  },
  {
    "id": 1619278,
    "name": "Bang Rak",
    "lat": 13.73058,
    "lng": 100.52388
  },
  {
    "id": 1620755,
    "name": "Bang Na",
    "lat": 13.66744,
    "lng": 100.64206
  },
  {
    "id": 1604870,
    "name": "Yala",
    "lat": 6.53995,
    "lng": 101.28128
  },
  {
    "id": 1150954,
    "name": "Ratchaburi",
    "lat": 13.53671,
    "lng": 99.81712
  },
  {
    "id": 1620706,
    "name": "Bang Phlat",
    "lat": 13.79425,
    "lng": 100.50447
  },
  {
    "id": 1607542,
    "name": "Phra Khanong",
    "lat": 13.70185,
    "lng": 100.60157
  },
  {
    "id": 7026889,
    "name": "Saphan Sung",
    "lat": 13.77019,
    "lng": 100.68531
  },
  {
    "id": 7026817,
    "name": "Khan Na Yao",
    "lat": 13.82609,
    "lng": 100.67933
  },
  {
    "id": 1601579,
    "name": "Ban Mai",
    "lat": 7.20411,
    "lng": 100.54508
  },
  {
    "id": 1607055,
    "name": "Rat Burana",
    "lat": 13.68219,
    "lng": 100.50603
  },
  {
    "id": 7026897,
    "name": "Sathon",
    "lat": 13.7085,
    "lng": 100.52619
  },
  {
    "id": 1608527,
    "name": "Nakhon Sawan",
    "lat": 15.70472,
    "lng": 100.13717
  },
  {
    "id": 1604792,
    "name": "Yan Nawa",
    "lat": 13.69634,
    "lng": 100.54212
  },
  {
    "id": 1151254,
    "name": "Phuket",
    "lat": 7.89059,
    "lng": 98.3981
  },
  {
    "id": 1153669,
    "name": "Chiang Rai",
    "lat": 19.90858,
    "lng": 99.8325
  },
  {
    "id": 1619434,
    "name": "Bang Kruai",
    "lat": 13.805,
    "lng": 100.47283
  },
  {
    "id": 7026800,
    "name": "Huai Khwang",
    "lat": 13.77678,
    "lng": 100.579
  },
  {
    "id": 7026994,
    "name": "Thawi Watthana",
    "lat": 13.78316,
    "lng": 100.37805
  },
  {
    "id": 1606790,
    "name": "Sakon Nakhon",
    "lat": 17.16116,
    "lng": 104.14725
  },
  {
    "id": 1609879,
    "name": "Khlong San",
    "lat": 13.73086,
    "lng": 100.50903
  },
  {
    "id": 7026885,
    "name": "Ratchathewi",
    "lat": 13.759,
    "lng": 100.53358
  },
  {
    "id": 1609395,
    "name": "Krathum Baen",
    "lat": 13.6533,
    "lng": 100.25972
  },
  {
    "id": 1619457,
    "name": "Bangkok Yai",
    "lat": 13.72319,
    "lng": 100.476
  },
  {
    "id": 1154770,
    "name": "Ban Ko Sire",
    "lat": 7.88747,
    "lng": 98.42575
  },
  {
    "id": 7026870,
    "name": "Phaya Thai",
    "lat": 13.78005,
    "lng": 100.54275
  },
  {
    "id": 1606418,
    "name": "Saraburi",
    "lat": 14.53333,
    "lng": 100.91667
  },
  {
    "id": 1150007,
    "name": "Trang",
    "lat": 7.55633,
    "lng": 99.61141
  },
  {
    "id": 1606386,
    "name": "Sattahip",
    "lat": 12.66644,
    "lng": 100.90073
  },
  {
    "id": 1153081,
    "name": "Kanchanaburi",
    "lat": 14.00412,
    "lng": 99.54832
  },
  {
    "id": 1608232,
    "name": "Nong Khai",
    "lat": 17.87847,
    "lng": 102.742
  },
  {
    "id": 1606588,
    "name": "Samut Sakhon",
    "lat": 13.54753,
    "lng": 100.27362
  },
  {
    "id": 1607708,
    "name": "Phitsanulok",
    "lat": 16.82481,
    "lng": 100.25858
  },
  {
    "id": 1606147,
    "name": "Songkhla",
    "lat": 7.19882,
    "lng": 100.5951
  },
  {
    "id": 1612696,
    "name": "Ban Tha Kham",
    "lat": 13.6375,
    "lng": 100.44128
  },
  {
    "id": 1617111,
    "name": "Ban Lam Luk Ka",
    "lat": 13.97738,
    "lng": 100.77776
  },
  {
    "id": 1153090,
    "name": "Kamphaeng Phet",
    "lat": 16.48344,
    "lng": 99.52153
  },
  {
    "id": 1611407,
    "name": "Chaiyaphum",
    "lat": 15.81047,
    "lng": 102.02881
  },
  {
    "id": 1605215,
    "name": "Uttaradit",
    "lat": 17.62557,
    "lng": 100.09421
  },
  {
    "id": 1609032,
    "name": "Lop Buri",
    "lat": 14.79808,
    "lng": 100.65397
  },
  {
    "id": 1155139,
    "name": "Ban Pong",
    "lat": 13.81629,
    "lng": 99.87739
  },
  {
    "id": 1607512,
    "name": "Phra Phutthabat",
    "lat": 14.72526,
    "lng": 100.79536
  },
  {
    "id": 1153557,
    "name": "Chumphon",
    "lat": 10.4957,
    "lng": 99.17971
  },
  {
    "id": 1609610,
    "name": "Klaeng",
    "lat": 12.77972,
    "lng": 101.64831
  },
  {
    "id": 1610469,
    "name": "Kalasin",
    "lat": 16.43281,
    "lng": 103.50658
  },
  {
    "id": 1606033,
    "name": "Suphan Buri",
    "lat": 14.47418,
    "lng": 100.12218
  },
  {
    "id": 7026842,
    "name": "Pathum Wan",
    "lat": 13.73649,
    "lng": 100.5239
  },
  {
    "id": 1150275,
    "name": "Tha Maka",
    "lat": 13.9,
    "lng": 99.76667
  },
  {
    "id": 1117652,
    "name": "Ban Talat Yai",
    "lat": 7.88481,
    "lng": 98.40008
  },
  {
    "id": 7503760,
    "name": "Ban Lak Song",
    "lat": 13.68928,
    "lng": 100.39814
  },
  {
    "id": 1608900,
    "name": "Maha Sarakham",
    "lat": 16.18483,
    "lng": 103.30067
  },
  {
    "id": 10128831,
    "name": "Phra Nakhon",
    "lat": 13.76512,
    "lng": 100.49864
  },
  {
    "id": 1607327,
    "name": "Pom Prap Sattru Phai",
    "lat": 13.75822,
    "lng": 100.51325
  },
  {
    "id": 1607532,
    "name": "Phra Nakhon Si Ayutthaya",
    "lat": 14.35167,
    "lng": 100.57739
  },
  {
    "id": 1607737,
    "name": "Phetchabun",
    "lat": 16.41904,
    "lng": 101.16056
  },
  {
    "id": 1154689,
    "name": "Ko Samui",
    "lat": 9.53567,
    "lng": 99.93567
  },
  {
    "id": 1611439,
    "name": "Chachoengsao",
    "lat": 13.6882,
    "lng": 101.07156
  },
  {
    "id": 1153807,
    "name": "Cha-am",
    "lat": 12.8,
    "lng": 99.96667
  },
  {
    "id": 1608057,
    "name": "Pak Chong",
    "lat": 14.70802,
    "lng": 101.41614
  },
  {
    "id": 1608409,
    "name": "Narathiwat",
    "lat": 6.42639,
    "lng": 101.82308
  },
  {
    "id": 1151063,
    "name": "Pran Buri",
    "lat": 12.38487,
    "lng": 99.90157
  },
  {
    "id": 1606030,
    "name": "Surin",
    "lat": 14.88181,
    "lng": 103.49364
  },
  {
    "id": 1149698,
    "name": "Phetchaburi",
    "lat": 13.11189,
    "lng": 99.94467
  },
  {
    "id": 1611026,
    "name": "Chum Phae",
    "lat": 16.5443,
    "lng": 102.09924
  },
  {
    "id": 1606939,
    "name": "Sadao",
    "lat": 6.63883,
    "lng": 100.42342
  },
  {
    "id": 1606239,
    "name": "Si Sa Ket",
    "lat": 15.11481,
    "lng": 104.32938
  },
  {
    "id": 1152188,
    "name": "Mae Sot",
    "lat": 16.71667,
    "lng": 98.56667
  },
  {
    "id": 1607978,
    "name": "Pattani",
    "lat": 6.86814,
    "lng": 101.25009
  },
  {
    "id": 1607779,
    "name": "Phatthalung",
    "lat": 7.61786,
    "lng": 100.07792
  },
  {
    "id": 1152468,
    "name": "Lamphun",
    "lat": 18.58054,
    "lng": 99.00745
  },
  {
    "id": 1605069,
    "name": "Warin Chamrap",
    "lat": 15.19319,
    "lng": 104.8628
  },
  {
    "id": 1606050,
    "name": "Su-ngai Kolok",
    "lat": 6.02977,
    "lng": 101.96586
  },
  {
    "id": 1605467,
    "name": "Tha Yang",
    "lat": 12.95772,
    "lng": 99.90555
  },
  {
    "id": 1614465,
    "name": "Ban Phaeo",
    "lat": 13.59072,
    "lng": 100.10748
  },
  {
    "id": 1619602,
    "name": "Bang Bua Thong",
    "lat": 13.91783,
    "lng": 100.42403
  },
  {
    "id": 1608239,
    "name": "Nong Khae",
    "lat": 14.34062,
    "lng": 100.86733
  },
  {
    "id": 1608597,
    "name": "Mukdahan",
    "lat": 16.54531,
    "lng": 104.72351
  },
  {
    "id": 1156257,
    "name": "Ban Na",
    "lat": 17.01717,
    "lng": 99.73283
  },
  {
    "id": 1619423,
    "name": "Bang Lamung",
    "lat": 13.04704,
    "lng": 100.92891
  },
  {
    "id": 1607001,
    "name": "Roi Et",
    "lat": 16.0567,
    "lng": 103.65309
  },
  {
    "id": 1605024,
    "name": "Wichian Buri",
    "lat": 15.65778,
    "lng": 101.10603
  },
  {
    "id": 7504194,
    "name": "Khwaeng Bang Khae",
    "lat": 13.69162,
    "lng": 100.40448
  },
  {
    "id": 6696291,
    "name": "Wichit",
    "lat": 7.8894,
    "lng": 98.38523
  },
  {
    "id": 1607552,
    "name": "Phrae",
    "lat": 18.14589,
    "lng": 100.14103
  },
  {
    "id": 1152227,
    "name": "Mae Chan",
    "lat": 20.14675,
    "lng": 99.85256
  },
  {
    "id": 1606638,
    "name": "Sam Phran",
    "lat": 13.72698,
    "lng": 100.21526
  },
  {
    "id": 1150533,
    "name": "Sukhothai",
    "lat": 17.00778,
    "lng": 99.823
  },
  {
    "id": 1610227,
    "name": "Kantharalak",
    "lat": 14.64056,
    "lng": 104.64992
  },
  {
    "id": 1151340,
    "name": "Photharam",
    "lat": 13.69234,
    "lng": 99.84969
  },
  {
    "id": 1620954,
    "name": "Ban Ang Sila",
    "lat": 13.33956,
    "lng": 100.92964
  },
  {
    "id": 1619496,
    "name": "Bang Khlo",
    "lat": 13.69889,
    "lng": 100.51244
  },
  {
    "id": 1607725,
    "name": "Phichit",
    "lat": 16.44184,
    "lng": 100.34879
  },
  {
    "id": 1610940,
    "name": "Det Udom",
    "lat": 14.90598,
    "lng": 105.07836
  },
  {
    "id": 1614455,
    "name": "Ban Phai",
    "lat": 16.05997,
    "lng": 102.73097
  },
  {
    "id": 1605677,
    "name": "Tha Bo",
    "lat": 17.85003,
    "lng": 102.58139
  },
  {
    "id": 1609071,
    "name": "Loei",
    "lat": 17.49052,
    "lng": 101.72749
  },
  {
    "id": 1606586,
    "name": "Samut Songkhram",
    "lat": 13.41456,
    "lng": 100.00264
  },
  {
    "id": 1153035,
    "name": "Kathu",
    "lat": 7.91779,
    "lng": 98.33322
  },
  {
    "id": 1621060,
    "name": "Amnat Charoen",
    "lat": 15.85851,
    "lng": 104.62883
  },
  {
    "id": 1608531,
    "name": "Nakhon Phanom",
    "lat": 17.41081,
    "lng": 104.77856
  },
  {
    "id": 1606376,
    "name": "Satun",
    "lat": 6.62314,
    "lng": 100.06676
  },
  {
    "id": 1608269,
    "name": "Nong Bua Lamphu",
    "lat": 17.20406,
    "lng": 102.44068
  },
  {
    "id": 7091912,
    "name": "Ban Ratsada",
    "lat": 7.90963,
    "lng": 98.40248
  },
  {
    "id": 1151074,
    "name": "Prachuap Khiri Khan",
    "lat": 11.82098,
    "lng": 99.7841
  },
  {
    "id": 1150732,
    "name": "San Kamphaeng",
    "lat": 18.74486,
    "lng": 99.11953
  },
  {
    "id": 1607280,
    "name": "Prachin Buri",
    "lat": 14.04992,
    "lng": 101.36864
  },
  {
    "id": 1152633,
    "name": "Krabi",
    "lat": 8.07257,
    "lng": 98.91052
  },
  {
    "id": 1604452,
    "name": "Ban Khlong Bang Sao Thong",
    "lat": 13.64172,
    "lng": 100.83272
  },
  {
    "id": 1604771,
    "name": "Yaring",
    "lat": 6.86617,
    "lng": 101.36894
  },
  {
    "id": 1604654,
    "name": "Na Klang",
    "lat": 17.3072,
    "lng": 102.18886
  },
  {
    "id": 8205089,
    "name": "Ban Aranyik",
    "lat": 16.82553,
    "lng": 100.28486
  },
  {
    "id": 13494061,
    "name": "Sam Sen Nai",
    "lat": 13.77714,
    "lng": 100.55082
  },
  {
    "id": 1610503,
    "name": "Kaeng Khoi",
    "lat": 14.58617,
    "lng": 100.99758
  },
  {
    "id": 1611635,
    "name": "Betong",
    "lat": 5.77434,
    "lng": 101.07231
  },
  {
    "id": 1157683,
    "name": "Bang Phae",
    "lat": 13.69157,
    "lng": 99.92982
  },
  {
    "id": 1614336,
    "name": "Ban Phan Don",
    "lat": 17.14272,
    "lng": 102.97261
  },
  {
    "id": 1610505,
    "name": "Kaeng Khro",
    "lat": 16.10864,
    "lng": 102.25808
  },
  {
    "id": 1948015,
    "name": "Amphoe Sikhiu",
    "lat": 14.89944,
    "lng": 101.70833
  },
  {
    "id": 1606807,
    "name": "Sa Kaeo",
    "lat": 13.81411,
    "lng": 102.07222
  },
  {
    "id": 1620919,
    "name": "Bang Bo District",
    "lat": 13.58333,
    "lng": 100.81667
  },
  {
    "id": 1611453,
    "name": "Buri Ram",
    "lat": 14.99433,
    "lng": 103.10392
  },
  {
    "id": 1150085,
    "name": "Thung Song",
    "lat": 8.16453,
    "lng": 99.68039
  },
  {
    "id": 1620254,
    "name": "Ban Chang",
    "lat": 12.72543,
    "lng": 101.05531
  },
  {
    "id": 1620875,
    "name": "Ban Bang Kadi",
    "lat": 13.99904,
    "lng": 100.54962
  },
  {
    "id": 1608191,
    "name": "Nong Phai",
    "lat": 15.99025,
    "lng": 101.06183
  },
  {
    "id": 1152194,
    "name": "Mae Sai",
    "lat": 20.43353,
    "lng": 99.87617
  },
  {
    "id": 1150246,
    "name": "Tha Muang",
    "lat": 13.96118,
    "lng": 99.64122
  },
  {
    "id": 1150921,
    "name": "Ron Phibun",
    "lat": 8.17911,
    "lng": 99.85425
  },
  {
    "id": 1620442,
    "name": "Ban Talat Bueng",
    "lat": 13.07147,
    "lng": 101.00314
  },
  {
    "id": 1150624,
    "name": "Si Satchanalai",
    "lat": 17.51692,
    "lng": 99.75978
  },
  {
    "id": 1151211,
    "name": "Tha Kham",
    "lat": 9.11072,
    "lng": 99.23208
  },
  {
    "id": 1619363,
    "name": "Bang Pakong",
    "lat": 13.54297,
    "lng": 100.99333
  },
  {
    "id": 1611424,
    "name": "Chai Badan",
    "lat": 15.2,
    "lng": 101.13333
  },
  {
    "id": 1608033,
    "name": "Pak Phanang",
    "lat": 8.35109,
    "lng": 100.20195
  },
  {
    "id": 1609324,
    "name": "Kut Chap",
    "lat": 17.4257,
    "lng": 102.56692
  },
  {
    "id": 1608452,
    "name": "Nan",
    "lat": 18.78378,
    "lng": 100.77899
  },
  {
    "id": 1150965,
    "name": "Ranong",
    "lat": 9.96583,
    "lng": 98.63476
  },
  {
    "id": 1607983,
    "name": "Pathum Thani",
    "lat": 14.01346,
    "lng": 100.53049
  },
  {
    "id": 1606640,
    "name": "Samphanthawong",
    "lat": 13.737,
    "lng": 100.512
  },
  {
    "id": 1150490,
    "name": "Tak",
    "lat": 16.86968,
    "lng": 99.12898
  },
  {
    "id": 1602708,
    "name": "Ban Khlong Bang Bon",
    "lat": 13.63606,
    "lng": 100.3775
  },
  {
    "id": 1153464,
    "name": "Dok Kham Tai",
    "lat": 19.16242,
    "lng": 99.99342
  },
  {
    "id": 1620371,
    "name": "Ban Bueng",
    "lat": 13.311,
    "lng": 101.11214
  },
  {
    "id": 1610459,
    "name": "Kamalasai",
    "lat": 16.33839,
    "lng": 103.57564
  },
  {
    "id": 1117656,
    "name": "Ban Talat Nua",
    "lat": 7.88489,
    "lng": 98.38557
  },
  {
    "id": 1611135,
    "name": "Chok Chai",
    "lat": 14.72844,
    "lng": 102.16524
  },
  {
    "id": 1153513,
    "name": "Damnoen Saduak",
    "lat": 13.51825,
    "lng": 99.95469
  },
  {
    "id": 7026735,
    "name": "Bang Kho Laem",
    "lat": 13.69347,
    "lng": 100.5022
  },
  {
    "id": 1605601,
    "name": "Tha Mai",
    "lat": 12.62137,
    "lng": 102.00481
  },
  {
    "id": 1157266,
    "name": "Ban Kamala",
    "lat": 7.95508,
    "lng": 98.28322
  },
  {
    "id": 1605221,
    "name": "Uthai Thani",
    "lat": 15.37939,
    "lng": 100.0245
  },
  {
    "id": 1608424,
    "name": "Nang Rong",
    "lat": 14.6377,
    "lng": 102.79138
  },
  {
    "id": 1607838,
    "name": "Phanat Nikhom",
    "lat": 13.44581,
    "lng": 101.18445
  },
  {
    "id": 1156046,
    "name": "Ban Na San",
    "lat": 8.80036,
    "lng": 99.36372
  },
  {
    "id": 1605754,
    "name": "Taphan Hin",
    "lat": 16.22095,
    "lng": 100.41978
  },
  {
    "id": 1152953,
    "name": "Khanu Woralaksaburi",
    "lat": 16.0617,
    "lng": 99.86058
  },
  {
    "id": 13494094,
    "name": "Chatuchak subdistrict",
    "lat": 13.82735,
    "lng": 100.55531
  },
  {
    "id": 1599640,
    "name": "Ban Nong Wua So",
    "lat": 17.2675,
    "lng": 103.22472
  },
  {
    "id": 1604769,
    "name": "Yasothon",
    "lat": 15.79408,
    "lng": 104.1451
  },
  {
    "id": 1605279,
    "name": "Trat",
    "lat": 12.24364,
    "lng": 102.51514
  },
  {
    "id": 1608539,
    "name": "Nakhon Nayok",
    "lat": 14.20463,
    "lng": 101.21295
  },
  {
    "id": 1151426,
    "name": "Phayao",
    "lat": 19.19203,
    "lng": 99.87883
  },
  {
    "id": 1609345,
    "name": "Kuchinarai",
    "lat": 16.541,
    "lng": 104.05004
  },
  {
    "id": 1619369,
    "name": "Bang Pa-in",
    "lat": 14.22783,
    "lng": 100.57589
  },
  {
    "id": 1621020,
    "name": "Aranyaprathet",
    "lat": 13.69276,
    "lng": 102.50128
  },
  {
    "id": 1610538,
    "name": "Kabin Buri",
    "lat": 13.95114,
    "lng": 101.71769
  },
  {
    "id": 1606270,
    "name": "Sing Buri",
    "lat": 14.88786,
    "lng": 100.40464
  },
  {
    "id": 1616222,
    "name": "Thambon Na Mueang",
    "lat": 14.05603,
    "lng": 101.37218
  },
  {
    "id": 1607730,
    "name": "Phibun Mangsahan",
    "lat": 15.24467,
    "lng": 105.22908
  },
  {
    "id": 1150681,
    "name": "Sawankhalok",
    "lat": 17.31597,
    "lng": 99.83186
  },
  {
    "id": 1618363,
    "name": "Ban Khlong Bang Ramat",
    "lat": 13.76667,
    "lng": 100.43333
  },
  {
    "id": 1607068,
    "name": "Ranot",
    "lat": 7.77768,
    "lng": 100.32134
  },
  {
    "id": 1117823,
    "name": "Sam Roi Yot",
    "lat": 12.27081,
    "lng": 99.87203
  },
  {
    "id": 1619650,
    "name": "Ban Dung",
    "lat": 17.699,
    "lng": 103.25957
  },
  {
    "id": 1607865,
    "name": "Phak Hai",
    "lat": 14.45736,
    "lng": 100.36989
  },
  {
    "id": 1608462,
    "name": "Nam Som",
    "lat": 17.77036,
    "lng": 102.18947
  },
  {
    "id": 1605018,
    "name": "Wiset Chaichan",
    "lat": 14.5945,
    "lng": 100.33825
  },
  {
    "id": 1605509,
    "name": "Tha Ruea",
    "lat": 14.56739,
    "lng": 100.72598
  },
  {
    "id": 1152562,
    "name": "Kui Buri",
    "lat": 12.08283,
    "lng": 99.85431
  },
  {
    "id": 1619437,
    "name": "Bang Krathum",
    "lat": 16.57831,
    "lng": 100.30034
  },
  {
    "id": 1607793,
    "name": "Phan Thong",
    "lat": 13.46804,
    "lng": 101.09532
  },
  {
    "id": 1609795,
    "name": "Khon Buri",
    "lat": 14.52541,
    "lng": 102.24591
  },
  {
    "id": 1610185,
    "name": "Kaset Wisai",
    "lat": 15.65558,
    "lng": 103.58361
  },
  {
    "id": 1620924,
    "name": "Ban Bang Bamru",
    "lat": 13.78333,
    "lng": 100.48333
  },
  {
    "id": 1152919,
    "name": "Khao Yoi",
    "lat": 13.24025,
    "lng": 99.82428
  },
  {
    "id": 1150154,
    "name": "Thoen",
    "lat": 17.61289,
    "lng": 99.21612
  },
  {
    "id": 1608136,
    "name": "Non Sung",
    "lat": 15.18014,
    "lng": 102.25695
  },
  {
    "id": 1154677,
    "name": "Ban Tak",
    "lat": 17.04325,
    "lng": 99.08128
  },
  {
    "id": 7091861,
    "name": "Ban Chalong",
    "lat": 7.84468,
    "lng": 98.33897
  },
  {
    "id": 1153386,
    "name": "Hang Dong",
    "lat": 18.68703,
    "lng": 98.91939
  },
  {
    "id": 1619415,
    "name": "Bang Len",
    "lat": 14.02188,
    "lng": 100.17183
  },
  {
    "id": 1150728,
    "name": "San Pa Tong",
    "lat": 18.62828,
    "lng": 98.89572
  },
  {
    "id": 1611106,
    "name": "Chon Daen",
    "lat": 16.18953,
    "lng": 100.85958
  },
  {
    "id": 1152377,
    "name": "Lat Yao",
    "lat": 15.751,
    "lng": 99.78925
  },
  {
    "id": 1614288,
    "name": "Ban Phe",
    "lat": 12.62824,
    "lng": 101.43757
  },
  {
    "id": 1613284,
    "name": "Ban Selaphum",
    "lat": 16.01667,
    "lng": 103.95
  },
  {
    "id": 1152202,
    "name": "Mae Ramat",
    "lat": 16.98403,
    "lng": 98.51665
  },
  {
    "id": 1609043,
    "name": "Lom Sak",
    "lat": 16.77983,
    "lng": 101.24225
  },
  {
    "id": 1605957,
    "name": "Tak Bai",
    "lat": 6.25947,
    "lng": 102.05461
  },
  {
    "id": 1607439,
    "name": "Phu Khiao",
    "lat": 16.3765,
    "lng": 102.12853
  },
  {
    "id": 1610943,
    "name": "Den Chai",
    "lat": 17.98372,
    "lng": 100.05217
  },
  {
    "id": 1595679,
    "name": "Nong Kung Si",
    "lat": 16.65,
    "lng": 103.3
  },
  {
    "id": 1610187,
    "name": "Kaset Sombun",
    "lat": 16.28053,
    "lng": 101.95422
  },
  {
    "id": 1607083,
    "name": "Ra-ngae",
    "lat": 6.29678,
    "lng": 101.72844
  },
  {
    "id": 1619276,
    "name": "Bang Rakam",
    "lat": 16.75847,
    "lng": 100.11742
  },
  {
    "id": 1611492,
    "name": "Bua Yai",
    "lat": 15.58552,
    "lng": 102.42587
  },
  {
    "id": 1606350,
    "name": "Sawang Daen Din",
    "lat": 17.47531,
    "lng": 103.45753
  },
  {
    "id": 1153850,
    "name": "Bo Phloi",
    "lat": 14.32517,
    "lng": 99.51467
  },
  {
    "id": 1150210,
    "name": "Thap Than",
    "lat": 15.46063,
    "lng": 99.89166
  },
  {
    "id": 1619616,
    "name": "Bang Ban",
    "lat": 14.37395,
    "lng": 100.48528
  },
  {
    "id": 1153241,
    "name": "Huai Yot",
    "lat": 7.78937,
    "lng": 99.63469
  },
  {
    "id": 1606343,
    "name": "Seka",
    "lat": 17.92851,
    "lng": 103.95519
  },
  {
    "id": 1605119,
    "name": "Wang Nam Yen",
    "lat": 13.50325,
    "lng": 102.18115
  },
  {
    "id": 1152432,
    "name": "Lang Suan",
    "lat": 9.94561,
    "lng": 99.07847
  },
  {
    "id": 1607435,
    "name": "Phu Kradueng",
    "lat": 16.88425,
    "lng": 101.88467
  },
  {
    "id": 1609278,
    "name": "Laem Sing",
    "lat": 12.48164,
    "lng": 102.07375
  },
  {
    "id": 1607801,
    "name": "Phanom Sarakham",
    "lat": 13.74872,
    "lng": 101.34888
  },
  {
    "id": 1616658,
    "name": "Ban Mo",
    "lat": 14.61544,
    "lng": 100.72731
  },
  {
    "id": 1605118,
    "name": "Wang Noi",
    "lat": 14.22689,
    "lng": 100.7155
  },
  {
    "id": 1605102,
    "name": "Wang Saphung",
    "lat": 17.30097,
    "lng": 101.7685
  },
  {
    "id": 1619400,
    "name": "Bang Mun Nak",
    "lat": 16.02781,
    "lng": 100.37917
  },
  {
    "id": 1151528,
    "name": "Pa Sang",
    "lat": 18.52617,
    "lng": 98.93936
  },
  {
    "id": 1610963,
    "name": "Dan Khun Thot",
    "lat": 15.2085,
    "lng": 101.77138
  },
  {
    "id": 1607257,
    "name": "Prakhon Chai",
    "lat": 14.60592,
    "lng": 103.12081
  },
  {
    "id": 1605538,
    "name": "Thap Khlo",
    "lat": 16.16003,
    "lng": 100.59656
  },
  {
    "id": 1611416,
    "name": "Chai Nat",
    "lat": 15.18636,
    "lng": 100.12353
  },
  {
    "id": 1614115,
    "name": "Ban Phra",
    "lat": 14.09461,
    "lng": 101.389
  },
  {
    "id": 1603235,
    "name": "Ban Huai Thalaeng",
    "lat": 14.98333,
    "lng": 102.65
  },
  {
    "id": 1619281,
    "name": "Bang Racham",
    "lat": 14.892,
    "lng": 100.31728
  },
  {
    "id": 1607615,
    "name": "Phon Charoen",
    "lat": 18.03333,
    "lng": 103.16667
  },
  {
    "id": 1609990,
    "name": "Khao Wong",
    "lat": 16.70008,
    "lng": 104.09019
  },
  {
    "id": 1153646,
    "name": "Chom Bueng",
    "lat": 13.62,
    "lng": 99.59169
  },
  {
    "id": 1157662,
    "name": "Bang Saphan",
    "lat": 11.21259,
    "lng": 99.51167
  },
  {
    "id": 1608541,
    "name": "Nakhon Luang",
    "lat": 14.46281,
    "lng": 100.60832
  }
]