[
  {
    "id": 71137,
    "name": "Sanaa",
    "lat": 15.35452,
    "lng": 44.20646
  },
  {
    "id": 415189,
    "name": "Aden",
    "lat": 12.77957,
    "lng": 45.03852
  },
  {
    "id": 70225,
    "name": "Taiz",
    "lat": 13.57952,
    "lng": 44.02091
  },
  {
    "id": 74477,
    "name": "Ibb",
    "lat": 13.96667,
    "lng": 44.18333
  },
  {
    "id": 79415,
    "name": "Al Ḩudaydah",
    "lat": 14.79781,
    "lng": 42.95452
  },
  {
    "id": 78754,
    "name": "Mukalla",
    "lat": 14.54248,
    "lng": 49.12424
  },
  {
    "id": 76184,
    "name": "Dhamār",
    "lat": 14.54274,
    "lng": 44.40514
  },
  {
    "id": 78428,
    "name": "‘Amrān",
    "lat": 15.6594,
    "lng": 43.94385
  },
  {
    "id": 70979,
    "name": "Sayyān",
    "lat": 15.17177,
    "lng": 44.32442
  },
  {
    "id": 69500,
    "name": "Zabīd",
    "lat": 14.1951,
    "lng": 43.31518
  },
  {
    "id": 71334,
    "name": "Sa'dah",
    "lat": 16.94021,
    "lng": 43.76393
  },
  {
    "id": 77408,
    "name": "Bājil",
    "lat": 15.05898,
    "lng": 43.28731
  },
  {
    "id": 75337,
    "name": "Ḩajjah",
    "lat": 15.69425,
    "lng": 43.60582
  },
  {
    "id": 76154,
    "name": "Dhī as Sufāl",
    "lat": 13.83446,
    "lng": 44.11469
  },
  {
    "id": 79836,
    "name": "Al Bayda",
    "lat": 13.98523,
    "lng": 45.57272
  },
  {
    "id": 77726,
    "name": "Ataq",
    "lat": 14.53767,
    "lng": 46.83187
  },
  {
    "id": 76991,
    "name": "Bayt al Faqīh",
    "lat": 14.51635,
    "lng": 43.32446
  },
  {
    "id": 69559,
    "name": "Yarīm",
    "lat": 14.29804,
    "lng": 44.37795
  },
  {
    "id": 71273,
    "name": "Saḩar",
    "lat": 15.31637,
    "lng": 44.3088
  },
  {
    "id": 73560,
    "name": "Laḩij",
    "lat": 13.05667,
    "lng": 44.88194
  },
  {
    "id": 69426,
    "name": "Zinjibār",
    "lat": 13.12871,
    "lng": 45.38073
  },
  {
    "id": 79455,
    "name": "Al Ḩazm",
    "lat": 16.16406,
    "lng": 44.77692
  },
  {
    "id": 78751,
    "name": "Mocha",
    "lat": 13.31814,
    "lng": 43.24991
  },
  {
    "id": 72968,
    "name": "Ma'rib",
    "lat": 15.46253,
    "lng": 45.32581
  }
]