[
  {
    "id": 292223,
    "name": "Dubai",
    "lat": 25.07725,
    "lng": 55.30927
  },
  {
    "id": 292968,
    "name": "Abu Dhabi",
    "lat": 24.45118,
    "lng": 54.39696
  },
  {
    "id": 292672,
    "name": "Sharjah",
    "lat": 25.3342,
    "lng": 55.41221
  },
  {
    "id": 292913,
    "name": "Al Ain City",
    "lat": 24.19167,
    "lng": 55.76056
  },
  {
    "id": 292932,
    "name": "Ajman City",
    "lat": 25.40177,
    "lng": 55.47878
  },
  {
    "id": 291074,
    "name": "Ras Al Khaimah City",
    "lat": 25.78953,
    "lng": 55.9432
  },
  {
    "id": 12042053,
    "name": "Musaffah",
    "lat": 24.35893,
    "lng": 54.48267
  },
  {
    "id": 11524601,
    "name": "Jebel Ali",
    "lat": 25.00255,
    "lng": 55.10811
  },
  {
    "id": 292878,
    "name": "Al Fujairah City",
    "lat": 25.11641,
    "lng": 56.34141
  },
  {
    "id": 290503,
    "name": "Warīsān",
    "lat": 25.16744,
    "lng": 55.40708
  },
  {
    "id": 8057551,
    "name": "Khalifah A City",
    "lat": 24.42588,
    "lng": 54.605
  },
  {
    "id": 13118447,
    "name": "Mohammed Bin Zayed City",
    "lat": 24.34794,
    "lng": 54.55368
  },
  {
    "id": 12047417,
    "name": "Reef Al Fujairah City",
    "lat": 25.14479,
    "lng": 56.24764
  },
  {
    "id": 12042052,
    "name": "Bani Yas City",
    "lat": 24.30978,
    "lng": 54.62944
  },
  {
    "id": 291580,
    "name": "Zayed City",
    "lat": 23.65416,
    "lng": 53.70522
  },
  {
    "id": 12047416,
    "name": "Al Shamkhah City",
    "lat": 24.39268,
    "lng": 54.70779
  },
  {
    "id": 290594,
    "name": "Umm Al Quwain City",
    "lat": 25.56473,
    "lng": 55.55517
  },
  {
    "id": 13118439,
    "name": "Lahbab",
    "lat": 25.03763,
    "lng": 55.59135
  },
  {
    "id": 13118438,
    "name": "Al Sajaah",
    "lat": 25.31532,
    "lng": 55.63211
  },
  {
    "id": 290680,
    "name": "Ţarīf Kalbā",
    "lat": 25.0695,
    "lng": 56.33115
  },
  {
    "id": 291696,
    "name": "Khawr Fakkān",
    "lat": 25.33132,
    "lng": 56.34199
  },
  {
    "id": 291763,
    "name": "Kalbā",
    "lat": 25.0513,
    "lng": 56.35422
  },
  {
    "id": 292231,
    "name": "Dibba Al-Fujairah",
    "lat": 25.59246,
    "lng": 56.26176
  },
  {
    "id": 292239,
    "name": "Dibba Al-Hisn",
    "lat": 25.61955,
    "lng": 56.27291
  },
  {
    "id": 6691113,
    "name": "The Palm Jumeirah",
    "lat": 25.11607,
    "lng": 55.13506
  },
  {
    "id": 292688,
    "name": "Ar Ruways",
    "lat": 24.11028,
    "lng": 52.73056
  },
  {
    "id": 292953,
    "name": "Adh Dhayd",
    "lat": 25.28812,
    "lng": 55.88157
  },
  {
    "id": 13118437,
    "name": "Halwan",
    "lat": 25.34586,
    "lng": 55.42165
  },
  {
    "id": 7289825,
    "name": "Bur Dubai",
    "lat": 25.26038,
    "lng": 55.29891
  },
  {
    "id": 292862,
    "name": "Ḩattā",
    "lat": 24.80073,
    "lng": 56.12726
  }
]