[
  {
    "id": 2147714,
    "name": "Sydney",
    "lat": -33.86785,
    "lng": 151.20732
  },
  {
    "id": 2158177,
    "name": "Melbourne",
    "lat": -37.814,
    "lng": 144.96332
  },
  {
    "id": 2174003,
    "name": "Brisbane",
    "lat": -27.46794,
    "lng": 153.02809
  },
  {
    "id": 2063523,
    "name": "Perth",
    "lat": -31.95224,
    "lng": 115.8614
  },
  {
    "id": 2078025,
    "name": "Adelaide",
    "lat": -34.92866,
    "lng": 138.59863
  },
  {
    "id": 2165087,
    "name": "Gold Coast",
    "lat": -28.00029,
    "lng": 153.43088
  },
  {
    "id": 2155472,
    "name": "Newcastle",
    "lat": -32.92953,
    "lng": 151.7801
  },
  {
    "id": 2172517,
    "name": "Canberra",
    "lat": -35.28346,
    "lng": 149.12807
  },
  {
    "id": 10630449,
    "name": "Sunshine Coast",
    "lat": -26.65682,
    "lng": 153.07955
  },
  {
    "id": 7281838,
    "name": "Logan City",
    "lat": -27.63917,
    "lng": 153.10944
  },
  {
    "id": 2171507,
    "name": "Wollongong",
    "lat": -34.424,
    "lng": 150.89345
  },
  {
    "id": 2165798,
    "name": "Geelong",
    "lat": -38.14711,
    "lng": 144.36069
  },
  {
    "id": 2163355,
    "name": "Hobart",
    "lat": -42.87936,
    "lng": 147.32941
  },
  {
    "id": 2146142,
    "name": "Townsville",
    "lat": -19.26639,
    "lng": 146.80569
  },
  {
    "id": 2172797,
    "name": "Cairns",
    "lat": -16.92366,
    "lng": 145.76613
  },
  {
    "id": 2146268,
    "name": "Toowoomba",
    "lat": -27.56056,
    "lng": 151.95386
  },
  {
    "id": 2073124,
    "name": "Darwin",
    "lat": -12.46113,
    "lng": 130.84185
  },
  {
    "id": 2159220,
    "name": "Mackay",
    "lat": -21.15345,
    "lng": 149.16554
  },
  {
    "id": 2177091,
    "name": "Ballarat",
    "lat": -37.56622,
    "lng": 143.84957
  },
  {
    "id": 2176187,
    "name": "Bendigo",
    "lat": -36.75818,
    "lng": 144.28024
  },
  {
    "id": 2160517,
    "name": "Launceston",
    "lat": -41.43876,
    "lng": 147.13467
  },
  {
    "id": 2067119,
    "name": "Mandurah",
    "lat": -32.5269,
    "lng": 115.7217
  },
  {
    "id": 2159045,
    "name": "Maitland",
    "lat": -32.73308,
    "lng": 151.5574
  },
  {
    "id": 2145936,
    "name": "Tuggeranong Administrative District",
    "lat": -35.41647,
    "lng": 149.06954
  },
  {
    "id": 2151437,
    "name": "Rockhampton",
    "lat": -23.38032,
    "lng": 150.50595
  },
  {
    "id": 2075432,
    "name": "Bunbury",
    "lat": -33.32711,
    "lng": 115.64137
  },
  {
    "id": 7302628,
    "name": "Adelaide Hills",
    "lat": -34.91119,
    "lng": 138.70735
  },
  {
    "id": 6354957,
    "name": "Hervey Bay",
    "lat": -25.28762,
    "lng": 152.76936
  },
  {
    "id": 2149645,
    "name": "Shepparton",
    "lat": -36.38047,
    "lng": 145.39867
  },
  {
    "id": 2173323,
    "name": "Bundaberg",
    "lat": -24.86621,
    "lng": 152.3479
  },
  {
    "id": 2152659,
    "name": "Port Macquarie",
    "lat": -31.43084,
    "lng": 152.90894
  },
  {
    "id": 2165478,
    "name": "Gladstone",
    "lat": -23.84852,
    "lng": 151.25775
  },
  {
    "id": 2147497,
    "name": "Tamworth",
    "lat": -31.09048,
    "lng": 150.92905
  },
  {
    "id": 2168305,
    "name": "Dubbo",
    "lat": -32.24295,
    "lng": 148.60484
  },
  {
    "id": 2070998,
    "name": "Geraldton",
    "lat": -28.77897,
    "lng": 114.61459
  },
  {
    "id": 2154219,
    "name": "Orange",
    "lat": -33.28397,
    "lng": 149.10018
  },
  {
    "id": 8015209,
    "name": "St Albans",
    "lat": -37.74496,
    "lng": 144.80049
  },
  {
    "id": 2176632,
    "name": "Bathurst",
    "lat": -33.41665,
    "lng": 149.5806
  },
  {
    "id": 2077963,
    "name": "Albany",
    "lat": -35.02692,
    "lng": 117.88369
  },
  {
    "id": 2166143,
    "name": "Frankston East",
    "lat": -38.13333,
    "lng": 145.13333
  },
  {
    "id": 2157698,
    "name": "Mildura",
    "lat": -34.18551,
    "lng": 142.16251
  },
  {
    "id": 2068079,
    "name": "Kwinana",
    "lat": -32.23013,
    "lng": 115.78128
  },
  {
    "id": 2144528,
    "name": "Warrnambool",
    "lat": -38.38176,
    "lng": 142.48799
  },
  {
    "id": 2159851,
    "name": "Liverpool",
    "lat": -33.91938,
    "lng": 150.92588
  },
  {
    "id": 7281840,
    "name": "Parramatta",
    "lat": -33.8178,
    "lng": 151.00348
  },
  {
    "id": 2171085,
    "name": "Coffs Harbour",
    "lat": -30.29626,
    "lng": 153.11351
  },
  {
    "id": 2077895,
    "name": "Alice Springs",
    "lat": -23.69748,
    "lng": 133.88362
  },
  {
    "id": 2156643,
    "name": "Mount Gambier",
    "lat": -37.8318,
    "lng": 140.77919
  },
  {
    "id": 6301965,
    "name": "Palmerston",
    "lat": -12.48602,
    "lng": 130.9833
  },
  {
    "id": 2146108,
    "name": "Traralgon",
    "lat": -38.19528,
    "lng": 146.5415
  },
  {
    "id": 2177671,
    "name": "Armidale",
    "lat": -30.50123,
    "lng": 151.66553
  },
  {
    "id": 2164837,
    "name": "Goulburn",
    "lat": -34.75155,
    "lng": 149.72086
  },
  {
    "id": 2163137,
    "name": "Hornsby",
    "lat": -33.70244,
    "lng": 151.09931
  },
  {
    "id": 2075265,
    "name": "Busselton",
    "lat": -33.65249,
    "lng": 115.3455
  },
  {
    "id": 7932629,
    "name": "Balwyn North",
    "lat": -37.79086,
    "lng": 145.09386
  },
  {
    "id": 2071059,
    "name": "Gawler",
    "lat": -34.60251,
    "lng": 138.74902
  },
  {
    "id": 2173125,
    "name": "Burnie",
    "lat": -41.05584,
    "lng": 145.90375
  },
  {
    "id": 2144764,
    "name": "Wangaratta",
    "lat": -36.35846,
    "lng": 146.32056
  },
  {
    "id": 2143285,
    "name": "Wodonga",
    "lat": -36.12179,
    "lng": 146.88809
  },
  {
    "id": 2065594,
    "name": "Mount Isa",
    "lat": -20.72523,
    "lng": 139.49727
  },
  {
    "id": 2155787,
    "name": "Narangba",
    "lat": -27.20338,
    "lng": 152.95923
  },
  {
    "id": 2164422,
    "name": "Griffith",
    "lat": -34.28853,
    "lng": 146.05093
  },
  {
    "id": 2173911,
    "name": "Broken Hill",
    "lat": -31.9652,
    "lng": 141.4512
  },
  {
    "id": 2172434,
    "name": "Capalaba",
    "lat": -27.54333,
    "lng": 153.20287
  },
  {
    "id": 2147381,
    "name": "Taree",
    "lat": -31.91099,
    "lng": 152.45387
  },
  {
    "id": 2158562,
    "name": "Maryborough",
    "lat": -25.54073,
    "lng": 152.70493
  },
  {
    "id": 2177233,
    "name": "Bairnsdale",
    "lat": -37.82289,
    "lng": 147.61041
  },
  {
    "id": 2144502,
    "name": "Warwick",
    "lat": -28.21901,
    "lng": 152.03438
  },
  {
    "id": 2062338,
    "name": "Rockingham",
    "lat": -32.27682,
    "lng": 115.72978
  },
  {
    "id": 2144604,
    "name": "Warragul",
    "lat": -38.15912,
    "lng": 145.93118
  },
  {
    "id": 2171845,
    "name": "Cessnock",
    "lat": -32.83211,
    "lng": 151.35623
  }
]