[
  {
    "id": 1185241,
    "name": "Dhaka",
    "lat": 23.7104,
    "lng": 90.40744
  },
  {
    "id": 1205733,
    "name": "Chattogram",
    "lat": 22.3384,
    "lng": 91.83168
  },
  {
    "id": 1200109,
    "name": "Gazipur",
    "lat": 23.99844,
    "lng": 90.42234
  },
  {
    "id": 1336135,
    "name": "Khulna",
    "lat": 22.80979,
    "lng": 89.56439
  },
  {
    "id": 1185188,
    "name": "Rangpur",
    "lat": 25.74664,
    "lng": 89.25166
  },
  {
    "id": 1185186,
    "name": "Comilla",
    "lat": 23.46186,
    "lng": 91.18503
  },
  {
    "id": 1185128,
    "name": "Rajshahi",
    "lat": 24.374,
    "lng": 88.60114
  },
  {
    "id": 1194041,
    "name": "Mohāmmadpur",
    "lat": 24.89843,
    "lng": 88.52844
  },
  {
    "id": 1462674,
    "name": "Hāthazāri",
    "lat": 22.50515,
    "lng": 91.81339
  },
  {
    "id": 1185270,
    "name": "Bāndarban",
    "lat": 22.19534,
    "lng": 92.21946
  },
  {
    "id": 1185107,
    "name": "Shibganj",
    "lat": 25.00146,
    "lng": 89.32266
  },
  {
    "id": 7483813,
    "name": "Natore",
    "lat": 24.41112,
    "lng": 88.98673
  },
  {
    "id": 1199503,
    "name": "Kāfrul",
    "lat": 23.78822,
    "lng": 90.37359
  },
  {
    "id": 1185098,
    "name": "Tungi",
    "lat": 23.89154,
    "lng": 90.40232
  },
  {
    "id": 1209106,
    "name": "Bhātāra",
    "lat": 23.8,
    "lng": 90.45
  },
  {
    "id": 1349452,
    "name": "Savar",
    "lat": 23.84858,
    "lng": 90.25002
  },
  {
    "id": 1185117,
    "name": "Narsingdi",
    "lat": 23.92298,
    "lng": 90.71768
  },
  {
    "id": 1193745,
    "name": "Nagar Naluākot",
    "lat": 24.15608,
    "lng": 90.7728
  },
  {
    "id": 1185281,
    "name": "Bagerhat",
    "lat": 22.65657,
    "lng": 89.79123
  },
  {
    "id": 1336142,
    "name": "Brāhmanbāria",
    "lat": 23.97464,
    "lng": 91.11228
  },
  {
    "id": 1336134,
    "name": "Cox’s Bāzār",
    "lat": 21.43973,
    "lng": 92.00955
  },
  {
    "id": 1336140,
    "name": "Jessore",
    "lat": 23.16971,
    "lng": 89.21371
  },
  {
    "id": 1185159,
    "name": "Nāgarpur",
    "lat": 24.05783,
    "lng": 89.87696
  },
  {
    "id": 1185099,
    "name": "Sylhet",
    "lat": 24.89904,
    "lng": 91.87198
  },
  {
    "id": 1185162,
    "name": "Mymensingh",
    "lat": 24.75636,
    "lng": 90.40646
  },
  {
    "id": 1185155,
    "name": "Nārāyanganj",
    "lat": 23.61352,
    "lng": 90.50298
  },
  {
    "id": 1337233,
    "name": "Bogra",
    "lat": 24.85098,
    "lng": 89.37108
  },
  {
    "id": 1203891,
    "name": "Dinajpur",
    "lat": 25.62745,
    "lng": 88.63779
  },
  {
    "id": 8299875,
    "name": "Karnaphuli",
    "lat": 22.69056,
    "lng": 92.23472
  },
  {
    "id": 1207337,
    "name": "Chāndpur",
    "lat": 23.22714,
    "lng": 90.65433
  },
  {
    "id": 1336137,
    "name": "Barishal",
    "lat": 22.70497,
    "lng": 90.37013
  },
  {
    "id": 6545349,
    "name": "Saidpur",
    "lat": 25.77769,
    "lng": 88.89169
  },
  {
    "id": 1192366,
    "name": "Pār Naogaon",
    "lat": 24.80418,
    "lng": 88.94875
  },
  {
    "id": 1336143,
    "name": "Pābna",
    "lat": 24.00644,
    "lng": 89.2372
  },
  {
    "id": 9827976,
    "name": "Paltan",
    "lat": 23.73625,
    "lng": 90.41426
  },
  {
    "id": 1212405,
    "name": "Āshuganj City",
    "lat": 24.04016,
    "lng": 91.0117
  },
  {
    "id": 1336144,
    "name": "Tāngāil",
    "lat": 24.24984,
    "lng": 89.91655
  },
  {
    "id": 1185106,
    "name": "Jamālpur",
    "lat": 24.91965,
    "lng": 89.94812
  },
  {
    "id": 7483743,
    "name": "Puthia",
    "lat": 24.36537,
    "lng": 88.83431
  },
  {
    "id": 1337240,
    "name": "Nawābganj",
    "lat": 24.59025,
    "lng": 88.27444
  },
  {
    "id": 1185191,
    "name": "Kushtia",
    "lat": 23.9028,
    "lng": 89.11943
  },
  {
    "id": 1195434,
    "name": "Maijdi",
    "lat": 22.86667,
    "lng": 91.1
  },
  {
    "id": 1187530,
    "name": "Sonārgaon",
    "lat": 23.65,
    "lng": 90.61667
  },
  {
    "id": 1185111,
    "name": "Sātkhira",
    "lat": 22.70817,
    "lng": 89.07185
  },
  {
    "id": 1185115,
    "name": "Sirajganj",
    "lat": 24.45771,
    "lng": 89.70802
  },
  {
    "id": 1203344,
    "name": "Farīdpur",
    "lat": 23.60612,
    "lng": 89.84064
  },
  {
    "id": 1337248,
    "name": "Sherpur",
    "lat": 25.01881,
    "lng": 90.01751
  },
  {
    "id": 1336139,
    "name": "Rāngāmāti",
    "lat": 22.64317,
    "lng": 92.19186
  },
  {
    "id": 1185263,
    "name": "Bhairab Bāzār",
    "lat": 24.0524,
    "lng": 90.9764
  },
  {
    "id": 1185121,
    "name": "Shāhzādpur",
    "lat": 24.17687,
    "lng": 89.5988
  },
  {
    "id": 1336136,
    "name": "Bhola",
    "lat": 22.68759,
    "lng": 90.64403
  },
  {
    "id": 7701354,
    "name": "Azimpur",
    "lat": 23.7298,
    "lng": 90.3854
  },
  {
    "id": 1337249,
    "name": "Kishorganj",
    "lat": 24.43944,
    "lng": 90.78291
  },
  {
    "id": 6414184,
    "name": "Bibir Hat",
    "lat": 22.68347,
    "lng": 91.79058
  },
  {
    "id": 1185209,
    "name": "Habiganj",
    "lat": 24.38044,
    "lng": 91.41299
  },
  {
    "id": 1337245,
    "name": "Madaripur",
    "lat": 23.17097,
    "lng": 90.20935
  },
  {
    "id": 1185224,
    "name": "Feni",
    "lat": 23.0144,
    "lng": 91.3966
  },
  {
    "id": 1185183,
    "name": "Lākshām",
    "lat": 23.24018,
    "lng": 91.12143
  },
  {
    "id": 1185207,
    "name": "Ishwardi",
    "lat": 24.12858,
    "lng": 89.06573
  },
  {
    "id": 1188569,
    "name": "Sarishābāri",
    "lat": 24.75127,
    "lng": 89.83126
  },
  {
    "id": 1185116,
    "name": "Netrakona",
    "lat": 24.88352,
    "lng": 90.72898
  },
  {
    "id": 1185105,
    "name": "Sunāmganj",
    "lat": 25.06889,
    "lng": 91.40243
  },
  {
    "id": 1185206,
    "name": "Joypur Hāt",
    "lat": 25.10147,
    "lng": 89.02734
  },
  {
    "id": 1348441,
    "name": "Mānikganj",
    "lat": 23.85768,
    "lng": 90.00957
  },
  {
    "id": 1185092,
    "name": "Thākurgaon",
    "lat": 26.03097,
    "lng": 88.46989
  },
  {
    "id": 1191368,
    "name": "Pālang",
    "lat": 23.21824,
    "lng": 90.35076
  },
  {
    "id": 1185181,
    "name": "Lalmonirhat",
    "lat": 25.91719,
    "lng": 89.44595
  },
  {
    "id": 7646711,
    "name": "Patuakhali",
    "lat": 22.36833,
    "lng": 90.3458
  },
  {
    "id": 1185236,
    "name": "Rāipur",
    "lat": 23.0391,
    "lng": 90.76808
  },
  {
    "id": 1185920,
    "name": "Tungipāra",
    "lat": 22.89983,
    "lng": 89.90326
  },
  {
    "id": 1196292,
    "name": "Lakshmīpur",
    "lat": 22.9443,
    "lng": 90.83005
  },
  {
    "id": 1185166,
    "name": "Maulavi Bāzār",
    "lat": 24.48888,
    "lng": 91.77075
  },
  {
    "id": 1185127,
    "name": "Rāmganj",
    "lat": 23.1006,
    "lng": 90.84989
  },
  {
    "id": 1185293,
    "name": "Narail",
    "lat": 23.15509,
    "lng": 89.49515
  },
  {
    "id": 1185138,
    "name": "Pirojpur",
    "lat": 22.57965,
    "lng": 89.97521
  },
  {
    "id": 1185120,
    "name": "Sandwīp",
    "lat": 22.51409,
    "lng": 91.45491
  },
  {
    "id": 1336133,
    "name": "Sātkania",
    "lat": 22.07639,
    "lng": 92.04955
  },
  {
    "id": 1185148,
    "name": "Patiya",
    "lat": 22.29543,
    "lng": 91.979
  },
  {
    "id": 1202120,
    "name": "Gopālganj",
    "lat": 23.22348,
    "lng": 90.06041
  },
  {
    "id": 1185252,
    "name": "Khagrachhari",
    "lat": 23.10787,
    "lng": 91.97007
  },
  {
    "id": 1185247,
    "name": "Chilmāri",
    "lat": 25.55613,
    "lng": 89.67097
  },
  {
    "id": 1185160,
    "name": "Nageswari",
    "lat": 25.96817,
    "lng": 89.69153
  },
  {
    "id": 1185141,
    "name": "Panchagarh",
    "lat": 26.33338,
    "lng": 88.55777
  },
  {
    "id": 1205481,
    "name": "Uttar Char Fasson",
    "lat": 22.22647,
    "lng": 90.71275
  },
  {
    "id": 1185149,
    "name": "Parbatipur",
    "lat": 25.66369,
    "lng": 88.93093
  },
  {
    "id": 7926419,
    "name": "Paotana Hat",
    "lat": 25.66473,
    "lng": 89.5026
  },
  {
    "id": 1210565,
    "name": "Burhānuddin",
    "lat": 22.49518,
    "lng": 90.72391
  },
  {
    "id": 1185199,
    "name": "Kālīganj",
    "lat": 23.40964,
    "lng": 89.13801
  },
  {
    "id": 1185100,
    "name": "Dohār",
    "lat": 23.59311,
    "lng": 90.14251
  },
  {
    "id": 1201753,
    "name": "Hājīganj",
    "lat": 23.25191,
    "lng": 90.85508
  },
  {
    "id": 8740356,
    "name": "Bhanga",
    "lat": 23.39194,
    "lng": 89.98389
  },
  {
    "id": 1185260,
    "name": "Bhātpāra Abhaynagar",
    "lat": 23.01472,
    "lng": 89.43936
  },
  {
    "id": 1185251,
    "name": "Lālmohan",
    "lat": 22.33774,
    "lng": 90.73708
  },
  {
    "id": 1185204,
    "name": "Jhingergācha",
    "lat": 23.11134,
    "lng": 89.09061
  },
  {
    "id": 1185165,
    "name": "Mirzāpur",
    "lat": 24.10287,
    "lng": 90.09841
  },
  {
    "id": 1189056,
    "name": "Sakhipur",
    "lat": 24.31988,
    "lng": 90.16943
  },
  {
    "id": 1185095,
    "name": "Teknāf",
    "lat": 20.85829,
    "lng": 92.29773
  },
  {
    "id": 1185210,
    "name": "Gaurnadi",
    "lat": 22.97372,
    "lng": 90.22376
  },
  {
    "id": 1185272,
    "name": "Kālia",
    "lat": 23.043,
    "lng": 89.63094
  },
  {
    "id": 1203878,
    "name": "Dohazāri",
    "lat": 22.16385,
    "lng": 92.07333
  },
  {
    "id": 1209562,
    "name": "Bera",
    "lat": 24.07821,
    "lng": 89.63262
  },
  {
    "id": 1185171,
    "name": "Mehendiganj",
    "lat": 22.82257,
    "lng": 90.52859
  },
  {
    "id": 1185249,
    "name": "Chhāgalnāiya",
    "lat": 23.02475,
    "lng": 91.51091
  },
  {
    "id": 1185254,
    "name": "Chhātak",
    "lat": 25.03852,
    "lng": 91.66958
  },
  {
    "id": 1185156,
    "name": "Nālchiti",
    "lat": 22.63696,
    "lng": 90.27195
  },
  {
    "id": 1185262,
    "name": "Bherāmāra",
    "lat": 24.02452,
    "lng": 88.99234
  },
  {
    "id": 1191139,
    "name": "Phultala",
    "lat": 22.71673,
    "lng": 89.51194
  },
  {
    "id": 1203762,
    "name": "Dukuria",
    "lat": 23.71095,
    "lng": 90.37414
  },
  {
    "id": 1185274,
    "name": "Baniachang",
    "lat": 24.51863,
    "lng": 91.35787
  },
  {
    "id": 1185239,
    "name": "Sarankhola",
    "lat": 22.31006,
    "lng": 89.79113
  },
  {
    "id": 1185108,
    "name": "Shibganj",
    "lat": 24.68501,
    "lng": 88.15638
  },
  {
    "id": 1337239,
    "name": "Pīrgaaj",
    "lat": 25.85587,
    "lng": 88.35943
  },
  {
    "id": 1185276,
    "name": "Bājitpur",
    "lat": 24.21623,
    "lng": 90.95002
  },
  {
    "id": 1207047,
    "name": "Char Bhadrāsan",
    "lat": 23.30916,
    "lng": 90.22698
  },
  {
    "id": 1194575,
    "name": "Mātuail",
    "lat": 23.71211,
    "lng": 90.45983
  },
  {
    "id": 1185218,
    "name": "Gafargaon",
    "lat": 24.432,
    "lng": 90.5585
  },
  {
    "id": 1185283,
    "name": "Badarganj",
    "lat": 25.67419,
    "lng": 89.05377
  },
  {
    "id": 1193823,
    "name": "Nabīnagar",
    "lat": 23.88791,
    "lng": 90.96792
  },
  {
    "id": 1185167,
    "name": "Morrelgonj",
    "lat": 22.45566,
    "lng": 89.85584
  },
  {
    "id": 1197895,
    "name": "Kesabpur",
    "lat": 22.90725,
    "lng": 89.21954
  },
  {
    "id": 1477498,
    "name": "Bhāndāria",
    "lat": 22.48898,
    "lng": 90.06273
  },
  {
    "id": 1185173,
    "name": "Mathba",
    "lat": 22.28616,
    "lng": 89.95883
  },
  {
    "id": 1188204,
    "name": "Shāhbāzpur Town",
    "lat": 24.05296,
    "lng": 91.17193
  },
  {
    "id": 1208011,
    "name": "Burirchar",
    "lat": 22.13991,
    "lng": 90.20636
  },
  {
    "id": 1189638,
    "name": "Raojān",
    "lat": 22.53511,
    "lng": 91.91919
  },
  {
    "id": 1462681,
    "name": "Manikchari",
    "lat": 22.83957,
    "lng": 91.84128
  },
  {
    "id": 1185164,
    "name": "Muktāgācha",
    "lat": 24.76484,
    "lng": 90.25698
  },
  {
    "id": 7475889,
    "name": "Taluker Char Doani",
    "lat": 22.14002,
    "lng": 89.94137
  },
  {
    "id": 7646709,
    "name": "Srimangal",
    "lat": 24.30652,
    "lng": 91.72955
  },
  {
    "id": 1212221,
    "name": "Ayla Patakata",
    "lat": 22.21726,
    "lng": 90.20959
  },
  {
    "id": 7476237,
    "name": "Natona",
    "lat": 22.05128,
    "lng": 90.03197
  },
  {
    "id": 1207144,
    "name": "Charāmaddi",
    "lat": 22.642,
    "lng": 90.42598
  }
]