[
  {
    "id": 425378,
    "name": "Bujumbura",
    "lat": -3.38193,
    "lng": 29.36142
  },
  {
    "id": 426272,
    "name": "Gitega",
    "lat": -3.42708,
    "lng": 29.92463
  },
  {
    "id": 430569,
    "name": "Ngozi",
    "lat": -2.9075,
    "lng": 29.8306
  },
  {
    "id": 423549,
    "name": "Rumonge",
    "lat": -3.9736,
    "lng": 29.4386
  },
  {
    "id": 430021,
    "name": "Cibitoke",
    "lat": -2.8869,
    "lng": 29.1248
  },
  {
    "id": 430952,
    "name": "Kayanza",
    "lat": -2.9221,
    "lng": 29.6293
  },
  {
    "id": 428515,
    "name": "Bubanza",
    "lat": -3.0804,
    "lng": 29.391
  },
  {
    "id": 421930,
    "name": "Vyanda",
    "lat": -4.1024,
    "lng": 29.606
  },
  {
    "id": 426423,
    "name": "Zanandore",
    "lat": -3.2548,
    "lng": 30.11404
  },
  {
    "id": 425309,
    "name": "Gatumba",
    "lat": -3.33333,
    "lng": 29.25
  },
  {
    "id": 428219,
    "name": "Karuzi",
    "lat": -3.10139,
    "lng": 30.16278
  },
  {
    "id": 432456,
    "name": "Kirundo",
    "lat": -2.5845,
    "lng": 30.0959
  }
]