[
  {
    "id": 2314302,
    "name": "Kinshasa",
    "lat": -4.32758,
    "lng": 15.31357
  },
  {
    "id": 922704,
    "name": "Lubumbashi",
    "lat": -11.66089,
    "lng": 27.47938
  },
  {
    "id": 209228,
    "name": "Mbuji-Mayi",
    "lat": -6.13603,
    "lng": 23.58979
  },
  {
    "id": 214481,
    "name": "Kananga",
    "lat": -5.89624,
    "lng": 22.41659
  },
  {
    "id": 212730,
    "name": "Kisangani",
    "lat": 0.51528,
    "lng": 25.19099
  },
  {
    "id": 217831,
    "name": "Bukavu",
    "lat": -2.49077,
    "lng": 28.84281
  },
  {
    "id": 922773,
    "name": "Kolwezi",
    "lat": -10.71484,
    "lng": 25.46674
  },
  {
    "id": 922741,
    "name": "Likasi",
    "lat": -10.98303,
    "lng": 26.7384
  },
  {
    "id": 204953,
    "name": "Tshikapa",
    "lat": -6.41621,
    "lng": 20.79995
  },
  {
    "id": 2314705,
    "name": "Kikwit",
    "lat": -5.04098,
    "lng": 18.81619
  },
  {
    "id": 2593460,
    "name": "Masina",
    "lat": -4.38361,
    "lng": 15.39139
  },
  {
    "id": 2312895,
    "name": "Mbandaka",
    "lat": 0.04865,
    "lng": 18.26034
  },
  {
    "id": 216281,
    "name": "Goma",
    "lat": -1.67409,
    "lng": 29.22845
  },
  {
    "id": 2313002,
    "name": "Matadi",
    "lat": -5.83861,
    "lng": 13.46306
  },
  {
    "id": 204405,
    "name": "Uvira",
    "lat": -3.39534,
    "lng": 29.13779
  },
  {
    "id": 217695,
    "name": "Bunia",
    "lat": 1.55941,
    "lng": 30.25224
  },
  {
    "id": 2316702,
    "name": "Boma",
    "lat": -5.85098,
    "lng": 13.05364
  },
  {
    "id": 8461573,
    "name": "Mwene",
    "lat": -9.81697,
    "lng": 22.87023
  },
  {
    "id": 217562,
    "name": "Butembo",
    "lat": 0.14164,
    "lng": 29.29117
  },
  {
    "id": 215771,
    "name": "Isiro",
    "lat": 2.77391,
    "lng": 27.61603
  },
  {
    "id": 212902,
    "name": "Kindu",
    "lat": -2.94373,
    "lng": 25.92237
  },
  {
    "id": 215527,
    "name": "Kabinda",
    "lat": -6.13791,
    "lng": 24.48179
  },
  {
    "id": 216449,
    "name": "Gandajika",
    "lat": -6.74504,
    "lng": 23.95328
  },
  {
    "id": 2317397,
    "name": "Bandundu Province",
    "lat": -3.31687,
    "lng": 17.38063
  },
  {
    "id": 214614,
    "name": "Kamina",
    "lat": -8.73508,
    "lng": 24.99798
  },
  {
    "id": 2315728,
    "name": "Gemena",
    "lat": 3.25651,
    "lng": 19.77234
  },
  {
    "id": 207570,
    "name": "Mwene-Ditu",
    "lat": -7.00906,
    "lng": 23.45278
  },
  {
    "id": 922806,
    "name": "Kipushi",
    "lat": -11.76097,
    "lng": 27.25135
  },
  {
    "id": 214974,
    "name": "Kalemie",
    "lat": -5.94749,
    "lng": 29.19471
  },
  {
    "id": 217745,
    "name": "Bumba",
    "lat": 2.18771,
    "lng": 22.46827
  },
  {
    "id": 2312888,
    "name": "Mbanza-Ngungu",
    "lat": -5.25837,
    "lng": 14.85838
  },
  {
    "id": 219057,
    "name": "Beni",
    "lat": 0.49113,
    "lng": 29.47306
  },
  {
    "id": 2312393,
    "name": "Moanda",
    "lat": -5.92753,
    "lng": 12.37148
  },
  {
    "id": 211734,
    "name": "Lisala",
    "lat": 2.15127,
    "lng": 21.51672
  },
  {
    "id": 215976,
    "name": "Ilebo",
    "lat": -4.33111,
    "lng": 20.58638
  },
  {
    "id": 922083,
    "name": "Tshilenge",
    "lat": -10.96667,
    "lng": 22.9
  },
  {
    "id": 2315419,
    "name": "Inkisi",
    "lat": -5.13122,
    "lng": 15.0541
  },
  {
    "id": 217834,
    "name": "Bukama",
    "lat": -9.20443,
    "lng": 25.85475
  },
  {
    "id": 220075,
    "name": "Bakwa",
    "lat": 4.1263,
    "lng": 27.39527
  },
  {
    "id": 923058,
    "name": "Kambove",
    "lat": -10.87352,
    "lng": 26.59746
  },
  {
    "id": 218855,
    "name": "Binga",
    "lat": 2.37351,
    "lng": 20.49769
  },
  {
    "id": 211647,
    "name": "Lodja",
    "lat": -3.52105,
    "lng": 23.6005
  },
  {
    "id": 213666,
    "name": "Katwa",
    "lat": 0.08928,
    "lng": 29.30858
  },
  {
    "id": 208182,
    "name": "Mulongo",
    "lat": -7.83486,
    "lng": 26.99852
  },
  {
    "id": 2315579,
    "name": "Idiofa",
    "lat": -4.96589,
    "lng": 19.59151
  },
  {
    "id": 212360,
    "name": "Kongolo",
    "lat": -5.38532,
    "lng": 27.00029
  },
  {
    "id": 206047,
    "name": "Rutshuru",
    "lat": -1.18666,
    "lng": 29.44669
  },
  {
    "id": 209598,
    "name": "Manono",
    "lat": -7.29862,
    "lng": 27.39894
  },
  {
    "id": 220121,
    "name": "Babamba",
    "lat": 0.18333,
    "lng": 27.48333
  },
  {
    "id": 213940,
    "name": "Kasongo",
    "lat": -4.42741,
    "lng": 26.66656
  },
  {
    "id": 2316259,
    "name": "Bulungu",
    "lat": -4.54437,
    "lng": 18.60364
  },
  {
    "id": 207596,
    "name": "Mweka",
    "lat": -4.85187,
    "lng": 21.5595
  },
  {
    "id": 215668,
    "name": "Kabalo",
    "lat": -6.05255,
    "lng": 26.9143
  },
  {
    "id": 209000,
    "name": "Baudhuinville",
    "lat": -7.08408,
    "lng": 29.73681
  },
  {
    "id": 217570,
    "name": "Buta",
    "lat": 2.78582,
    "lng": 24.72997
  },
  {
    "id": 214390,
    "name": "Kanyama",
    "lat": -7.51668,
    "lng": 24.17404
  },
  {
    "id": 209161,
    "name": "Miabi",
    "lat": -6.22149,
    "lng": 23.39254
  },
  {
    "id": 2316770,
    "name": "Bolenge",
    "lat": 0.0,
    "lng": 18.21667
  },
  {
    "id": 2314523,
    "name": "Kimpese",
    "lat": -5.5615,
    "lng": 14.43159
  },
  {
    "id": 219414,
    "name": "Basoko",
    "lat": 1.23909,
    "lng": 23.61598
  },
  {
    "id": 8329635,
    "name": "Hyosha",
    "lat": 0.69781,
    "lng": 29.51863
  },
  {
    "id": 216404,
    "name": "Gbadolite",
    "lat": 4.279,
    "lng": 21.00284
  },
  {
    "id": 214925,
    "name": "Kalima",
    "lat": -5.4854,
    "lng": 28.21601
  },
  {
    "id": 2315417,
    "name": "Inongo",
    "lat": -1.9275,
    "lng": 18.2881
  },
  {
    "id": 9946557,
    "name": "Kituku",
    "lat": -7.58157,
    "lng": 30.20604
  },
  {
    "id": 2311127,
    "name": "Tshela",
    "lat": -4.99707,
    "lng": 12.9484
  },
  {
    "id": 2313084,
    "name": "Mangai",
    "lat": -4.02328,
    "lng": 19.53385
  },
  {
    "id": 2314935,
    "name": "Kenge",
    "lat": -5.76521,
    "lng": 13.65711
  },
  {
    "id": 206847,
    "name": "Nyunzu",
    "lat": -5.95609,
    "lng": 28.01649
  },
  {
    "id": 2311968,
    "name": "Nioki",
    "lat": -2.72037,
    "lng": 17.69001
  },
  {
    "id": 203717,
    "name": "Yangambi",
    "lat": 0.76755,
    "lng": 24.43973
  },
  {
    "id": 220448,
    "name": "Aketi",
    "lat": 2.73877,
    "lng": 23.78326
  },
  {
    "id": 2312249,
    "name": "Mushie",
    "lat": -3.01728,
    "lng": 16.92238
  },
  {
    "id": 2313874,
    "name": "Kutu",
    "lat": -2.7249,
    "lng": 18.14756
  },
  {
    "id": 2316091,
    "name": "Dibaya-Lubwe",
    "lat": -4.15869,
    "lng": 19.8619
  },
  {
    "id": 11905965,
    "name": "Mangina",
    "lat": 0.60419,
    "lng": 29.31004
  },
  {
    "id": 210399,
    "name": "Luputa",
    "lat": -7.16177,
    "lng": 23.70057
  },
  {
    "id": 212760,
    "name": "Kirumba",
    "lat": -1.09056,
    "lng": 29.2925
  },
  {
    "id": 213576,
    "name": "Kayna",
    "lat": -0.60927,
    "lng": 29.17249
  },
  {
    "id": 218680,
    "name": "Boende",
    "lat": -0.28163,
    "lng": 20.88053
  },
  {
    "id": 923186,
    "name": "Fungurume",
    "lat": -10.61771,
    "lng": 26.32107
  },
  {
    "id": 210379,
    "name": "Lusambo",
    "lat": -4.97503,
    "lng": 23.44391
  },
  {
    "id": 2310763,
    "name": "Zongo",
    "lat": 4.34283,
    "lng": 18.59447
  },
  {
    "id": 217637,
    "name": "Businga",
    "lat": 3.33863,
    "lng": 20.88577
  },
  {
    "id": 204283,
    "name": "Watsa",
    "lat": 3.03716,
    "lng": 29.53551
  },
  {
    "id": 2316748,
    "name": "Bolobo",
    "lat": -2.158,
    "lng": 16.23249
  },
  {
    "id": 210674,
    "name": "Lukula",
    "lat": -3.86881,
    "lng": 23.88348
  },
  {
    "id": 212795,
    "name": "Kipamba",
    "lat": -8.20591,
    "lng": 26.42036
  },
  {
    "id": 2313011,
    "name": "Masi-Manimba",
    "lat": -4.77549,
    "lng": 17.89095
  },
  {
    "id": 220223,
    "name": "Aru",
    "lat": 2.86218,
    "lng": 30.84138
  },
  {
    "id": 210939,
    "name": "Luebo",
    "lat": -5.35218,
    "lng": 21.42192
  },
  {
    "id": 2315057,
    "name": "Kasangulu",
    "lat": -4.5833,
    "lng": 15.16554
  },
  {
    "id": 208725,
    "name": "Mangbwalu",
    "lat": 1.94468,
    "lng": 30.03861
  },
  {
    "id": 214297,
    "name": "Kanyobagonga",
    "lat": -0.69978,
    "lng": 29.17181
  },
  {
    "id": 215558,
    "name": "Kabeya-Kamwanga",
    "lat": -5.9988,
    "lng": 23.25386
  },
  {
    "id": 922597,
    "name": "Malemba",
    "lat": -10.37812,
    "lng": 24.54516
  },
  {
    "id": 213851,
    "name": "Katanda",
    "lat": -0.82535,
    "lng": 29.36451
  },
  {
    "id": 211069,
    "name": "Lubero",
    "lat": -0.15837,
    "lng": 29.23859
  },
  {
    "id": 217100,
    "name": "Djugu",
    "lat": 1.91932,
    "lng": 30.50257
  },
  {
    "id": 2317285,
    "name": "Basankusu",
    "lat": 1.22095,
    "lng": 19.80205
  },
  {
    "id": 2315961,
    "name": "Dungu",
    "lat": -3.62437,
    "lng": 18.84943
  },
  {
    "id": 206113,
    "name": "Pweto",
    "lat": -8.46604,
    "lng": 28.90079
  },
  {
    "id": 211098,
    "name": "Lubao",
    "lat": -5.38771,
    "lng": 25.74885
  },
  {
    "id": 2313762,
    "name": "Libenge",
    "lat": 3.65332,
    "lng": 18.63566
  },
  {
    "id": 215605,
    "name": "Kabare",
    "lat": -2.49682,
    "lng": 28.79081
  },
  {
    "id": 214575,
    "name": "Kampene",
    "lat": -3.59678,
    "lng": 26.66715
  },
  {
    "id": 922559,
    "name": "Mokambo",
    "lat": -12.42765,
    "lng": 28.34684
  },
  {
    "id": 209856,
    "name": "Malemba-Nkulu",
    "lat": -8.04475,
    "lng": 26.79625
  },
  {
    "id": 217389,
    "name": "Demba",
    "lat": -5.49573,
    "lng": 22.26962
  },
  {
    "id": 2315026,
    "name": "Kasongo-Lunda",
    "lat": -6.47833,
    "lng": 16.81735
  },
  {
    "id": 218253,
    "name": "Bondo",
    "lat": 3.81461,
    "lng": 23.68665
  },
  {
    "id": 204318,
    "name": "Wamba",
    "lat": 2.14838,
    "lng": 27.99466
  },
  {
    "id": 205970,
    "name": "Sake",
    "lat": -1.57386,
    "lng": 29.04339
  },
  {
    "id": 2313371,
    "name": "Lukolela",
    "lat": -1.06046,
    "lng": 17.1821
  },
  {
    "id": 2316473,
    "name": "Bosobolo",
    "lat": 4.1898,
    "lng": 19.8833
  },
  {
    "id": 215814,
    "name": "Isamba",
    "lat": -4.03333,
    "lng": 21.98333
  },
  {
    "id": 218229,
    "name": "Bongandanga",
    "lat": 1.50695,
    "lng": 21.0726
  }
]