[
  {
    "id": 2232593,
    "name": "Douala",
    "lat": 4.04827,
    "lng": 9.70428
  },
  {
    "id": 2220957,
    "name": "Yaoundé",
    "lat": 3.86667,
    "lng": 11.51667
  },
  {
    "id": 2234974,
    "name": "Bamenda",
    "lat": 5.9597,
    "lng": 10.14597
  },
  {
    "id": 2235189,
    "name": "Bafoussam",
    "lat": 5.47775,
    "lng": 10.41759
  },
  {
    "id": 2228373,
    "name": "Maroua",
    "lat": 10.59095,
    "lng": 14.31593
  },
  {
    "id": 2224827,
    "name": "Ngaoundéré",
    "lat": 7.32765,
    "lng": 13.58472
  },
  {
    "id": 2229752,
    "name": "Kumba",
    "lat": 4.6363,
    "lng": 9.4469
  },
  {
    "id": 2223763,
    "name": "Nkongsamba",
    "lat": 4.9547,
    "lng": 9.9404
  },
  {
    "id": 2233410,
    "name": "Buea",
    "lat": 4.15342,
    "lng": 9.24231
  },
  {
    "id": 2229798,
    "name": "Kousséri",
    "lat": 12.07689,
    "lng": 15.03063
  },
  {
    "id": 2234359,
    "name": "Bertoua",
    "lat": 4.57728,
    "lng": 13.68459
  },
  {
    "id": 2229411,
    "name": "Limbe",
    "lat": 4.02356,
    "lng": 9.20607
  },
  {
    "id": 2231506,
    "name": "Foumban",
    "lat": 5.72662,
    "lng": 10.89865
  },
  {
    "id": 2229748,
    "name": "Kumbo",
    "lat": 6.2,
    "lng": 10.66667
  },
  {
    "id": 2232239,
    "name": "Edéa",
    "lat": 3.8,
    "lng": 10.13333
  },
  {
    "id": 2232283,
    "name": "Ébolowa",
    "lat": 2.9,
    "lng": 11.15
  },
  {
    "id": 2232444,
    "name": "Dschang",
    "lat": 5.44397,
    "lng": 10.05332
  },
  {
    "id": 2221504,
    "name": "Tiko",
    "lat": 4.075,
    "lng": 9.36005
  },
  {
    "id": 2229761,
    "name": "Kribi",
    "lat": 2.93725,
    "lng": 9.90765
  },
  {
    "id": 2228079,
    "name": "Mbalmayo",
    "lat": 3.51667,
    "lng": 11.5
  },
  {
    "id": 2230876,
    "name": "Guider",
    "lat": 9.9333,
    "lng": 13.94671
  },
  {
    "id": 2222230,
    "name": "Sangmélima",
    "lat": 2.93333,
    "lng": 11.98333
  },
  {
    "id": 2227230,
    "name": "Melong",
    "lat": 5.12181,
    "lng": 9.96143
  },
  {
    "id": 2231504,
    "name": "Foumbot",
    "lat": 5.50803,
    "lng": 10.6325
  },
  {
    "id": 2235194,
    "name": "Bafia",
    "lat": 4.75,
    "lng": 11.23333
  },
  {
    "id": 2227613,
    "name": "Mbouda",
    "lat": 5.62611,
    "lng": 10.25421
  },
  {
    "id": 2225728,
    "name": "Mutengene",
    "lat": 4.0913,
    "lng": 9.3144
  },
  {
    "id": 2225991,
    "name": "Mora",
    "lat": 11.04611,
    "lng": 14.14011
  },
  {
    "id": 2227402,
    "name": "Meïganga",
    "lat": 6.51667,
    "lng": 14.3
  },
  {
    "id": 2221030,
    "name": "Yagoua",
    "lat": 10.34107,
    "lng": 15.23288
  },
  {
    "id": 2229152,
    "name": "Loum",
    "lat": 4.7182,
    "lng": 9.7351
  },
  {
    "id": 2235196,
    "name": "Bafang",
    "lat": 5.15705,
    "lng": 10.1771
  },
  {
    "id": 2226275,
    "name": "Mokolo",
    "lat": 10.74244,
    "lng": 13.80227
  },
  {
    "id": 2234663,
    "name": "Batouri",
    "lat": 4.43333,
    "lng": 14.36667
  },
  {
    "id": 2234794,
    "name": "Banyo",
    "lat": 6.75,
    "lng": 11.81667
  },
  {
    "id": 2231319,
    "name": "Garoua Boulaï",
    "lat": 5.88333,
    "lng": 14.55
  },
  {
    "id": 2223293,
    "name": "Obala",
    "lat": 4.16667,
    "lng": 11.53333
  },
  {
    "id": 2223198,
    "name": "Oku",
    "lat": 6.25,
    "lng": 10.43333
  },
  {
    "id": 2228005,
    "name": "Mbanga",
    "lat": 4.5016,
    "lng": 9.5671
  },
  {
    "id": 2225726,
    "name": "Muyuka",
    "lat": 4.2898,
    "lng": 9.4103
  },
  {
    "id": 2234865,
    "name": "Bangangté",
    "lat": 5.14079,
    "lng": 10.52535
  },
  {
    "id": 2231482,
    "name": "Fundong",
    "lat": 6.28,
    "lng": 10.283
  },
  {
    "id": 2231564,
    "name": "Fontem",
    "lat": 5.4685,
    "lng": 9.8818
  },
  {
    "id": 2221053,
    "name": "Wum",
    "lat": 6.38333,
    "lng": 10.06667
  },
  {
    "id": 2228499,
    "name": "Manjo",
    "lat": 4.8428,
    "lng": 9.8217
  },
  {
    "id": 2576483,
    "name": "Ngaoundal",
    "lat": 6.5,
    "lng": 13.26667
  },
  {
    "id": 2234942,
    "name": "Ndop",
    "lat": 5.98843,
    "lng": 10.43859
  },
  {
    "id": 2221530,
    "name": "Tibati",
    "lat": 6.46504,
    "lng": 12.62843
  },
  {
    "id": 2221631,
    "name": "Tchéboa",
    "lat": 9.02871,
    "lng": 13.1848
  },
  {
    "id": 2231320,
    "name": "Garoua",
    "lat": 9.30143,
    "lng": 13.39771
  },
  {
    "id": 2222568,
    "name": "Pitoa",
    "lat": 9.3839,
    "lng": 13.50231
  },
  {
    "id": 2229681,
    "name": "Lagdo",
    "lat": 9.05828,
    "lng": 13.66605
  },
  {
    "id": 2220853,
    "name": "Yokadouma",
    "lat": 3.51667,
    "lng": 15.05
  },
  {
    "id": 2230599,
    "name": "Kaélé",
    "lat": 10.10917,
    "lng": 14.45083
  },
  {
    "id": 2233805,
    "name": "Bogo",
    "lat": 10.7336,
    "lng": 14.60928
  },
  {
    "id": 2234904,
    "name": "Bandjoun",
    "lat": 5.37568,
    "lng": 10.41326
  },
  {
    "id": 2231636,
    "name": "Figuil",
    "lat": 9.75574,
    "lng": 13.9647
  },
  {
    "id": 2228964,
    "name": "Magba",
    "lat": 5.95,
    "lng": 11.21667
  },
  {
    "id": 2235776,
    "name": "Akonolinga",
    "lat": 3.76667,
    "lng": 12.25
  },
  {
    "id": 2228028,
    "name": "Mbandjok",
    "lat": 4.45,
    "lng": 11.9
  },
  {
    "id": 2221362,
    "name": "Touboro",
    "lat": 7.7708,
    "lng": 15.3568
  },
  {
    "id": 2225457,
    "name": "Nanga Eboko",
    "lat": 4.68333,
    "lng": 12.36667
  },
  {
    "id": 2231881,
    "name": "Eséka",
    "lat": 3.65,
    "lng": 10.76667
  },
  {
    "id": 2223734,
    "name": "Nkoteng",
    "lat": 4.51667,
    "lng": 12.03333
  },
  {
    "id": 2235029,
    "name": "Bali",
    "lat": 5.88737,
    "lng": 10.01176
  },
  {
    "id": 2596834,
    "name": "Blangwa",
    "lat": 12.77515,
    "lng": 14.55328
  },
  {
    "id": 2224197,
    "name": "Njombé",
    "lat": 4.58056,
    "lng": 9.66472
  },
  {
    "id": 2230378,
    "name": "Kekem",
    "lat": 5.15689,
    "lng": 10.01996
  },
  {
    "id": 2224163,
    "name": "Nkambe",
    "lat": 6.63333,
    "lng": 10.66667
  },
  {
    "id": 2235186,
    "name": "Bafut",
    "lat": 6.08333,
    "lng": 10.1
  },
  {
    "id": 2235660,
    "name": "Ambam",
    "lat": 2.38333,
    "lng": 11.28333
  },
  {
    "id": 2221802,
    "name": "Souza Gare",
    "lat": 4.2344,
    "lng": 9.6164
  },
  {
    "id": 2234941,
    "name": "Bamusso",
    "lat": 4.4591,
    "lng": 8.9027
  },
  {
    "id": 2230873,
    "name": "Guidiguis",
    "lat": 10.13366,
    "lng": 14.70748
  },
  {
    "id": 2228977,
    "name": "Maga",
    "lat": 10.8434,
    "lng": 14.93962
  },
  {
    "id": 2236053,
    "name": "Abong Mbang",
    "lat": 3.98333,
    "lng": 13.18333
  },
  {
    "id": 2221408,
    "name": "Tombel",
    "lat": 4.7466,
    "lng": 9.6705
  },
  {
    "id": 2234536,
    "name": "Bélabo",
    "lat": 4.93333,
    "lng": 13.3
  },
  {
    "id": 2223226,
    "name": "Okoa",
    "lat": 3.98333,
    "lng": 11.6
  },
  {
    "id": 2232102,
    "name": "Ekondo Titi",
    "lat": 4.603,
    "lng": 9.0404
  },
  {
    "id": 2221607,
    "name": "Tcholliré",
    "lat": 8.4022,
    "lng": 14.1698
  },
  {
    "id": 2229267,
    "name": "Lolodorf",
    "lat": 3.23333,
    "lng": 10.73333
  },
  {
    "id": 2222623,
    "name": "Penja",
    "lat": 4.63911,
    "lng": 9.67987
  },
  {
    "id": 2228675,
    "name": "Mamfe",
    "lat": 5.75132,
    "lng": 9.3137
  },
  {
    "id": 2232997,
    "name": "Dizangué",
    "lat": 3.76667,
    "lng": 9.98333
  },
  {
    "id": 2221394,
    "name": "Tonga",
    "lat": 4.96667,
    "lng": 10.7
  }
]