[
  {
    "id": 2462881,
    "name": "Laayoune",
    "lat": 27.1418,
    "lng": -13.18797
  },
  {
    "id": 2463447,
    "name": "Dakhla",
    "lat": 23.68477,
    "lng": -15.95798
  },
  {
    "id": 2463029,
    "name": "Boujdour",
    "lat": 26.13073,
    "lng": -14.48513
  },
  {
    "id": 2461993,
    "name": "Laayoune Plage",
    "lat": 27.09611,
    "lng": -13.41583
  },
  {
    "id": 2461677,
    "name": "Tichla",
    "lat": 21.5837,
    "lng": -14.97222
  },
  {
    "id": 2462879,
    "name": "El Aargub",
    "lat": 23.60882,
    "lng": -15.86726
  },
  {
    "id": 2462651,
    "name": "Uad Guenifa",
    "lat": 20.83228,
    "lng": -17.08988
  },
  {
    "id": 2461667,
    "name": "Tifariti",
    "lat": 26.1579,
    "lng": -10.55889
  },
  {
    "id": 2463090,
    "name": "Bu Craa",
    "lat": 26.35389,
    "lng": -12.78389
  },
  {
    "id": 2463113,
    "name": "Bir Anzarane",
    "lat": 23.89,
    "lng": -14.53603
  },
  {
    "id": 9645564,
    "name": "Daoura",
    "lat": 27.46175,
    "lng": -12.99412
  },
  {
    "id": 2461423,
    "name": "Zug",
    "lat": 21.56523,
    "lng": -14.10388
  },
  {
    "id": 2462653,
    "name": "Hasi Gueleita",
    "lat": 24.99528,
    "lng": -12.33694
  }
]