[
  {
    "id": 344979,
    "name": "Addis Ababa",
    "lat": 9.02497,
    "lng": 38.74689
  },
  {
    "id": 333795,
    "name": "Jijiga",
    "lat": 9.35,
    "lng": 42.8
  },
  {
    "id": 336014,
    "name": "Gonder",
    "lat": 12.6,
    "lng": 37.46667
  },
  {
    "id": 331180,
    "name": "Mek'ele",
    "lat": 13.49667,
    "lng": 39.47528
  },
  {
    "id": 330186,
    "name": "Nazrēt",
    "lat": 8.55,
    "lng": 39.26667
  },
  {
    "id": 343137,
    "name": "Awasa",
    "lat": 7.06205,
    "lng": 38.47635
  },
  {
    "id": 342884,
    "name": "Bahir Dar",
    "lat": 11.59364,
    "lng": 37.39077
  },
  {
    "id": 338832,
    "name": "Dire Dawa",
    "lat": 9.59306,
    "lng": 41.86611
  },
  {
    "id": 339219,
    "name": "Dessie",
    "lat": 11.13333,
    "lng": 39.63333
  },
  {
    "id": 333772,
    "name": "Jimma",
    "lat": 7.67344,
    "lng": 36.83441
  },
  {
    "id": 328689,
    "name": "Shashamane",
    "lat": 7.2,
    "lng": 38.6
  },
  {
    "id": 339666,
    "name": "Bishoftu",
    "lat": 8.75225,
    "lng": 38.97846
  },
  {
    "id": 7910079,
    "name": "Sodo",
    "lat": 6.86,
    "lng": 37.76159
  },
  {
    "id": 343663,
    "name": "Arba Minch",
    "lat": 6.03333,
    "lng": 37.55
  },
  {
    "id": 334609,
    "name": "Hosa’ina",
    "lat": 7.54978,
    "lng": 37.85374
  },
  {
    "id": 338998,
    "name": "Dīla",
    "lat": 6.41667,
    "lng": 38.31667
  },
  {
    "id": 335035,
    "name": "Harar",
    "lat": 9.31387,
    "lng": 42.11815
  },
  {
    "id": 330118,
    "name": "Nek’emtē",
    "lat": 9.08333,
    "lng": 36.55
  },
  {
    "id": 343749,
    "name": "Ārabī",
    "lat": 9.96278,
    "lng": 42.49278
  },
  {
    "id": 339734,
    "name": "Debre Birhan",
    "lat": 9.67954,
    "lng": 39.53262
  },
  {
    "id": 339708,
    "name": "Debre Mark’os",
    "lat": 10.35,
    "lng": 37.73333
  },
  {
    "id": 343370,
    "name": "Āsela",
    "lat": 7.95,
    "lng": 39.13333
  },
  {
    "id": 333373,
    "name": "Kombolcha",
    "lat": 11.08155,
    "lng": 39.74339
  },
  {
    "id": 339686,
    "name": "Debre Tabor",
    "lat": 11.85,
    "lng": 38.01667
  },
  {
    "id": 345149,
    "name": "Ādīgrat",
    "lat": 14.277,
    "lng": 39.462
  },
  {
    "id": 326406,
    "name": "Weldiya",
    "lat": 11.8277,
    "lng": 39.59164
  },
  {
    "id": 329114,
    "name": "Sebeta",
    "lat": 8.91667,
    "lng": 38.61667
  },
  {
    "id": 12640444,
    "name": "Burayu",
    "lat": 9.03528,
    "lng": 38.66083
  },
  {
    "id": 334227,
    "name": "Inda Silasē",
    "lat": 14.10307,
    "lng": 38.28289
  },
  {
    "id": 335288,
    "name": "Hāgere Hiywet",
    "lat": 8.98333,
    "lng": 37.85
  },
  {
    "id": 8643798,
    "name": "Arsi Negele",
    "lat": 7.3547,
    "lng": 38.67465
  },
  {
    "id": 337405,
    "name": "Gambēla",
    "lat": 8.25,
    "lng": 34.58333
  },
  {
    "id": 344420,
    "name": "Aksum",
    "lat": 14.12109,
    "lng": 38.72337
  },
  {
    "id": 325579,
    "name": "Ziway",
    "lat": 7.93333,
    "lng": 38.71667
  },
  {
    "id": 341297,
    "name": "Butajīra",
    "lat": 8.11667,
    "lng": 38.36667
  },
  {
    "id": 344797,
    "name": "Adwa",
    "lat": 14.16347,
    "lng": 38.89924
  },
  {
    "id": 13308376,
    "name": "Gununo",
    "lat": 6.92471,
    "lng": 37.65263
  },
  {
    "id": 343593,
    "name": "Āreka",
    "lat": 7.06667,
    "lng": 37.7
  },
  {
    "id": 325780,
    "name": "Yirga ‘Alem",
    "lat": 6.75,
    "lng": 38.41667
  },
  {
    "id": 336372,
    "name": "Waliso",
    "lat": 8.53417,
    "lng": 37.96515
  },
  {
    "id": 326355,
    "name": "Welk’īt’ē",
    "lat": 8.28333,
    "lng": 37.78333
  },
  {
    "id": 331163,
    "name": "Mek’ī",
    "lat": 8.15,
    "lng": 38.81667
  },
  {
    "id": 330134,
    "name": "Negēlē",
    "lat": 5.31667,
    "lng": 39.58333
  },
  {
    "id": 332880,
    "name": "K’olīto",
    "lat": 7.31667,
    "lng": 38.08333
  },
  {
    "id": 344357,
    "name": "Alamata",
    "lat": 12.416,
    "lng": 39.55971
  },
  {
    "id": 340573,
    "name": "Ciro",
    "lat": 7.83333,
    "lng": 38.23333
  },
  {
    "id": 343292,
    "name": "Āsosa",
    "lat": 10.06667,
    "lng": 34.53333
  },
  {
    "id": 336259,
    "name": "Gode",
    "lat": 5.95056,
    "lng": 43.55186
  },
  {
    "id": 327694,
    "name": "Tēpī",
    "lat": 7.2,
    "lng": 35.45
  },
  {
    "id": 336350,
    "name": "Goba",
    "lat": 7.01667,
    "lng": 39.98333
  },
  {
    "id": 338404,
    "name": "Duramē",
    "lat": 7.23333,
    "lng": 37.88333
  },
  {
    "id": 341877,
    "name": "Bodītī",
    "lat": 6.96667,
    "lng": 37.86667
  },
  {
    "id": 336496,
    "name": "Gimbi",
    "lat": 9.17031,
    "lng": 35.83491
  },
  {
    "id": 326116,
    "name": "Wik’ro",
    "lat": 13.79525,
    "lng": 39.60303
  },
  {
    "id": 344282,
    "name": "‘Alemaya",
    "lat": 9.39334,
    "lng": 42.00967
  },
  {
    "id": 330534,
    "name": "Mīzan Teferī",
    "lat": 6.99865,
    "lng": 35.58879
  },
  {
    "id": 330491,
    "name": "Mojo",
    "lat": 8.58679,
    "lng": 39.12111
  },
  {
    "id": 339448,
    "name": "Dembī Dolo",
    "lat": 8.53333,
    "lng": 34.8
  },
  {
    "id": 337853,
    "name": "Felege Neway",
    "lat": 6.3,
    "lng": 36.88333
  },
  {
    "id": 330764,
    "name": "Metu",
    "lat": 8.3,
    "lng": 35.58333
  },
  {
    "id": 326321,
    "name": "Wendo",
    "lat": 6.6,
    "lng": 38.41667
  },
  {
    "id": 330425,
    "name": "Mot’a",
    "lat": 11.08333,
    "lng": 37.86667
  },
  {
    "id": 337712,
    "name": "Finote Selam",
    "lat": 10.7,
    "lng": 37.26667
  },
  {
    "id": 344620,
    "name": "Hagere Maryam",
    "lat": 5.63418,
    "lng": 38.23603
  },
  {
    "id": 337771,
    "name": "Fichē",
    "lat": 9.8,
    "lng": 38.73333
  },
  {
    "id": 8620932,
    "name": "Kobo",
    "lat": 10.02798,
    "lng": 39.8528
  },
  {
    "id": 341742,
    "name": "Bonga",
    "lat": 7.28889,
    "lng": 36.24167
  },
  {
    "id": 340008,
    "name": "Dangila",
    "lat": 11.26667,
    "lng": 36.83333
  },
  {
    "id": 333750,
    "name": "Jinka",
    "lat": 5.65,
    "lng": 36.65
  },
  {
    "id": 344661,
    "name": "Āgaro",
    "lat": 7.85,
    "lng": 36.65
  },
  {
    "id": 11048860,
    "name": "Chagni",
    "lat": 10.95627,
    "lng": 36.50456
  },
  {
    "id": 328962,
    "name": "Sek’ot’a",
    "lat": 12.63056,
    "lng": 39.03472
  },
  {
    "id": 331416,
    "name": "Maych’ew",
    "lat": 12.7875,
    "lng": 39.54222
  },
  {
    "id": 340787,
    "name": "Ch’iko",
    "lat": 6.58333,
    "lng": 38.33333
  },
  {
    "id": 336931,
    "name": "Genet",
    "lat": 9.06667,
    "lng": 38.5
  },
  {
    "id": 335324,
    "name": "Hadero",
    "lat": 7.2,
    "lng": 37.66667
  },
  {
    "id": 326206,
    "name": "Werota",
    "lat": 11.91667,
    "lng": 37.7
  },
  {
    "id": 333103,
    "name": "Kibre Mengist",
    "lat": 5.88333,
    "lng": 38.98333
  },
  {
    "id": 334152,
    "name": "Injibara",
    "lat": 11.0,
    "lng": 36.91667
  },
  {
    "id": 328716,
    "name": "Shakiso",
    "lat": 5.76494,
    "lng": 38.91006
  },
  {
    "id": 339594,
    "name": "Degeh Bur",
    "lat": 8.22056,
    "lng": 43.55722
  },
  {
    "id": 339823,
    "name": "Debark’",
    "lat": 13.15611,
    "lng": 37.89806
  },
  {
    "id": 341397,
    "name": "Burē",
    "lat": 10.7,
    "lng": 37.06667
  },
  {
    "id": 333516,
    "name": "Kebri Dahar",
    "lat": 6.74,
    "lng": 44.27806
  },
  {
    "id": 330158,
    "name": "Nefas Mewch’a",
    "lat": 11.73333,
    "lng": 38.46667
  },
  {
    "id": 333356,
    "name": "Kemisē",
    "lat": 10.71668,
    "lng": 39.86997
  },
  {
    "id": 345353,
    "name": "Ādēt",
    "lat": 11.26667,
    "lng": 37.48333
  },
  {
    "id": 338726,
    "name": "Dodola",
    "lat": 6.98333,
    "lng": 39.18333
  },
  {
    "id": 343413,
    "name": "Āsasa",
    "lat": 7.1,
    "lng": 39.2
  },
  {
    "id": 330945,
    "name": "Mer’āwī",
    "lat": 11.41667,
    "lng": 37.16667
  },
  {
    "id": 328492,
    "name": "Shonē",
    "lat": 7.13333,
    "lng": 37.95
  },
  {
    "id": 338670,
    "name": "Dolo",
    "lat": 13.49923,
    "lng": 39.63723
  },
  {
    "id": 337152,
    "name": "Gebre Guracha",
    "lat": 9.8,
    "lng": 38.4
  },
  {
    "id": 325779,
    "name": "Yirga Ch’efē",
    "lat": 6.16667,
    "lng": 38.2
  },
  {
    "id": 342567,
    "name": "Bedelē",
    "lat": 8.456,
    "lng": 36.35302
  },
  {
    "id": 329592,
    "name": "Robit",
    "lat": 9.99461,
    "lng": 39.89693
  },
  {
    "id": 343409,
    "name": "Asaita",
    "lat": 11.56838,
    "lng": 41.43869
  },
  {
    "id": 330120,
    "name": "Nejo",
    "lat": 9.5,
    "lng": 35.5
  },
  {
    "id": 327472,
    "name": "T’īs Isat",
    "lat": 11.48333,
    "lng": 37.58333
  },
  {
    "id": 332288,
    "name": "Lalibela",
    "lat": 12.03219,
    "lng": 39.04756
  },
  {
    "id": 12640449,
    "name": "Shinshicho",
    "lat": 7.20556,
    "lng": 37.77778
  },
  {
    "id": 6311120,
    "name": "Lasoano",
    "lat": 6.25532,
    "lng": 45.3853
  },
  {
    "id": 342559,
    "name": "Bedēsa",
    "lat": 8.9,
    "lng": 40.78333
  },
  {
    "id": 342641,
    "name": "Batī",
    "lat": 11.19152,
    "lng": 40.01675
  },
  {
    "id": 336475,
    "name": "Gīnch’ī",
    "lat": 9.03333,
    "lng": 38.15
  },
  {
    "id": 444998,
    "name": "Qorof",
    "lat": 6.58222,
    "lng": 46.43333
  },
  {
    "id": 342478,
    "name": "Bek’ojī",
    "lat": 7.53333,
    "lng": 39.25
  },
  {
    "id": 342965,
    "name": "Babīlē",
    "lat": 9.22556,
    "lng": 42.33222
  },
  {
    "id": 343134,
    "name": "Āwash",
    "lat": 8.99364,
    "lng": 40.16637
  },
  {
    "id": 342190,
    "name": "Bichena",
    "lat": 10.45,
    "lng": 38.2
  },
  {
    "id": 344923,
    "name": "Ādīs Zemen",
    "lat": 12.11667,
    "lng": 37.78333
  },
  {
    "id": 330888,
    "name": "Mersa",
    "lat": 11.66667,
    "lng": 39.65
  },
  {
    "id": 326036,
    "name": "Yabēlo",
    "lat": 4.88333,
    "lng": 38.08333
  },
  {
    "id": 338554,
    "name": "Dubti",
    "lat": 11.73292,
    "lng": 41.082
  },
  {
    "id": 328592,
    "name": "Sheraro",
    "lat": 14.40076,
    "lng": 37.93399
  },
  {
    "id": 6311122,
    "name": "Yamarugley",
    "lat": 6.80768,
    "lng": 46.08482
  },
  {
    "id": 332746,
    "name": "Korem",
    "lat": 12.50583,
    "lng": 39.52278
  },
  {
    "id": 336526,
    "name": "Gīdolē",
    "lat": 5.65,
    "lng": 37.36667
  },
  {
    "id": 336454,
    "name": "Ghinnir",
    "lat": 7.13952,
    "lng": 40.71083
  },
  {
    "id": 13308374,
    "name": "Badessa",
    "lat": 6.8773,
    "lng": 37.93619
  },
  {
    "id": 331958,
    "name": "Logīya",
    "lat": 11.72615,
    "lng": 40.9797
  },
  {
    "id": 345731,
    "name": "Ābīy Ādī",
    "lat": 13.56083,
    "lng": 38.97389
  },
  {
    "id": 337010,
    "name": "Gelemso",
    "lat": 8.81667,
    "lng": 40.51667
  },
  {
    "id": 342856,
    "name": "Bako",
    "lat": 5.78333,
    "lng": 36.56667
  },
  {
    "id": 6311121,
    "name": "Neefkuceliye",
    "lat": 6.55459,
    "lng": 45.38992
  },
  {
    "id": 343050,
    "name": "Āykel",
    "lat": 12.55,
    "lng": 37.06667
  },
  {
    "id": 62780,
    "name": "Fadhigaradle",
    "lat": 6.17559,
    "lng": 45.29866
  },
  {
    "id": 342445,
    "name": "Bale Hawassa",
    "lat": 6.919,
    "lng": 37.529
  },
  {
    "id": 332129,
    "name": "Leku",
    "lat": 6.87309,
    "lng": 38.44425
  },
  {
    "id": 326383,
    "name": "Welench’ītī",
    "lat": 8.66667,
    "lng": 39.43333
  },
  {
    "id": 329607,
    "name": "Bale Robe",
    "lat": 7.12294,
    "lng": 40.00412
  },
  {
    "id": 334043,
    "name": "Īteya",
    "lat": 8.13333,
    "lng": 39.23333
  },
  {
    "id": 328709,
    "name": "Shambu",
    "lat": 9.56667,
    "lng": 37.1
  },
  {
    "id": 339846,
    "name": "Dayē",
    "lat": 9.88333,
    "lng": 38.26667
  },
  {
    "id": 343402,
    "name": "Āsbe Teferī",
    "lat": 9.08569,
    "lng": 40.86708
  },
  {
    "id": 339319,
    "name": "Dēra",
    "lat": 8.4,
    "lng": 38.85
  },
  {
    "id": 12640445,
    "name": "Guder",
    "lat": 8.97054,
    "lng": 37.76117
  },
  {
    "id": 334137,
    "name": "Insēno",
    "lat": 8.06667,
    "lng": 38.46667
  },
  {
    "id": 345704,
    "name": "Abomsa",
    "lat": 9.98333,
    "lng": 39.98333
  },
  {
    "id": 327234,
    "name": "Tulu Bolo",
    "lat": 8.66667,
    "lng": 38.21667
  },
  {
    "id": 339473,
    "name": "Dembech’a",
    "lat": 10.55,
    "lng": 37.48333
  },
  {
    "id": 335808,
    "name": "Komtikas",
    "lat": 6.95766,
    "lng": 35.55746
  },
  {
    "id": 12640451,
    "name": "Wonji",
    "lat": 8.4541,
    "lng": 39.21752
  },
  {
    "id": 12640447,
    "name": "Mehoni",
    "lat": 12.79881,
    "lng": 39.64448
  },
  {
    "id": 331038,
    "name": "Mendī",
    "lat": 9.8,
    "lng": 35.1
  },
  {
    "id": 334826,
    "name": "Hāyk’",
    "lat": 11.3,
    "lng": 39.68333
  },
  {
    "id": 12640459,
    "name": "Wacha",
    "lat": 7.15109,
    "lng": 35.81703
  },
  {
    "id": 12640456,
    "name": "Gutin",
    "lat": 9.56561,
    "lng": 36.63569
  },
  {
    "id": 340358,
    "name": "Dabat",
    "lat": 12.98417,
    "lng": 37.765
  },
  {
    "id": 327567,
    "name": "Tikil Dingay",
    "lat": 12.98417,
    "lng": 37.04417
  },
  {
    "id": 332938,
    "name": "Kofelē",
    "lat": 7.06667,
    "lng": 38.78333
  },
  {
    "id": 336760,
    "name": "Gasuba",
    "lat": 6.71667,
    "lng": 37.56667
  },
  {
    "id": 330691,
    "name": "Mī’ēso",
    "lat": 9.23478,
    "lng": 40.75593
  },
  {
    "id": 330874,
    "name": "Mertule Maryam",
    "lat": 10.83333,
    "lng": 38.26667
  },
  {
    "id": 340897,
    "name": "Ch’ench’a",
    "lat": 6.25,
    "lng": 37.56667
  },
  {
    "id": 334529,
    "name": "Huruta",
    "lat": 8.15,
    "lng": 39.35
  },
  {
    "id": 12640446,
    "name": "May Cadera",
    "lat": 14.07294,
    "lng": 36.56828
  },
  {
    "id": 344102,
    "name": "Amba Giorgis",
    "lat": 12.76889,
    "lng": 37.62389
  },
  {
    "id": 332896,
    "name": "K’ola Diba",
    "lat": 12.42417,
    "lng": 37.325
  },
  {
    "id": 334495,
    "name": "Ibnat",
    "lat": 12.13333,
    "lng": 38.05
  },
  {
    "id": 339629,
    "name": "Deder",
    "lat": 9.31168,
    "lng": 41.44301
  },
  {
    "id": 337748,
    "name": "Filakit",
    "lat": 11.66667,
    "lng": 38.8
  },
  {
    "id": 335478,
    "name": "Gurbetē",
    "lat": 11.35599,
    "lng": 36.95449
  },
  {
    "id": 326669,
    "name": "Waka",
    "lat": 7.06667,
    "lng": 37.16667
  },
  {
    "id": 343244,
    "name": "Āt’aye",
    "lat": 10.35028,
    "lng": 39.93626
  },
  {
    "id": 342788,
    "name": "Bambesi",
    "lat": 9.75,
    "lng": 34.73333
  },
  {
    "id": 337864,
    "name": "Felana",
    "lat": 9.46498,
    "lng": 42.18447
  },
  {
    "id": 331671,
    "name": "Maksenyit",
    "lat": 12.38333,
    "lng": 37.55
  },
  {
    "id": 330789,
    "name": "Metemma",
    "lat": 12.95479,
    "lng": 36.15549
  },
  {
    "id": 328880,
    "name": "Sendafa",
    "lat": 9.15203,
    "lng": 39.02335
  },
  {
    "id": 12640452,
    "name": "Worabe",
    "lat": 7.85257,
    "lng": 38.18529
  },
  {
    "id": 340754,
    "name": "Chinahsen",
    "lat": 9.50619,
    "lng": 42.60938
  },
  {
    "id": 334478,
    "name": "Idaga Hamus",
    "lat": 14.18722,
    "lng": 39.56389
  },
  {
    "id": 345902,
    "name": "Abala",
    "lat": 14.23333,
    "lng": 37.0
  },
  {
    "id": 13308373,
    "name": "Dimtu",
    "lat": 6.92969,
    "lng": 38.12513
  },
  {
    "id": 336511,
    "name": "Raqo",
    "lat": 6.41919,
    "lng": 45.85251
  },
  {
    "id": 337614,
    "name": "Funyan Bīra",
    "lat": 9.4025,
    "lng": 42.3175
  },
  {
    "id": 331226,
    "name": "Mehal Mēda",
    "lat": 10.3121,
    "lng": 39.65888
  },
  {
    "id": 329432,
    "name": "Sagurē",
    "lat": 7.75,
    "lng": 39.15
  },
  {
    "id": 12640455,
    "name": "Ginja Bet",
    "lat": 10.85029,
    "lng": 36.89277
  },
  {
    "id": 336481,
    "name": "Gimja Bēt Maryam",
    "lat": 10.85,
    "lng": 36.88333
  },
  {
    "id": 342558,
    "name": "Bedēsa",
    "lat": 6.83333,
    "lng": 38.08333
  },
  {
    "id": 345818,
    "name": "Ābderafī",
    "lat": 13.73333,
    "lng": 36.45
  },
  {
    "id": 335063,
    "name": "Harbu",
    "lat": 10.9202,
    "lng": 39.78714
  },
  {
    "id": 327913,
    "name": "Tarch’a Sodo",
    "lat": 7.15139,
    "lng": 37.17184
  },
  {
    "id": 334700,
    "name": "Hīrna",
    "lat": 9.21667,
    "lng": 41.1
  },
  {
    "id": 331630,
    "name": "Mambuk",
    "lat": 11.28333,
    "lng": 36.21667
  },
  {
    "id": 337114,
    "name": "Gedeb",
    "lat": 9.5725,
    "lng": 43.18139
  },
  {
    "id": 53904,
    "name": "Waal",
    "lat": 6.88658,
    "lng": 46.21508
  },
  {
    "id": 11048861,
    "name": "Shendi",
    "lat": 10.64061,
    "lng": 36.94684
  },
  {
    "id": 344267,
    "name": "‘Alem T’ēna",
    "lat": 8.3,
    "lng": 38.95
  },
  {
    "id": 344272,
    "name": "‘Alem Ketema",
    "lat": 10.08333,
    "lng": 39.03333
  },
  {
    "id": 330811,
    "name": "Metahāra",
    "lat": 8.9,
    "lng": 39.91667
  },
  {
    "id": 337083,
    "name": "Gēdo",
    "lat": 9.01667,
    "lng": 37.45
  },
  {
    "id": 12640460,
    "name": "Wegeda",
    "lat": 11.21566,
    "lng": 38.36452
  },
  {
    "id": 336317,
    "name": "Gobēsa",
    "lat": 7.61667,
    "lng": 39.5
  },
  {
    "id": 333421,
    "name": "Kele",
    "lat": 6.08333,
    "lng": 38.03333
  },
  {
    "id": 343759,
    "name": "Ara Ali",
    "lat": 5.96667,
    "lng": 41.03333
  },
  {
    "id": 343562,
    "name": "Arerti",
    "lat": 13.95,
    "lng": 40.66667
  },
  {
    "id": 335425,
    "name": "El Bahay",
    "lat": 6.34656,
    "lng": 45.47811
  },
  {
    "id": 336491,
    "name": "Gīmbīcho",
    "lat": 7.45,
    "lng": 37.63333
  },
  {
    "id": 333680,
    "name": "Kachīsī",
    "lat": 9.6,
    "lng": 37.83333
  },
  {
    "id": 328598,
    "name": "Sheno",
    "lat": 9.32936,
    "lng": 39.29337
  },
  {
    "id": 326333,
    "name": "Wenago",
    "lat": 6.31667,
    "lng": 38.26667
  },
  {
    "id": 340799,
    "name": "Sifra",
    "lat": 11.60462,
    "lng": 40.01662
  },
  {
    "id": 331064,
    "name": "Mena",
    "lat": 6.41667,
    "lng": 39.85
  },
  {
    "id": 10239401,
    "name": "Digih Habar Es",
    "lat": 6.44258,
    "lng": 45.98329
  },
  {
    "id": 334898,
    "name": "Hartīshēk",
    "lat": 9.15722,
    "lng": 43.35417
  },
  {
    "id": 12640454,
    "name": "Damboya",
    "lat": 7.34813,
    "lng": 37.95063
  },
  {
    "id": 12640453,
    "name": "Adebaye",
    "lat": 14.20226,
    "lng": 36.75955
  },
  {
    "id": 343081,
    "name": "Āyana",
    "lat": 9.88333,
    "lng": 36.61667
  },
  {
    "id": 334124,
    "name": "Intich’o",
    "lat": 14.27889,
    "lng": 39.15
  },
  {
    "id": 330652,
    "name": "Mīlē",
    "lat": 11.42172,
    "lng": 40.76282
  },
  {
    "id": 334252,
    "name": "Indabaguna",
    "lat": 13.94944,
    "lng": 38.18417
  },
  {
    "id": 339159,
    "name": "Dibate",
    "lat": 10.65,
    "lng": 36.21667
  },
  {
    "id": 328316,
    "name": "Sīrē",
    "lat": 8.31667,
    "lng": 39.48333
  },
  {
    "id": 332372,
    "name": "Kuyera",
    "lat": 7.3,
    "lng": 38.65
  },
  {
    "id": 344976,
    "name": "Ādīs ‘Alem",
    "lat": 9.03333,
    "lng": 38.4
  },
  {
    "id": 340938,
    "name": "Chelenko",
    "lat": 9.39749,
    "lng": 41.56104
  },
  {
    "id": 331872,
    "name": "Lumamē",
    "lat": 10.25,
    "lng": 37.93333
  },
  {
    "id": 328069,
    "name": "Suntu",
    "lat": 8.1,
    "lng": 36.95
  },
  {
    "id": 329586,
    "name": "Robīt",
    "lat": 12.01667,
    "lng": 39.63333
  },
  {
    "id": 326259,
    "name": "Were Īlu",
    "lat": 10.58964,
    "lng": 39.43767
  },
  {
    "id": 12640458,
    "name": "Kercha",
    "lat": 5.78009,
    "lng": 38.40887
  },
  {
    "id": 327544,
    "name": "Tīlīlī",
    "lat": 10.85,
    "lng": 37.01667
  },
  {
    "id": 344928,
    "name": "Ādīs K’idamē",
    "lat": 11.08333,
    "lng": 36.88333
  },
  {
    "id": 338123,
    "name": "Golwayn",
    "lat": 6.50727,
    "lng": 45.83493
  },
  {
    "id": 6311119,
    "name": "Kahandhale",
    "lat": 5.75279,
    "lng": 45.64603
  },
  {
    "id": 13308383,
    "name": "Tebela",
    "lat": 6.70608,
    "lng": 37.76966
  },
  {
    "id": 326308,
    "name": "Wenjī",
    "lat": 8.45,
    "lng": 39.28333
  },
  {
    "id": 13308387,
    "name": "Shanto",
    "lat": 7.02355,
    "lng": 37.86084
  },
  {
    "id": 6641073,
    "name": "Duuban",
    "lat": 6.67985,
    "lng": 46.06619
  },
  {
    "id": 13308375,
    "name": "Bombe",
    "lat": 7.13799,
    "lng": 37.58195
  },
  {
    "id": 339551,
    "name": "Dejen",
    "lat": 10.16667,
    "lng": 38.13333
  },
  {
    "id": 336745,
    "name": "Gawanē",
    "lat": 10.16658,
    "lng": 40.64689
  },
  {
    "id": 339671,
    "name": "Debre Werk’",
    "lat": 10.66667,
    "lng": 38.16667
  },
  {
    "id": 339692,
    "name": "Debre Sīna",
    "lat": 9.84752,
    "lng": 39.76027
  },
  {
    "id": 335943,
    "name": "Gorē",
    "lat": 8.15,
    "lng": 35.53333
  },
  {
    "id": 331259,
    "name": "Mēga",
    "lat": 4.05,
    "lng": 38.3
  },
  {
    "id": 335286,
    "name": "Hāgere Selam",
    "lat": 6.48333,
    "lng": 38.51667
  },
  {
    "id": 332817,
    "name": "Konso",
    "lat": 5.25,
    "lng": 37.48333
  },
  {
    "id": 331968,
    "name": "Lobuni",
    "lat": 4.83333,
    "lng": 36.1
  },
  {
    "id": 339191,
    "name": "Dewelē",
    "lat": 11.03472,
    "lng": 42.63139
  },
  {
    "id": 327162,
    "name": "Turmi",
    "lat": 4.96667,
    "lng": 36.48333
  },
  {
    "id": 6913519,
    "name": "Samara",
    "lat": 11.79342,
    "lng": 41.00578
  },
  {
    "id": 327278,
    "name": "Gashamo, Hawd Zone, Somali Region, Ethiopia",
    "lat": 8.12028,
    "lng": 45.34583
  },
  {
    "id": 6533836,
    "name": "Shaguby",
    "lat": 13.688,
    "lng": 39.886
  }
]