[
  {
    "id": 3382160,
    "name": "Cayenne",
    "lat": 4.9381,
    "lng": -52.33455
  },
  {
    "id": 3380965,
    "name": "Matoury",
    "lat": 4.84921,
    "lng": -52.32355
  },
  {
    "id": 3380387,
    "name": "Saint-Laurent-du-Maroni",
    "lat": 5.50153,
    "lng": -54.02916
  },
  {
    "id": 3381303,
    "name": "Kourou",
    "lat": 5.16281,
    "lng": -52.64265
  },
  {
    "id": 3380892,
    "name": "Rémire-Montjoly",
    "lat": 4.91667,
    "lng": -52.26667
  },
  {
    "id": 3382527,
    "name": "Apatou",
    "lat": 5.15526,
    "lng": -54.34311
  },
  {
    "id": 3381538,
    "name": "Grand-Santi",
    "lat": 4.27295,
    "lng": -54.38146
  },
  {
    "id": 3381117,
    "name": "Macouria",
    "lat": 4.91216,
    "lng": -52.37432
  },
  {
    "id": 3380994,
    "name": "Maripasoula",
    "lat": 3.64155,
    "lng": -54.03167
  },
  {
    "id": 3381041,
    "name": "Mana",
    "lat": 5.66906,
    "lng": -53.77897
  },
  {
    "id": 3380290,
    "name": "Sinnamary",
    "lat": 5.37676,
    "lng": -52.95679
  },
  {
    "id": 3380402,
    "name": "Saint-Georges",
    "lat": 3.88857,
    "lng": -51.80243
  },
  {
    "id": 3380450,
    "name": "Roura",
    "lat": 4.72874,
    "lng": -52.32495
  },
  {
    "id": 3380523,
    "name": "Régina",
    "lat": 4.313,
    "lng": -52.13083
  },
  {
    "id": 3382530,
    "name": "Awala-Yalimapo",
    "lat": 5.73636,
    "lng": -53.90869
  },
  {
    "id": 3381428,
    "name": "Iracoubo",
    "lat": 5.47952,
    "lng": -53.20524
  }
]