[
  {
    "id": 3382160,
    "name": "Cayenne",
    "lat": 4.9381,
    "lng": -52.33455
  },
  {
    "id": 3380965,
    "name": "Matoury",
    "lat": 4.84921,
    "lng": -52.32355
  },
  {
    "id": 3380387,
    "name": "Saint-Laurent-du-Maroni",
    "lat": 5.50153,
    "lng": -54.02916
  },
  {
    "id": 3381303,
    "name": "Kourou",
    "lat": 5.16281,
    "lng": -52.64265
  },
  {
    "id": 3380892,
    "name": "Rémire-Montjoly",
    "lat": 4.91667,
    "lng": -52.26667
  }
]