[
  {
    "id": 2422465,
    "name": "Conakry",
    "lat": 9.53795,
    "lng": -13.67729
  },
  {
    "id": 2422488,
    "name": "Camayenne",
    "lat": 9.535,
    "lng": -13.68778
  },
  {
    "id": 2416969,
    "name": "Nzérékoré",
    "lat": 7.75624,
    "lng": -8.8179
  },
  {
    "id": 2419992,
    "name": "Kankan",
    "lat": 10.38542,
    "lng": -9.30568
  },
  {
    "id": 2417786,
    "name": "Manéah",
    "lat": 9.73333,
    "lng": -13.41667
  },
  {
    "id": 2421535,
    "name": "Dubréka",
    "lat": 9.79111,
    "lng": -13.52333
  },
  {
    "id": 2419533,
    "name": "Kindia",
    "lat": 10.05692,
    "lng": -12.86576
  },
  {
    "id": 2415703,
    "name": "Siguiri",
    "lat": 11.42282,
    "lng": -9.16852
  },
  {
    "id": 2419472,
    "name": "Kissidougou",
    "lat": 9.1848,
    "lng": -10.09987
  },
  {
    "id": 2416402,
    "name": "Kamsar",
    "lat": 10.65,
    "lng": -14.61667
  },
  {
    "id": 2418362,
    "name": "Labé",
    "lat": 11.31823,
    "lng": -12.28332
  },
  {
    "id": 2420562,
    "name": "Gueckedou",
    "lat": 8.56744,
    "lng": -10.1336
  },
  {
    "id": 2417833,
    "name": "Mamou",
    "lat": 10.37546,
    "lng": -12.09148
  },
  {
    "id": 2422457,
    "name": "Coyah",
    "lat": 9.70643,
    "lng": -13.38465
  },
  {
    "id": 2421273,
    "name": "Faranah",
    "lat": 10.04036,
    "lng": -10.74343
  },
  {
    "id": 2417988,
    "name": "Macenta",
    "lat": 8.54351,
    "lng": -9.47099
  },
  {
    "id": 2420884,
    "name": "Fria",
    "lat": 10.36676,
    "lng": -13.58253
  },
  {
    "id": 2422924,
    "name": "Boké",
    "lat": 10.93217,
    "lng": -14.29055
  },
  {
    "id": 2416085,
    "name": "Sangarédi",
    "lat": 11.1,
    "lng": -13.76667
  },
  {
    "id": 2418437,
    "name": "Kouroussa",
    "lat": 10.65,
    "lng": -9.88333
  },
  {
    "id": 2418092,
    "name": "Lola",
    "lat": 7.8,
    "lng": -8.53333
  },
  {
    "id": 2414926,
    "name": "Télimélé",
    "lat": 10.9,
    "lng": -13.03333
  },
  {
    "id": 2422442,
    "name": "Dabola",
    "lat": 10.7433,
    "lng": -11.10778
  },
  {
    "id": 2419498,
    "name": "Kintinian",
    "lat": 11.6,
    "lng": -9.38333
  },
  {
    "id": 2419622,
    "name": "Kérouané",
    "lat": 9.26667,
    "lng": -9.01667
  },
  {
    "id": 2414545,
    "name": "Tougué",
    "lat": 11.44503,
    "lng": -11.66422
  },
  {
    "id": 2416443,
    "name": "Pita",
    "lat": 11.05915,
    "lng": -12.39498
  },
  {
    "id": 2420985,
    "name": "Forécariah",
    "lat": 9.43056,
    "lng": -13.08806
  },
  {
    "id": 2418596,
    "name": "Koundara",
    "lat": 12.48333,
    "lng": -13.3
  },
  {
    "id": 2421903,
    "name": "Dinguiraye",
    "lat": 11.29062,
    "lng": -10.7121
  },
  {
    "id": 2423126,
    "name": "Beyla",
    "lat": 8.69011,
    "lng": -8.64869
  },
  {
    "id": 2417795,
    "name": "Mandiana",
    "lat": 10.62577,
    "lng": -8.69413
  },
  {
    "id": 2423969,
    "name": "Albadéria",
    "lat": 9.55,
    "lng": -10.1
  },
  {
    "id": 2417394,
    "name": "Moussadou",
    "lat": 8.76667,
    "lng": -8.61667
  },
  {
    "id": 2414635,
    "name": "Tomba-kanssa",
    "lat": 11.72321,
    "lng": -10.18899
  },
  {
    "id": 2414616,
    "name": "Tondon",
    "lat": 10.36667,
    "lng": -13.35
  },
  {
    "id": 2422968,
    "name": "Boffa",
    "lat": 10.16667,
    "lng": -14.03333
  },
  {
    "id": 2422383,
    "name": "Dalaba",
    "lat": 10.69249,
    "lng": -12.24967
  },
  {
    "id": 2418764,
    "name": "Koubia",
    "lat": 11.58632,
    "lng": -11.89485
  },
  {
    "id": 2419538,
    "name": "Kimbo",
    "lat": 10.4,
    "lng": -13.55
  },
  {
    "id": 2414079,
    "name": "Yomou",
    "lat": 7.56748,
    "lng": -9.26283
  },
  {
    "id": 2414055,
    "name": "Youkounkoun",
    "lat": 12.5311,
    "lng": -13.1224
  },
  {
    "id": 2420826,
    "name": "Gaoual",
    "lat": 11.75,
    "lng": -13.2
  },
  {
    "id": 2414659,
    "name": "Tokonou",
    "lat": 9.65,
    "lng": -9.78333
  },
  {
    "id": 2417886,
    "name": "Mali",
    "lat": 12.079,
    "lng": -12.2982
  },
  {
    "id": 2416061,
    "name": "Sanguéya",
    "lat": 10.7,
    "lng": -14.36667
  },
  {
    "id": 2578880,
    "name": "Lélouma",
    "lat": 11.42383,
    "lng": -12.68183
  },
  {
    "id": 2416168,
    "name": "Samoé",
    "lat": 7.80528,
    "lng": -8.8675
  },
  {
    "id": 2415697,
    "name": "Siguirini",
    "lat": 11.8288,
    "lng": -10.04548
  },
  {
    "id": 2417005,
    "name": "Norassouba",
    "lat": 10.91667,
    "lng": -9.48333
  }
]