[
  {
    "id": 264371,
    "name": "Athens",
    "lat": 37.98376,
    "lng": 23.72784
  },
  {
    "id": 734077,
    "name": "Thessaloníki",
    "lat": 40.64072,
    "lng": 22.93493
  },
  {
    "id": 255683,
    "name": "Pátra",
    "lat": 38.2462,
    "lng": 21.73508
  },
  {
    "id": 255274,
    "name": "Piraeus",
    "lat": 37.94203,
    "lng": 23.64619
  },
  {
    "id": 258576,
    "name": "Lárisa",
    "lat": 39.62847,
    "lng": 22.42112
  },
  {
    "id": 255524,
    "name": "Peristéri",
    "lat": 38.01539,
    "lng": 23.69187
  },
  {
    "id": 261745,
    "name": "Irákleion",
    "lat": 35.32787,
    "lng": 25.14341
  },
  {
    "id": 261414,
    "name": "Kallithéa",
    "lat": 37.95,
    "lng": 23.7
  },
  {
    "id": 265488,
    "name": "Acharnés",
    "lat": 38.08333,
    "lng": 23.73333
  },
  {
    "id": 736083,
    "name": "Kalamariá",
    "lat": 40.5825,
    "lng": 22.95028
  },
  {
    "id": 256429,
    "name": "Níkaia",
    "lat": 37.96667,
    "lng": 23.65
  },
  {
    "id": 262036,
    "name": "Glyfáda",
    "lat": 37.86289,
    "lng": 23.75802
  },
  {
    "id": 251833,
    "name": "Volos",
    "lat": 39.36923,
    "lng": 22.94769
  },
  {
    "id": 256601,
    "name": "Ílion",
    "lat": 38.03333,
    "lng": 23.7
  },
  {
    "id": 8310138,
    "name": "Ilioúpoli",
    "lat": 37.93149,
    "lng": 23.76779
  },
  {
    "id": 260204,
    "name": "Keratsíni",
    "lat": 37.9625,
    "lng": 23.61972
  },
  {
    "id": 736291,
    "name": "Évosmos",
    "lat": 40.67056,
    "lng": 22.90833
  },
  {
    "id": 260172,
    "name": "Khalándrion",
    "lat": 38.02369,
    "lng": 23.80068
  },
  {
    "id": 256575,
    "name": "Néa Smýrni",
    "lat": 37.94504,
    "lng": 23.71416
  },
  {
    "id": 265243,
    "name": "Maroúsi",
    "lat": 38.05,
    "lng": 23.8
  },
  {
    "id": 263986,
    "name": "Agios Dimitrios",
    "lat": 37.93333,
    "lng": 23.73333
  },
  {
    "id": 8358544,
    "name": "Zográfos",
    "lat": 37.97574,
    "lng": 23.76911
  },
  {
    "id": 265533,
    "name": "Aigáleo",
    "lat": 37.98333,
    "lng": 23.68333
  },
  {
    "id": 256614,
    "name": "Néa Ionía",
    "lat": 38.0357,
    "lng": 23.75733
  },
  {
    "id": 261779,
    "name": "Ioánnina",
    "lat": 39.66341,
    "lng": 20.85187
  },
  {
    "id": 256075,
    "name": "Palaió Fáliro",
    "lat": 37.92812,
    "lng": 23.70105
  },
  {
    "id": 8310183,
    "name": "Korydallós",
    "lat": 37.98468,
    "lng": 23.64711
  },
  {
    "id": 252664,
    "name": "Tríkala",
    "lat": 39.55493,
    "lng": 21.76837
  },
  {
    "id": 251948,
    "name": "Výronas",
    "lat": 37.96105,
    "lng": 23.753
  },
  {
    "id": 264194,
    "name": "Agía Paraskeví",
    "lat": 38.01667,
    "lng": 23.83333
  },
  {
    "id": 262135,
    "name": "Galátsi",
    "lat": 38.01667,
    "lng": 23.75
  },
  {
    "id": 260133,
    "name": "Chalkída",
    "lat": 38.46354,
    "lng": 23.60284
  },
  {
    "id": 255377,
    "name": "Petroúpolis",
    "lat": 38.04187,
    "lng": 23.68494
  },
  {
    "id": 734330,
    "name": "Sérres",
    "lat": 41.08499,
    "lng": 23.54757
  },
  {
    "id": 734538,
    "name": "Políchni",
    "lat": 40.66671,
    "lng": 22.94881
  },
  {
    "id": 400666,
    "name": "Ródos",
    "lat": 36.43556,
    "lng": 28.22199
  },
  {
    "id": 261604,
    "name": "Kalamata",
    "lat": 37.03913,
    "lng": 22.11265
  },
  {
    "id": 735861,
    "name": "Kavála",
    "lat": 40.93959,
    "lng": 24.40687
  },
  {
    "id": 260114,
    "name": "Chaniá",
    "lat": 35.51124,
    "lng": 24.02921
  },
  {
    "id": 735914,
    "name": "Kateríni",
    "lat": 40.26956,
    "lng": 22.50608
  },
  {
    "id": 736928,
    "name": "Alexandroupoli",
    "lat": 40.84995,
    "lng": 25.87644
  },
  {
    "id": 258620,
    "name": "Lamía",
    "lat": 38.89947,
    "lng": 22.4335
  },
  {
    "id": 261743,
    "name": "Irákleio",
    "lat": 38.05282,
    "lng": 23.76523
  },
  {
    "id": 733840,
    "name": "Xánthi",
    "lat": 41.13488,
    "lng": 24.888
  },
  {
    "id": 259824,
    "name": "Kifisiá",
    "lat": 38.07438,
    "lng": 23.81106
  },
  {
    "id": 265560,
    "name": "Agrínio",
    "lat": 38.62139,
    "lng": 21.40778
  },
  {
    "id": 734150,
    "name": "Stavroúpoli",
    "lat": 40.66944,
    "lng": 22.93806
  },
  {
    "id": 260183,
    "name": "Chaïdári",
    "lat": 38.01135,
    "lng": 23.66597
  },
  {
    "id": 735640,
    "name": "Komotiní",
    "lat": 41.11758,
    "lng": 25.40587
  },
  {
    "id": 734301,
    "name": "Sykiés",
    "lat": 40.64944,
    "lng": 22.95083
  },
  {
    "id": 736364,
    "name": "Dráma",
    "lat": 41.15283,
    "lng": 24.1473
  },
  {
    "id": 733905,
    "name": "Véroia",
    "lat": 40.52437,
    "lng": 22.20242
  },
  {
    "id": 261614,
    "name": "Álimos",
    "lat": 37.91033,
    "lng": 23.72361
  },
  {
    "id": 2463679,
    "name": "Corfu",
    "lat": 39.62441,
    "lng": 19.92016
  },
  {
    "id": 735563,
    "name": "Kozáni",
    "lat": 40.29931,
    "lng": 21.78984
  },
  {
    "id": 252910,
    "name": "Thívai",
    "lat": 38.325,
    "lng": 23.31889
  },
  {
    "id": 734643,
    "name": "Pylaía",
    "lat": 40.59918,
    "lng": 22.98613
  },
  {
    "id": 8358563,
    "name": "Ágioi Anárgyroi",
    "lat": 38.03013,
    "lng": 23.72379
  },
  {
    "id": 264516,
    "name": "Argyroúpoli",
    "lat": 37.90594,
    "lng": 23.75035
  },
  {
    "id": 264888,
    "name": "Áno Liósia",
    "lat": 38.08333,
    "lng": 23.7
  },
  {
    "id": 260989,
    "name": "Kardítsa",
    "lat": 39.36485,
    "lng": 21.92191
  },
  {
    "id": 9034728,
    "name": "Néa Ionía",
    "lat": 39.37904,
    "lng": 22.92752
  },
  {
    "id": 254352,
    "name": "Rethymno",
    "lat": 35.36555,
    "lng": 24.48232
  },
  {
    "id": 259949,
    "name": "Cholargós",
    "lat": 38.0,
    "lng": 23.8
  },
  {
    "id": 6324534,
    "name": "Vrilissia",
    "lat": 38.03381,
    "lng": 23.82962
  },
  {
    "id": 264445,
    "name": "Asprópyrgos",
    "lat": 38.06134,
    "lng": 23.58971
  },
  {
    "id": 259289,
    "name": "Kórinthos",
    "lat": 37.94007,
    "lng": 22.9513
  },
  {
    "id": 734426,
    "name": "Ptolemaḯda",
    "lat": 40.51472,
    "lng": 21.67861
  },
  {
    "id": 8201845,
    "name": "Gérakas",
    "lat": 38.02277,
    "lng": 23.8576
  },
  {
    "id": 259128,
    "name": "Metamórfosi",
    "lat": 38.06576,
    "lng": 23.76356
  },
  {
    "id": 251780,
    "name": "Voúla",
    "lat": 37.84221,
    "lng": 23.77651
  },
  {
    "id": 261249,
    "name": "Kamaterón",
    "lat": 38.05586,
    "lng": 23.70515
  },
  {
    "id": 256866,
    "name": "Mytilene",
    "lat": 39.10772,
    "lng": 26.55529
  },
  {
    "id": 733776,
    "name": "Giannitsá",
    "lat": 40.79194,
    "lng": 22.4075
  },
  {
    "id": 11747175,
    "name": "Neapoli",
    "lat": 40.6532,
    "lng": 22.94156
  },
  {
    "id": 252601,
    "name": "Trípoli",
    "lat": 37.50959,
    "lng": 22.37883
  },
  {
    "id": 264111,
    "name": "Agía Varvára",
    "lat": 37.98938,
    "lng": 23.66011
  },
  {
    "id": 261678,
    "name": "Kaisarianí",
    "lat": 37.9634,
    "lng": 23.76523
  },
  {
    "id": 256621,
    "name": "Néa Filadélfeia",
    "lat": 38.03491,
    "lng": 23.73811
  },
  {
    "id": 256750,
    "name": "Moskháton",
    "lat": 37.94789,
    "lng": 23.6788
  },
  {
    "id": 255588,
    "name": "Pérama",
    "lat": 37.96775,
    "lng": 23.5721
  },
  {
    "id": 254144,
    "name": "Salamína",
    "lat": 37.96427,
    "lng": 23.49649
  },
  {
    "id": 262752,
    "name": "Elefsína",
    "lat": 38.04135,
    "lng": 23.54295
  },
  {
    "id": 259973,
    "name": "Chios",
    "lat": 38.36875,
    "lng": 26.13718
  },
  {
    "id": 257365,
    "name": "Mégara",
    "lat": 37.99471,
    "lng": 23.34324
  },
  {
    "id": 735736,
    "name": "Kilkís",
    "lat": 40.99302,
    "lng": 22.87433
  },
  {
    "id": 263312,
    "name": "Dhafní",
    "lat": 37.95002,
    "lng": 23.73437
  },
  {
    "id": 257302,
    "name": "Melíssia",
    "lat": 38.05,
    "lng": 23.83333
  },
  {
    "id": 255229,
    "name": "Pýrgos",
    "lat": 37.67513,
    "lng": 21.44102
  },
  {
    "id": 264670,
    "name": "Árgos",
    "lat": 37.63333,
    "lng": 22.73333
  },
  {
    "id": 264559,
    "name": "Árta",
    "lat": 39.16014,
    "lng": 20.98561
  },
  {
    "id": 258463,
    "name": "Livadeiá",
    "lat": 38.43616,
    "lng": 22.87665
  },
  {
    "id": 258038,
    "name": "Artémida",
    "lat": 37.96727,
    "lng": 23.99684
  },
  {
    "id": 8358562,
    "name": "Péfki",
    "lat": 38.06019,
    "lng": 23.79264
  },
  {
    "id": 734883,
    "name": "Oraiókastro",
    "lat": 40.73083,
    "lng": 22.91722
  },
  {
    "id": 265500,
    "name": "Aígio",
    "lat": 38.24861,
    "lng": 22.08194
  },
  {
    "id": 735030,
    "name": "Náousa",
    "lat": 40.62944,
    "lng": 22.06806
  },
  {
    "id": 259245,
    "name": "Kos",
    "lat": 36.89295,
    "lng": 27.28768
  },
  {
    "id": 259251,
    "name": "Koropí",
    "lat": 37.89886,
    "lng": 23.87181
  },
  {
    "id": 736357,
    "name": "Édessa",
    "lat": 40.8026,
    "lng": 22.04751
  },
  {
    "id": 734712,
    "name": "Peraía",
    "lat": 40.49874,
    "lng": 22.92617
  },
  {
    "id": 736229,
    "name": "Flórina",
    "lat": 40.78197,
    "lng": 21.40981
  },
  {
    "id": 734771,
    "name": "Panórama",
    "lat": 40.58779,
    "lng": 23.0315
  },
  {
    "id": 256622,
    "name": "Néa Erythraía",
    "lat": 38.0927,
    "lng": 23.82223
  },
  {
    "id": 254698,
    "name": "Préveza",
    "lat": 38.95617,
    "lng": 20.7505
  },
  {
    "id": 262719,
    "name": "Ellinikó",
    "lat": 37.89013,
    "lng": 23.74406
  },
  {
    "id": 265252,
    "name": "Amaliáda",
    "lat": 37.79842,
    "lng": 21.35068
  },
  {
    "id": 736621,
    "name": "Ágios Athanásios",
    "lat": 40.71598,
    "lng": 22.72841
  },
  {
    "id": 253394,
    "name": "Sparta",
    "lat": 37.07446,
    "lng": 22.43009
  },
  {
    "id": 734880,
    "name": "Orestiáda",
    "lat": 41.50306,
    "lng": 26.52972
  },
  {
    "id": 8478257,
    "name": "Agios Ioannis Rentis",
    "lat": 37.96491,
    "lng": 23.66511
  },
  {
    "id": 252270,
    "name": "Vári",
    "lat": 37.8332,
    "lng": 23.80311
  },
  {
    "id": 735215,
    "name": "Meneméni",
    "lat": 40.65829,
    "lng": 22.89712
  },
  {
    "id": 256598,
    "name": "Néa Mákri",
    "lat": 38.08733,
    "lng": 23.97642
  },
  {
    "id": 253025,
    "name": "Távros",
    "lat": 37.97064,
    "lng": 23.69043
  },
  {
    "id": 255971,
    "name": "Pallíni",
    "lat": 38.00514,
    "lng": 23.88302
  },
  {
    "id": 256197,
    "name": "Paianía",
    "lat": 37.95527,
    "lng": 23.85443
  },
  {
    "id": 256637,
    "name": "Náfplio",
    "lat": 37.56863,
    "lng": 22.80691
  },
  {
    "id": 261445,
    "name": "Kalývia Thorikoú",
    "lat": 37.83894,
    "lng": 23.92505
  },
  {
    "id": 734080,
    "name": "Thérmi",
    "lat": 40.54712,
    "lng": 23.01967
  },
  {
    "id": 8644195,
    "name": "Drapetsóna",
    "lat": 37.94988,
    "lng": 23.62309
  },
  {
    "id": 736296,
    "name": "Efkarpía",
    "lat": 40.68797,
    "lng": 22.95348
  },
  {
    "id": 256342,
    "name": "Papágou",
    "lat": 37.98642,
    "lng": 23.79347
  },
  {
    "id": 736929,
    "name": "Alexándreia",
    "lat": 40.62667,
    "lng": 22.44417
  },
  {
    "id": 256639,
    "name": "Náfpaktos",
    "lat": 38.39167,
    "lng": 21.8275
  },
  {
    "id": 735927,
    "name": "Kastoria",
    "lat": 40.52165,
    "lng": 21.26341
  },
  {
    "id": 734405,
    "name": "Péfka",
    "lat": 40.65806,
    "lng": 22.99378
  },
  {
    "id": 256629,
    "name": "Néa Alikarnassós",
    "lat": 35.33893,
    "lng": 25.15972
  },
  {
    "id": 257186,
    "name": "Mesolóngi",
    "lat": 38.37138,
    "lng": 21.43151
  },
  {
    "id": 262067,
    "name": "Gázi",
    "lat": 35.32531,
    "lng": 25.06694
  },
  {
    "id": 261814,
    "name": "Ierápetra",
    "lat": 35.01186,
    "lng": 25.74234
  },
  {
    "id": 261507,
    "name": "Kálymnos",
    "lat": 36.9503,
    "lng": 26.98388
  },
  {
    "id": 254425,
    "name": "Rafína",
    "lat": 38.01812,
    "lng": 24.00599
  },
  {
    "id": 258066,
    "name": "Loutráki",
    "lat": 37.9783,
    "lng": 22.97781
  },
  {
    "id": 251280,
    "name": "Zakynthos",
    "lat": 37.78022,
    "lng": 20.89555
  },
  {
    "id": 263824,
    "name": "Ágios Nikólaos",
    "lat": 35.19106,
    "lng": 25.71524
  },
  {
    "id": 262603,
    "name": "Ermoúpolis",
    "lat": 37.44466,
    "lng": 24.9429
  },
  {
    "id": 252685,
    "name": "Ialysós",
    "lat": 36.41352,
    "lng": 28.15516
  },
  {
    "id": 257811,
    "name": "Mándra",
    "lat": 38.06667,
    "lng": 23.5
  },
  {
    "id": 736450,
    "name": "Diavatá",
    "lat": 40.68744,
    "lng": 22.85799
  },
  {
    "id": 252848,
    "name": "Týrnavos",
    "lat": 39.73778,
    "lng": 22.28917
  },
  {
    "id": 736151,
    "name": "Grevená",
    "lat": 40.08452,
    "lng": 21.42744
  },
  {
    "id": 262462,
    "name": "Fársala",
    "lat": 39.29472,
    "lng": 22.38472
  },
  {
    "id": 8657513,
    "name": "Néo Psychikó",
    "lat": 38.00624,
    "lng": 23.78373
  },
  {
    "id": 734517,
    "name": "Polýgyros",
    "lat": 40.37704,
    "lng": 23.44135
  },
  {
    "id": 263725,
    "name": "Ágios Stéfanos",
    "lat": 38.14657,
    "lng": 23.85608
  },
  {
    "id": 9035867,
    "name": "Néa Chalkidóna",
    "lat": 38.0271,
    "lng": 23.73051
  },
  {
    "id": 264668,
    "name": "Argostólion",
    "lat": 38.18109,
    "lng": 20.48903
  },
  {
    "id": 259830,
    "name": "Kiáto",
    "lat": 38.01321,
    "lng": 22.74839
  },
  {
    "id": 265107,
    "name": "Anatolí",
    "lat": 39.63531,
    "lng": 20.86578
  },
  {
    "id": 258314,
    "name": "Limín Mesoyaías",
    "lat": 37.89108,
    "lng": 24.00307
  },
  {
    "id": 258332,
    "name": "Lykóvrysi",
    "lat": 38.06933,
    "lng": 23.78223
  },
  {
    "id": 254505,
    "name": "Psychikó",
    "lat": 38.01324,
    "lng": 23.77223
  },
  {
    "id": 257671,
    "name": "Markópoulo",
    "lat": 37.88333,
    "lng": 23.93333
  },
  {
    "id": 261807,
    "name": "Igoumenítsa",
    "lat": 39.50342,
    "lng": 20.26728
  },
  {
    "id": 256626,
    "name": "Néa Artáki",
    "lat": 38.52027,
    "lng": 23.63296
  },
  {
    "id": 9035858,
    "name": "Zefyri",
    "lat": 38.06647,
    "lng": 23.71701
  },
  {
    "id": 734999,
    "name": "Néa Moudhaniá",
    "lat": 40.2439,
    "lng": 23.28484
  },
  {
    "id": 734284,
    "name": "Síndos",
    "lat": 40.67045,
    "lng": 22.80545
  },
  {
    "id": 253376,
    "name": "Spáta",
    "lat": 37.96163,
    "lng": 23.91514
  },
  {
    "id": 736319,
    "name": "Epanomí",
    "lat": 40.42614,
    "lng": 22.92782
  },
  {
    "id": 735747,
    "name": "Chrysoúpolis",
    "lat": 40.98556,
    "lng": 24.69389
  },
  {
    "id": 735001,
    "name": "Néa Michanióna",
    "lat": 40.46371,
    "lng": 22.8617
  },
  {
    "id": 253759,
    "name": "Sitia",
    "lat": 35.20783,
    "lng": 26.10467
  },
  {
    "id": 258438,
    "name": "Lefkáda",
    "lat": 38.83036,
    "lng": 20.70442
  },
  {
    "id": 736447,
    "name": "Didymóteicho",
    "lat": 41.349,
    "lng": 26.49377
  },
  {
    "id": 256592,
    "name": "Néa Péramos",
    "lat": 38.00647,
    "lng": 23.42348
  },
  {
    "id": 261601,
    "name": "Kalampáka",
    "lat": 39.70444,
    "lng": 21.62694
  },
  {
    "id": 262098,
    "name": "Gastoúni",
    "lat": 37.85,
    "lng": 21.25
  },
  {
    "id": 265292,
    "name": "Almyrós",
    "lat": 39.18222,
    "lng": 22.75944
  },
  {
    "id": 251332,
    "name": "Giánnouli",
    "lat": 39.66717,
    "lng": 22.39597
  },
  {
    "id": 735588,
    "name": "Koufália",
    "lat": 40.77778,
    "lng": 22.57194
  },
  {
    "id": 735481,
    "name": "Lagkadás",
    "lat": 40.75,
    "lng": 23.06667
  },
  {
    "id": 260210,
    "name": "Keratéa",
    "lat": 37.80585,
    "lng": 23.9774
  },
  {
    "id": 736754,
    "name": "Argos Orestiko",
    "lat": 40.45354,
    "lng": 21.25889
  },
  {
    "id": 262398,
    "name": "Filothéi",
    "lat": 38.02524,
    "lng": 23.78257
  },
  {
    "id": 734622,
    "name": "Chalástra",
    "lat": 40.62643,
    "lng": 22.73291
  },
  {
    "id": 735016,
    "name": "Néa Kallikráteia",
    "lat": 40.31312,
    "lng": 23.06343
  },
  {
    "id": 734014,
    "name": "Trílofos",
    "lat": 40.46898,
    "lng": 22.9718
  },
  {
    "id": 9035866,
    "name": "Néa Pentéli",
    "lat": 38.06059,
    "lng": 23.85926
  },
  {
    "id": 262871,
    "name": "Drosiá",
    "lat": 38.11977,
    "lng": 23.86428
  },
  {
    "id": 257717,
    "name": "Marathónas",
    "lat": 38.15317,
    "lng": 23.96278
  },
  {
    "id": 258543,
    "name": "Lávrio",
    "lat": 37.71445,
    "lng": 24.05647
  },
  {
    "id": 256632,
    "name": "Náxos",
    "lat": 37.10556,
    "lng": 25.37639
  },
  {
    "id": 734540,
    "name": "Polýkastro",
    "lat": 40.99444,
    "lng": 22.56909
  },
  {
    "id": 262784,
    "name": "Elassóna",
    "lat": 39.89472,
    "lng": 22.18861
  },
  {
    "id": 262418,
    "name": "Filiatrá",
    "lat": 37.15637,
    "lng": 21.58532
  },
  {
    "id": 260891,
    "name": "Karpenísi",
    "lat": 38.91218,
    "lng": 21.79836
  },
  {
    "id": 265502,
    "name": "Aegina",
    "lat": 37.74667,
    "lng": 23.4275
  },
  {
    "id": 265187,
    "name": "Ámfissa",
    "lat": 38.52813,
    "lng": 22.37713
  },
  {
    "id": 735546,
    "name": "Krýa Vrýsi",
    "lat": 40.68738,
    "lng": 22.30516
  },
  {
    "id": 257152,
    "name": "Messíni",
    "lat": 37.05111,
    "lng": 22.00778
  },
  {
    "id": 253456,
    "name": "Soúda",
    "lat": 35.48717,
    "lng": 24.07344
  },
  {
    "id": 735399,
    "name": "Litóchoro",
    "lat": 40.10056,
    "lng": 22.49778
  },
  {
    "id": 256492,
    "name": "Néon Karlovásion",
    "lat": 37.79209,
    "lng": 26.7049
  },
  {
    "id": 252190,
    "name": "Vasilikón",
    "lat": 38.42586,
    "lng": 23.67189
  },
  {
    "id": 736753,
    "name": "Aridaía",
    "lat": 40.97306,
    "lng": 22.05639
  },
  {
    "id": 263854,
    "name": "Áyios Konstandínos",
    "lat": 38.63337,
    "lng": 21.3995
  },
  {
    "id": 264929,
    "name": "Anoixi",
    "lat": 38.13267,
    "lng": 23.85874
  },
  {
    "id": 736687,
    "name": "Asvestochóri",
    "lat": 40.64125,
    "lng": 23.02528
  },
  {
    "id": 256842,
    "name": "Moíres",
    "lat": 35.05143,
    "lng": 24.8733
  },
  {
    "id": 255777,
    "name": "Paralía",
    "lat": 38.19833,
    "lng": 21.70263
  },
  {
    "id": 262104,
    "name": "Gargaliánoi",
    "lat": 37.06518,
    "lng": 21.63809
  },
  {
    "id": 265100,
    "name": "Anávyssos",
    "lat": 37.73414,
    "lng": 23.94389
  },
  {
    "id": 9035859,
    "name": "Thrakomakedónes",
    "lat": 38.12964,
    "lng": 23.75751
  },
  {
    "id": 6354951,
    "name": "Faliraki",
    "lat": 36.33981,
    "lng": 28.19942
  },
  {
    "id": 734973,
    "name": "Néoi Epivátes",
    "lat": 40.49863,
    "lng": 22.91192
  },
  {
    "id": 265206,
    "name": "Ampelóna",
    "lat": 39.74481,
    "lng": 22.36575
  },
  {
    "id": 258508,
    "name": "Leondárion",
    "lat": 37.987,
    "lng": 23.85518
  },
  {
    "id": 256268,
    "name": "Orchomenós",
    "lat": 38.4929,
    "lng": 22.97962
  },
  {
    "id": 256627,
    "name": "Néa Anchiálos",
    "lat": 39.28015,
    "lng": 22.81819
  },
  {
    "id": 251283,
    "name": "Zacháro",
    "lat": 37.48333,
    "lng": 21.65
  },
  {
    "id": 262833,
    "name": "Ekáli",
    "lat": 38.11035,
    "lng": 23.83505
  },
  {
    "id": 256223,
    "name": "Ovriá",
    "lat": 38.18866,
    "lng": 21.72903
  },
  {
    "id": 254546,
    "name": "Psachná",
    "lat": 38.57852,
    "lng": 23.64326
  },
  {
    "id": 260644,
    "name": "Káto Achaḯa",
    "lat": 38.15,
    "lng": 21.55
  },
  {
    "id": 264310,
    "name": "Avlónas",
    "lat": 38.25149,
    "lng": 23.69554
  },
  {
    "id": 256047,
    "name": "Palamás",
    "lat": 39.46667,
    "lng": 22.08333
  },
  {
    "id": 263064,
    "name": "Diónysos",
    "lat": 38.10458,
    "lng": 23.87938
  },
  {
    "id": 734315,
    "name": "Siátista",
    "lat": 40.26194,
    "lng": 21.54417
  },
  {
    "id": 263148,
    "name": "Diakoptó",
    "lat": 38.19522,
    "lng": 22.19994
  },
  {
    "id": 408685,
    "name": "Afántou",
    "lat": 36.29354,
    "lng": 28.16225
  },
  {
    "id": 265601,
    "name": "Agriá",
    "lat": 39.34078,
    "lng": 23.01258
  },
  {
    "id": 262576,
    "name": "Efpálio",
    "lat": 38.41949,
    "lng": 21.92908
  },
  {
    "id": 251525,
    "name": "Xylókastro",
    "lat": 38.07762,
    "lng": 22.63166
  },
  {
    "id": 736245,
    "name": "Fíliro",
    "lat": 40.69151,
    "lng": 23.0046
  },
  {
    "id": 256930,
    "name": "Mýrina",
    "lat": 39.87483,
    "lng": 25.06359
  },
  {
    "id": 736261,
    "name": "Féres",
    "lat": 40.89305,
    "lng": 26.17234
  },
  {
    "id": 408686,
    "name": "Archángelos",
    "lat": 36.21492,
    "lng": 28.11487
  },
  {
    "id": 734564,
    "name": "Plagiári",
    "lat": 40.47276,
    "lng": 22.9579
  },
  {
    "id": 251606,
    "name": "Vrontádos",
    "lat": 38.40876,
    "lng": 26.12948
  },
  {
    "id": 256696,
    "name": "Mourniés",
    "lat": 35.48228,
    "lng": 24.01253
  },
  {
    "id": 255721,
    "name": "Páros",
    "lat": 37.08333,
    "lng": 25.15
  },
  {
    "id": 252862,
    "name": "Tympáki",
    "lat": 35.07286,
    "lng": 24.76851
  },
  {
    "id": 257395,
    "name": "Megalópoli",
    "lat": 37.40111,
    "lng": 22.14222
  },
  {
    "id": 253643,
    "name": "Skiáthos",
    "lat": 39.16227,
    "lng": 23.49089
  },
  {
    "id": 265309,
    "name": "Alivéri",
    "lat": 38.41667,
    "lng": 24.03333
  },
  {
    "id": 734310,
    "name": "Sidirókastro",
    "lat": 41.23499,
    "lng": 23.38899
  },
  {
    "id": 260935,
    "name": "Kárystos",
    "lat": 38.01333,
    "lng": 24.41611
  },
  {
    "id": 258793,
    "name": "Kryonéri",
    "lat": 38.13712,
    "lng": 23.83055
  },
  {
    "id": 259782,
    "name": "Kyparissía",
    "lat": 37.25111,
    "lng": 21.67361
  },
  {
    "id": 262869,
    "name": "Dhrosiá",
    "lat": 38.48413,
    "lng": 23.54774
  },
  {
    "id": 264390,
    "name": "Atalánti",
    "lat": 38.65111,
    "lng": 22.99917
  },
  {
    "id": 735347,
    "name": "Makrochóri",
    "lat": 40.55125,
    "lng": 22.24955
  },
  {
    "id": 6692641,
    "name": "Agios Georgis",
    "lat": 39.72363,
    "lng": 19.69969
  },
  {
    "id": 6621621,
    "name": "Koskinoù",
    "lat": 36.38794,
    "lng": 28.21506
  },
  {
    "id": 734924,
    "name": "Nigríta",
    "lat": 40.90528,
    "lng": 23.49944
  },
  {
    "id": 253170,
    "name": "Stylída",
    "lat": 38.91667,
    "lng": 22.61667
  },
  {
    "id": 735764,
    "name": "Chortiátis",
    "lat": 40.60954,
    "lng": 23.10014
  },
  {
    "id": 265546,
    "name": "Aiánteio",
    "lat": 37.92135,
    "lng": 23.45877
  },
  {
    "id": 255610,
    "name": "Pentéli",
    "lat": 38.05,
    "lng": 23.86667
  },
  {
    "id": 251682,
    "name": "Vrachnaíika",
    "lat": 38.10722,
    "lng": 21.47869
  },
  {
    "id": 9036675,
    "name": "Kítsi",
    "lat": 37.85181,
    "lng": 23.84068
  },
  {
    "id": 261715,
    "name": "Itéa",
    "lat": 38.43201,
    "lng": 22.42443
  },
  {
    "id": 258007,
    "name": "Magoúla",
    "lat": 38.07989,
    "lng": 23.52108
  },
  {
    "id": 263257,
    "name": "Darátsos",
    "lat": 35.49955,
    "lng": 23.97488
  },
  {
    "id": 265240,
    "name": "Ampelákia",
    "lat": 37.95055,
    "lng": 23.52803
  },
  {
    "id": 251823,
    "name": "Vónitsa",
    "lat": 38.91639,
    "lng": 20.88639
  },
  {
    "id": 408684,
    "name": "Kremastí",
    "lat": 36.40981,
    "lng": 28.1192
  },
  {
    "id": 736029,
    "name": "Kalochóri",
    "lat": 40.64189,
    "lng": 22.85734
  },
  {
    "id": 254315,
    "name": "Río",
    "lat": 38.29558,
    "lng": 21.78504
  },
  {
    "id": 264068,
    "name": "Ágioi Theódoroi",
    "lat": 37.92736,
    "lng": 23.14221
  },
  {
    "id": 262411,
    "name": "Filippiáda",
    "lat": 39.20472,
    "lng": 20.88222
  },
  {
    "id": 254067,
    "name": "Saraváli",
    "lat": 38.19036,
    "lng": 21.76244
  },
  {
    "id": 252854,
    "name": "Tínos",
    "lat": 37.53753,
    "lng": 25.16343
  },
  {
    "id": 734235,
    "name": "Skýdra",
    "lat": 40.76722,
    "lng": 22.15194
  },
  {
    "id": 252101,
    "name": "Vágia",
    "lat": 38.31748,
    "lng": 23.17752
  },
  {
    "id": 733941,
    "name": "Vasiliká",
    "lat": 40.47966,
    "lng": 23.13695
  },
  {
    "id": 734355,
    "name": "Sápes",
    "lat": 41.02861,
    "lng": 25.69306
  },
  {
    "id": 256449,
    "name": "Nerokoúros",
    "lat": 35.47587,
    "lng": 24.03995
  },
  {
    "id": 251220,
    "name": "Zevgolateió",
    "lat": 37.93333,
    "lng": 22.8
  },
  {
    "id": 736330,
    "name": "Eleftheroúpolis",
    "lat": 40.91389,
    "lng": 24.25139
  },
  {
    "id": 257859,
    "name": "Mália",
    "lat": 35.28367,
    "lng": 25.46262
  },
  {
    "id": 261720,
    "name": "Istiaía",
    "lat": 38.9552,
    "lng": 23.1521
  },
  {
    "id": 265507,
    "name": "Aitolikó",
    "lat": 38.43704,
    "lng": 21.35358
  },
  {
    "id": 251297,
    "name": "Gýtheio",
    "lat": 36.755,
    "lng": 22.56417
  },
  {
    "id": 11609622,
    "name": "Tragano",
    "lat": 37.67212,
    "lng": 21.41497
  },
  {
    "id": 736964,
    "name": "Aigínio",
    "lat": 40.50139,
    "lng": 22.54
  },
  {
    "id": 265342,
    "name": "Alíartos",
    "lat": 38.36667,
    "lng": 23.1
  },
  {
    "id": 735004,
    "name": "Néa Magnisía",
    "lat": 40.68785,
    "lng": 22.84582
  },
  {
    "id": 256886,
    "name": "Mystrás",
    "lat": 37.06853,
    "lng": 22.37216
  },
  {
    "id": 259718,
    "name": "Kíssamos",
    "lat": 35.49459,
    "lng": 23.65375
  },
  {
    "id": 735615,
    "name": "Korinós",
    "lat": 40.31659,
    "lng": 22.58817
  },
  {
    "id": 251773,
    "name": "Vouliagméni",
    "lat": 37.81423,
    "lng": 23.77892
  },
  {
    "id": 262628,
    "name": "Erétria",
    "lat": 38.40097,
    "lng": 23.8022
  },
  {
    "id": 264481,
    "name": "Asopós",
    "lat": 36.72986,
    "lng": 22.85455
  },
  {
    "id": 734187,
    "name": "Souflí",
    "lat": 41.19194,
    "lng": 26.29944
  },
  {
    "id": 2463705,
    "name": "Kanáli",
    "lat": 39.60556,
    "lng": 19.8925
  },
  {
    "id": 253673,
    "name": "Schimatári",
    "lat": 38.35,
    "lng": 23.58333
  },
  {
    "id": 265189,
    "name": "Amfilochía",
    "lat": 38.85944,
    "lng": 21.16639
  },
  {
    "id": 734447,
    "name": "Prosotsáni",
    "lat": 41.18333,
    "lng": 23.96667
  },
  {
    "id": 258873,
    "name": "Kranídi",
    "lat": 37.37974,
    "lng": 23.15969
  },
  {
    "id": 253356,
    "name": "Spétses",
    "lat": 37.26191,
    "lng": 23.15943
  },
  {
    "id": 262525,
    "name": "Fálanna",
    "lat": 39.71986,
    "lng": 22.39733
  },
  {
    "id": 262683,
    "name": "Ano Arhanes",
    "lat": 35.23333,
    "lng": 25.16667
  },
  {
    "id": 260420,
    "name": "Katsikás",
    "lat": 39.62281,
    "lng": 20.88758
  },
  {
    "id": 734989,
    "name": "Néa Raidestós",
    "lat": 40.52447,
    "lng": 23.05375
  },
  {
    "id": 263166,
    "name": "Deskáti",
    "lat": 39.92422,
    "lng": 21.81031
  },
  {
    "id": 256558,
    "name": "Neméa",
    "lat": 37.82068,
    "lng": 22.66102
  },
  {
    "id": 2463594,
    "name": "Potamós",
    "lat": 39.6242,
    "lng": 19.87826
  },
  {
    "id": 257868,
    "name": "Malesína",
    "lat": 38.62225,
    "lng": 23.2337
  },
  {
    "id": 736108,
    "name": "Irákleia",
    "lat": 41.18217,
    "lng": 23.28243
  },
  {
    "id": 257056,
    "name": "Mykonos",
    "lat": 37.44529,
    "lng": 25.32872
  },
  {
    "id": 9036676,
    "name": "Agía Marína",
    "lat": 37.82036,
    "lng": 23.84424
  },
  {
    "id": 258175,
    "name": "Lixoúri",
    "lat": 38.20133,
    "lng": 20.43706
  },
  {
    "id": 258522,
    "name": "Lechainá",
    "lat": 37.93333,
    "lng": 21.26667
  },
  {
    "id": 734154,
    "name": "Stavrós",
    "lat": 40.66498,
    "lng": 23.70015
  },
  {
    "id": 736882,
    "name": "Amýntaio",
    "lat": 40.68967,
    "lng": 21.67974
  },
  {
    "id": 736386,
    "name": "Drymós",
    "lat": 40.78099,
    "lng": 22.95889
  },
  {
    "id": 735732,
    "name": "Kýmina",
    "lat": 40.61354,
    "lng": 22.69278
  },
  {
    "id": 254865,
    "name": "Póros",
    "lat": 37.49944,
    "lng": 23.45361
  },
  {
    "id": 265245,
    "name": "Amárynthos",
    "lat": 38.393,
    "lng": 23.88492
  },
  {
    "id": 265056,
    "name": "Andravída",
    "lat": 37.90588,
    "lng": 21.26936
  },
  {
    "id": 736166,
    "name": "Gouménissa",
    "lat": 40.94604,
    "lng": 22.44974
  },
  {
    "id": 735472,
    "name": "Lagyná",
    "lat": 40.72351,
    "lng": 23.0042
  },
  {
    "id": 735654,
    "name": "Kolindrós",
    "lat": 40.47888,
    "lng": 22.48319
  },
  {
    "id": 264642,
    "name": "Arkalochóri",
    "lat": 35.14634,
    "lng": 25.26538
  },
  {
    "id": 736082,
    "name": "Kalampáki",
    "lat": 41.05,
    "lng": 24.18333
  },
  {
    "id": 734994,
    "name": "Néa Péramos",
    "lat": 40.83854,
    "lng": 24.3013
  },
  {
    "id": 254258,
    "name": "Rodhítsa",
    "lat": 38.88829,
    "lng": 22.4641
  },
  {
    "id": 262757,
    "name": "Eleoúsa",
    "lat": 39.70639,
    "lng": 20.7925
  },
  {
    "id": 259919,
    "name": "Chóra",
    "lat": 37.05106,
    "lng": 21.7169
  },
  {
    "id": 263805,
    "name": "Áyios Nikólaos",
    "lat": 38.42051,
    "lng": 23.64772
  },
  {
    "id": 735731,
    "name": "Kimméria",
    "lat": 41.14788,
    "lng": 24.93869
  },
  {
    "id": 736618,
    "name": "Ágios Athanásios",
    "lat": 41.07463,
    "lng": 24.24545
  },
  {
    "id": 735975,
    "name": "Kardía",
    "lat": 40.46909,
    "lng": 22.99378
  },
  {
    "id": 734328,
    "name": "Sérvia",
    "lat": 40.17972,
    "lng": 21.99444
  },
  {
    "id": 733911,
    "name": "Velventós",
    "lat": 40.25532,
    "lng": 22.07543
  },
  {
    "id": 256344,
    "name": "Oía",
    "lat": 36.4626,
    "lng": 25.37637
  },
  {
    "id": 734256,
    "name": "Leptokaryá",
    "lat": 40.06032,
    "lng": 22.5612
  },
  {
    "id": 735540,
    "name": "Krinídes",
    "lat": 41.01396,
    "lng": 24.29647
  },
  {
    "id": 261133,
    "name": "Kapandríti",
    "lat": 38.21579,
    "lng": 23.87938
  },
  {
    "id": 251685,
    "name": "Vrakháti",
    "lat": 37.95895,
    "lng": 22.80573
  },
  {
    "id": 255507,
    "name": "Perivólia",
    "lat": 35.48491,
    "lng": 23.99421
  },
  {
    "id": 252291,
    "name": "Várda",
    "lat": 38.03058,
    "lng": 21.36506
  },
  {
    "id": 735400,
    "name": "Lití",
    "lat": 40.74533,
    "lng": 22.97982
  },
  {
    "id": 735231,
    "name": "Melissochóri",
    "lat": 40.76796,
    "lng": 22.92858
  },
  {
    "id": 256428,
    "name": "Níkaia",
    "lat": 39.56667,
    "lng": 22.46667
  },
  {
    "id": 256504,
    "name": "Oichalía",
    "lat": 39.60827,
    "lng": 21.97996
  },
  {
    "id": 736130,
    "name": "Ierissós",
    "lat": 40.39748,
    "lng": 23.87505
  },
  {
    "id": 734094,
    "name": "Thásos",
    "lat": 40.77806,
    "lng": 24.70944
  },
  {
    "id": 10175086,
    "name": "Kardamítsia",
    "lat": 39.67816,
    "lng": 20.81956
  },
  {
    "id": 262144,
    "name": "Galatás",
    "lat": 35.49864,
    "lng": 23.96341
  },
  {
    "id": 734939,
    "name": "Néos Marmarás",
    "lat": 40.0961,
    "lng": 23.78323
  },
  {
    "id": 2463800,
    "name": "Alepoú",
    "lat": 39.61594,
    "lng": 19.89564
  },
  {
    "id": 255773,
    "name": "Paralía Avlídhos",
    "lat": 38.38002,
    "lng": 23.62842
  },
  {
    "id": 734198,
    "name": "Sochós",
    "lat": 40.81788,
    "lng": 23.35546
  },
  {
    "id": 736039,
    "name": "Kallithéa",
    "lat": 40.2739,
    "lng": 22.57775
  },
  {
    "id": 736638,
    "name": "Agía Triáda",
    "lat": 40.50003,
    "lng": 22.87351
  },
  {
    "id": 252062,
    "name": "Vélo",
    "lat": 37.9761,
    "lng": 22.75985
  },
  {
    "id": 735803,
    "name": "Chalkidóna",
    "lat": 40.73184,
    "lng": 22.59992
  },
  {
    "id": 8718077,
    "name": "Chlói",
    "lat": 40.53918,
    "lng": 21.25923
  },
  {
    "id": 734979,
    "name": "Néa Tríglia",
    "lat": 40.30575,
    "lng": 23.2066
  },
  {
    "id": 252239,
    "name": "Vartholomió",
    "lat": 37.86219,
    "lng": 21.20575
  },
  {
    "id": 735327,
    "name": "Maniákoi",
    "lat": 40.50064,
    "lng": 21.24446
  },
  {
    "id": 262969,
    "name": "Dhráfi",
    "lat": 38.02375,
    "lng": 23.90788
  },
  {
    "id": 733802,
    "name": "Géfyra",
    "lat": 40.73253,
    "lng": 22.69359
  },
  {
    "id": 735002,
    "name": "Néa Mesimvría",
    "lat": 40.75158,
    "lng": 22.76904
  },
  {
    "id": 252074,
    "name": "Velestíno",
    "lat": 39.38181,
    "lng": 22.74616
  },
  {
    "id": 735235,
    "name": "Melíki",
    "lat": 40.51685,
    "lng": 22.39599
  },
  {
    "id": 262133,
    "name": "Galaxídhion",
    "lat": 38.38067,
    "lng": 22.38001
  },
  {
    "id": 258500,
    "name": "Leonídio",
    "lat": 37.16679,
    "lng": 22.85773
  },
  {
    "id": 256833,
    "name": "Moláoi",
    "lat": 36.80757,
    "lng": 22.85132
  },
  {
    "id": 265191,
    "name": "Amfíkleia",
    "lat": 38.63912,
    "lng": 22.59171
  },
  {
    "id": 735521,
    "name": "Krókos",
    "lat": 40.26349,
    "lng": 21.8176
  },
  {
    "id": 254949,
    "name": "Plomári",
    "lat": 38.97527,
    "lng": 26.37137
  },
  {
    "id": 734868,
    "name": "Ormýlia",
    "lat": 40.29451,
    "lng": 23.54332
  },
  {
    "id": 259806,
    "name": "Kými",
    "lat": 38.63477,
    "lng": 24.10287
  },
  {
    "id": 10175092,
    "name": "Eksochí",
    "lat": 39.68744,
    "lng": 20.8224
  },
  {
    "id": 258315,
    "name": "Limín Khersonísou",
    "lat": 35.32297,
    "lng": 25.39275
  },
  {
    "id": 734946,
    "name": "Néo Rýsi",
    "lat": 40.49605,
    "lng": 22.98794
  },
  {
    "id": 735636,
    "name": "Kónitsa",
    "lat": 40.04861,
    "lng": 20.75667
  },
  {
    "id": 262426,
    "name": "Fylí",
    "lat": 38.10235,
    "lng": 23.66901
  },
  {
    "id": 258882,
    "name": "Kraniá Elassónas",
    "lat": 39.95094,
    "lng": 21.97078
  },
  {
    "id": 258427,
    "name": "Lefkímmi",
    "lat": 39.42336,
    "lng": 20.07094
  },
  {
    "id": 255945,
    "name": "Panaitólion",
    "lat": 38.58316,
    "lng": 21.44729
  },
  {
    "id": 7324476,
    "name": "Saronída",
    "lat": 37.74809,
    "lng": 23.91059
  },
  {
    "id": 256339,
    "name": "Oinófyta",
    "lat": 38.31163,
    "lng": 23.64
  },
  {
    "id": 253302,
    "name": "Stamáta",
    "lat": 38.12546,
    "lng": 23.88038
  },
  {
    "id": 736661,
    "name": "Axioúpoli",
    "lat": 40.98582,
    "lng": 22.54165
  },
  {
    "id": 263696,
    "name": "Ágios Vasíleios",
    "lat": 38.31464,
    "lng": 21.8164
  },
  {
    "id": 253581,
    "name": "Skópelos",
    "lat": 39.12144,
    "lng": 23.72686
  },
  {
    "id": 255646,
    "name": "Pediní",
    "lat": 39.59994,
    "lng": 20.84261
  },
  {
    "id": 262609,
    "name": "Erythrés",
    "lat": 38.21741,
    "lng": 23.32234
  },
  {
    "id": 736694,
    "name": "Asproválta",
    "lat": 40.73049,
    "lng": 23.7118
  },
  {
    "id": 734938,
    "name": "Néos Mylótopos",
    "lat": 40.81872,
    "lng": 22.35489
  },
  {
    "id": 260572,
    "name": "Katochí",
    "lat": 38.41237,
    "lng": 21.25258
  },
  {
    "id": 264283,
    "name": "Agiá",
    "lat": 39.71901,
    "lng": 22.75869
  },
  {
    "id": 256520,
    "name": "Neochórion",
    "lat": 38.40847,
    "lng": 21.27511
  },
  {
    "id": 253739,
    "name": "Skála",
    "lat": 36.85,
    "lng": 22.66667
  },
  {
    "id": 258744,
    "name": "Krousón",
    "lat": 35.23062,
    "lng": 24.98291
  },
  {
    "id": 261681,
    "name": "Kainoúryion",
    "lat": 38.60453,
    "lng": 21.48776
  },
  {
    "id": 8527512,
    "name": "Violí Charáki",
    "lat": 35.35864,
    "lng": 24.43857
  },
  {
    "id": 256606,
    "name": "Néa Kíos",
    "lat": 37.59023,
    "lng": 22.74342
  },
  {
    "id": 735948,
    "name": "Kassándreia",
    "lat": 40.04835,
    "lng": 23.41362
  },
  {
    "id": 258045,
    "name": "Loutrópoli Thermís",
    "lat": 39.18019,
    "lng": 26.48558
  },
  {
    "id": 261211,
    "name": "Kaména Voúrla",
    "lat": 38.77844,
    "lng": 22.78573
  },
  {
    "id": 260473,
    "name": "Káto Tithoréa",
    "lat": 38.60751,
    "lng": 22.71348
  },
  {
    "id": 264221,
    "name": "Agía Marína",
    "lat": 37.1543,
    "lng": 26.85162
  },
  {
    "id": 736886,
    "name": "Amygdaleónas",
    "lat": 40.96346,
    "lng": 24.36007
  },
  {
    "id": 256593,
    "name": "Néa Palátia",
    "lat": 38.31942,
    "lng": 23.79649
  },
  {
    "id": 735769,
    "name": "Choristí",
    "lat": 41.13056,
    "lng": 24.20843
  },
  {
    "id": 256173,
    "name": "Palaiá Fókaia",
    "lat": 37.71998,
    "lng": 23.94792
  },
  {
    "id": 734916,
    "name": "Níkiti",
    "lat": 40.22204,
    "lng": 23.66837
  },
  {
    "id": 444350,
    "name": "Zipári",
    "lat": 36.87696,
    "lng": 27.20532
  },
  {
    "id": 10235571,
    "name": "Pláka Dílesi",
    "lat": 38.3495,
    "lng": 23.65056
  },
  {
    "id": 253360,
    "name": "Spercheiáda",
    "lat": 38.90656,
    "lng": 22.12792
  },
  {
    "id": 256589,
    "name": "Neápoli",
    "lat": 35.25627,
    "lng": 25.60415
  },
  {
    "id": 734978,
    "name": "Néa Výssa",
    "lat": 41.58449,
    "lng": 26.54318
  },
  {
    "id": 733818,
    "name": "Xiropótamos",
    "lat": 41.19206,
    "lng": 24.10385
  },
  {
    "id": 254917,
    "name": "Polichnítos",
    "lat": 39.07911,
    "lng": 26.18215
  },
  {
    "id": 264714,
    "name": "Aráchova",
    "lat": 38.47958,
    "lng": 22.5835
  },
  {
    "id": 735390,
    "name": "Livádi",
    "lat": 40.12625,
    "lng": 22.15753
  },
  {
    "id": 258521,
    "name": "Lékhaio",
    "lat": 37.93279,
    "lng": 22.85002
  },
  {
    "id": 865238,
    "name": "Eirinoúpoli",
    "lat": 40.67806,
    "lng": 22.19278
  },
  {
    "id": 255788,
    "name": "Paradeísi",
    "lat": 36.39967,
    "lng": 28.08368
  },
  {
    "id": 256653,
    "name": "Náousa",
    "lat": 37.12181,
    "lng": 25.24014
  },
  {
    "id": 735264,
    "name": "Megáli Panagía",
    "lat": 40.44505,
    "lng": 23.67999
  },
  {
    "id": 736859,
    "name": "Anatolikó",
    "lat": 40.66152,
    "lng": 22.7119
  },
  {
    "id": 256054,
    "name": "Pálairos",
    "lat": 38.783,
    "lng": 20.88183
  },
  {
    "id": 736137,
    "name": "Íasmos",
    "lat": 41.12747,
    "lng": 25.18573
  },
  {
    "id": 8989471,
    "name": "Néa Vrasná",
    "lat": 40.70592,
    "lng": 23.6985
  },
  {
    "id": 251681,
    "name": "Vrachnaíika",
    "lat": 38.16253,
    "lng": 21.66693
  },
  {
    "id": 264416,
    "name": "Astakós",
    "lat": 38.53556,
    "lng": 21.08135
  },
  {
    "id": 255760,
    "name": "Paramythiá",
    "lat": 39.47111,
    "lng": 20.51111
  },
  {
    "id": 254257,
    "name": "Rododáfni",
    "lat": 38.26976,
    "lng": 22.04875
  },
  {
    "id": 258075,
    "name": "Loutrá Aidhipsoú",
    "lat": 38.85695,
    "lng": 23.04739
  },
  {
    "id": 258182,
    "name": "Livanátes",
    "lat": 38.711,
    "lng": 23.0503
  },
  {
    "id": 255470,
    "name": "Petalídi",
    "lat": 36.95847,
    "lng": 21.92703
  },
  {
    "id": 257669,
    "name": "Markópoulo Oropoú",
    "lat": 38.2898,
    "lng": 23.82475
  },
  {
    "id": 264806,
    "name": "Anógeia",
    "lat": 35.29084,
    "lng": 24.88412
  },
  {
    "id": 736207,
    "name": "Galátista",
    "lat": 40.4682,
    "lng": 23.28015
  },
  {
    "id": 734977,
    "name": "Néa Zíchni",
    "lat": 41.03204,
    "lng": 23.8287
  },
  {
    "id": 260308,
    "name": "Kéfalos",
    "lat": 36.74507,
    "lng": 26.95961
  },
  {
    "id": 252523,
    "name": "Tsarítsani",
    "lat": 39.88117,
    "lng": 22.22758
  },
  {
    "id": 254030,
    "name": "Selínia",
    "lat": 37.9332,
    "lng": 23.53147
  },
  {
    "id": 262607,
    "name": "Ermióni",
    "lat": 37.38492,
    "lng": 23.24686
  },
  {
    "id": 257083,
    "name": "Metsovo",
    "lat": 39.76944,
    "lng": 21.18222
  },
  {
    "id": 253242,
    "name": "Stavrós",
    "lat": 38.89641,
    "lng": 22.37082
  },
  {
    "id": 6692697,
    "name": "Georgioupolis",
    "lat": 35.36225,
    "lng": 24.26013
  },
  {
    "id": 258377,
    "name": "Ligourión",
    "lat": 37.61233,
    "lng": 23.03773
  },
  {
    "id": 734726,
    "name": "Pélla",
    "lat": 40.76169,
    "lng": 22.52637
  },
  {
    "id": 735418,
    "name": "Limenária",
    "lat": 40.62741,
    "lng": 24.5765
  },
  {
    "id": 263853,
    "name": "Áyios Konstandínos",
    "lat": 38.75612,
    "lng": 22.85757
  },
  {
    "id": 736210,
    "name": "Galatádes",
    "lat": 40.7559,
    "lng": 22.28062
  },
  {
    "id": 734698,
    "name": "Perístasi",
    "lat": 40.27443,
    "lng": 22.54164
  },
  {
    "id": 261167,
    "name": "Kanaláki",
    "lat": 39.23361,
    "lng": 20.6
  },
  {
    "id": 255301,
    "name": "Pylí",
    "lat": 36.84472,
    "lng": 27.15932
  },
  {
    "id": 735959,
    "name": "Símantra",
    "lat": 40.34563,
    "lng": 23.31026
  },
  {
    "id": 252747,
    "name": "Traganón",
    "lat": 37.89789,
    "lng": 21.31245
  },
  {
    "id": 735003,
    "name": "Néa Málgara",
    "lat": 40.60985,
    "lng": 22.68196
  },
  {
    "id": 251896,
    "name": "Vlachiótis",
    "lat": 36.86094,
    "lng": 22.70831
  },
  {
    "id": 734943,
    "name": "Néo Soúli",
    "lat": 41.09397,
    "lng": 23.64376
  },
  {
    "id": 735444,
    "name": "Lefkónas",
    "lat": 41.10029,
    "lng": 23.49658
  },
  {
    "id": 252164,
    "name": "Vathí",
    "lat": 38.4049,
    "lng": 23.60332
  },
  {
    "id": 251292,
    "name": "Zagorá",
    "lat": 39.45,
    "lng": 23.1
  },
  {
    "id": 255736,
    "name": "Párga",
    "lat": 39.28572,
    "lng": 20.40044
  },
  {
    "id": 252920,
    "name": "Firá",
    "lat": 36.42107,
    "lng": 25.43087
  },
  {
    "id": 263219,
    "name": "Delphi",
    "lat": 38.47942,
    "lng": 22.49357
  },
  {
    "id": 262776,
    "name": "Eláteia",
    "lat": 38.6277,
    "lng": 22.76492
  },
  {
    "id": 256131,
    "name": "Palaióchora",
    "lat": 35.23128,
    "lng": 23.68185
  },
  {
    "id": 253858,
    "name": "Sými",
    "lat": 36.61547,
    "lng": 27.83619
  },
  {
    "id": 255293,
    "name": "Pýlos",
    "lat": 36.91298,
    "lng": 21.6965
  },
  {
    "id": 264146,
    "name": "Agiásos",
    "lat": 39.08295,
    "lng": 26.37218
  },
  {
    "id": 253871,
    "name": "Sykoúrio",
    "lat": 39.75947,
    "lng": 22.58
  },
  {
    "id": 733933,
    "name": "Vathýlakkos",
    "lat": 40.76942,
    "lng": 22.7088
  },
  {
    "id": 736733,
    "name": "Arnaía",
    "lat": 40.48652,
    "lng": 23.59537
  },
  {
    "id": 262317,
    "name": "Folói",
    "lat": 37.78978,
    "lng": 21.71975
  },
  {
    "id": 262563,
    "name": "Evxinoúpolis",
    "lat": 39.18414,
    "lng": 22.73831
  },
  {
    "id": 265078,
    "name": "Antimácheia",
    "lat": 36.80888,
    "lng": 27.09764
  },
  {
    "id": 257975,
    "name": "Makrakómi",
    "lat": 38.9415,
    "lng": 22.11535
  },
  {
    "id": 736650,
    "name": "Agía Paraskeví",
    "lat": 40.4815,
    "lng": 23.04863
  },
  {
    "id": 260895,
    "name": "Karpathos",
    "lat": 35.50701,
    "lng": 27.21322
  },
  {
    "id": 734919,
    "name": "Nikísiani",
    "lat": 40.94739,
    "lng": 24.14311
  },
  {
    "id": 260468,
    "name": "Katoúna",
    "lat": 38.78547,
    "lng": 21.11417
  },
  {
    "id": 734575,
    "name": "Platý",
    "lat": 40.64241,
    "lng": 22.53458
  },
  {
    "id": 259730,
    "name": "Kyriáki",
    "lat": 38.35365,
    "lng": 22.78841
  },
  {
    "id": 735960,
    "name": "Karítsa",
    "lat": 40.18745,
    "lng": 22.48171
  },
  {
    "id": 264396,
    "name": "Ástros",
    "lat": 37.40395,
    "lng": 22.72118
  },
  {
    "id": 256596,
    "name": "Néa Manoláda",
    "lat": 38.05378,
    "lng": 21.38189
  },
  {
    "id": 252569,
    "name": "Trópaia",
    "lat": 37.73235,
    "lng": 21.95895
  },
  {
    "id": 251250,
    "name": "Zarós",
    "lat": 35.1303,
    "lng": 24.90412
  },
  {
    "id": 735630,
    "name": "Kopanós",
    "lat": 40.63382,
    "lng": 22.12893
  },
  {
    "id": 260987,
    "name": "Karditsomagoúla",
    "lat": 39.39061,
    "lng": 21.9233
  },
  {
    "id": 733842,
    "name": "Vrontoú",
    "lat": 40.19356,
    "lng": 22.43203
  },
  {
    "id": 256603,
    "name": "Néa Lámpsakos",
    "lat": 38.43729,
    "lng": 23.62824
  },
  {
    "id": 734791,
    "name": "Palaió Tsiflíki",
    "lat": 40.90495,
    "lng": 24.35083
  },
  {
    "id": 264181,
    "name": "Agía Paraskeví",
    "lat": 39.24792,
    "lng": 26.27178
  },
  {
    "id": 262143,
    "name": "Galatás",
    "lat": 37.49618,
    "lng": 23.44886
  },
  {
    "id": 262701,
    "name": "Eloúnda",
    "lat": 35.265,
    "lng": 25.72127
  },
  {
    "id": 734102,
    "name": "Terpní",
    "lat": 40.91643,
    "lng": 23.48137
  },
  {
    "id": 733759,
    "name": "Zagkliveri",
    "lat": 40.57146,
    "lng": 23.28878
  },
  {
    "id": 264114,
    "name": "Agía Varvára",
    "lat": 35.13715,
    "lng": 25.00131
  },
  {
    "id": 736354,
    "name": "Echínos",
    "lat": 41.27558,
    "lng": 24.97237
  },
  {
    "id": 735014,
    "name": "Néa Karváli",
    "lat": 40.96148,
    "lng": 24.51132
  },
  {
    "id": 734213,
    "name": "Skoútari",
    "lat": 41.01871,
    "lng": 23.51971
  },
  {
    "id": 7303252,
    "name": "Káto Goúves",
    "lat": 35.32934,
    "lng": 25.31353
  },
  {
    "id": 259452,
    "name": "Kompóti",
    "lat": 39.10255,
    "lng": 21.08389
  },
  {
    "id": 260478,
    "name": "Káto Soúlion",
    "lat": 38.16803,
    "lng": 24.01628
  },
  {
    "id": 8740260,
    "name": "Anthoúsa",
    "lat": 38.02544,
    "lng": 23.87617
  },
  {
    "id": 262420,
    "name": "Filiátes",
    "lat": 39.60111,
    "lng": 20.31194
  },
  {
    "id": 736921,
    "name": "Alistráti",
    "lat": 41.06443,
    "lng": 23.95751
  },
  {
    "id": 256662,
    "name": "Mouzáki",
    "lat": 39.42972,
    "lng": 21.66361
  },
  {
    "id": 259750,
    "name": "Kypséli",
    "lat": 37.76021,
    "lng": 23.45448
  },
  {
    "id": 256944,
    "name": "Mindilóglion",
    "lat": 38.18387,
    "lng": 21.70133
  },
  {
    "id": 736971,
    "name": "Aianí",
    "lat": 40.16381,
    "lng": 21.81945
  },
  {
    "id": 261996,
    "name": "Gónnoi",
    "lat": 39.86153,
    "lng": 22.47647
  },
  {
    "id": 9036774,
    "name": "Dióni",
    "lat": 38.02328,
    "lng": 23.93286
  },
  {
    "id": 256509,
    "name": "Neochóri",
    "lat": 39.07025,
    "lng": 21.01892
  },
  {
    "id": 735178,
    "name": "Mesopotamía",
    "lat": 40.50252,
    "lng": 21.1611
  },
  {
    "id": 260128,
    "name": "Khalkoútsion",
    "lat": 38.33263,
    "lng": 23.73188
  },
  {
    "id": 258497,
    "name": "Lepenoú",
    "lat": 38.70839,
    "lng": 21.2897
  },
  {
    "id": 735638,
    "name": "Kontariótissa",
    "lat": 40.22754,
    "lng": 22.461
  },
  {
    "id": 734119,
    "name": "Tagarádes",
    "lat": 40.48893,
    "lng": 23.02229
  },
  {
    "id": 736208,
    "name": "Galatiní",
    "lat": 40.31966,
    "lng": 21.55148
  },
  {
    "id": 264662,
    "name": "Aria",
    "lat": 37.57372,
    "lng": 22.83539
  },
  {
    "id": 737002,
    "name": "Ádendro",
    "lat": 40.67131,
    "lng": 22.60466
  },
  {
    "id": 263535,
    "name": "Rodópoli",
    "lat": 38.11669,
    "lng": 23.87572
  },
  {
    "id": 259229,
    "name": "Kostakioí",
    "lat": 39.13672,
    "lng": 20.95761
  },
  {
    "id": 734377,
    "name": "Rodolívos",
    "lat": 40.92055,
    "lng": 23.97489
  },
  {
    "id": 258306,
    "name": "Límni",
    "lat": 38.76667,
    "lng": 23.31667
  },
  {
    "id": 6951006,
    "name": "Pánormos",
    "lat": 36.97156,
    "lng": 26.93727
  },
  {
    "id": 734120,
    "name": "Svorónos",
    "lat": 40.26805,
    "lng": 22.46366
  },
  {
    "id": 735651,
    "name": "Kolchikón",
    "lat": 40.75662,
    "lng": 23.13377
  },
  {
    "id": 734336,
    "name": "Sélero",
    "lat": 41.13382,
    "lng": 24.99408
  },
  {
    "id": 263646,
    "name": "Ágios Geórgios",
    "lat": 38.39343,
    "lng": 22.93189
  },
  {
    "id": 260557,
    "name": "Kleitoría",
    "lat": 37.897,
    "lng": 22.12208
  },
  {
    "id": 258091,
    "name": "Loúros",
    "lat": 39.166,
    "lng": 20.75608
  },
  {
    "id": 734061,
    "name": "Tycheró",
    "lat": 41.02878,
    "lng": 26.29455
  },
  {
    "id": 261772,
    "name": "Íos",
    "lat": 36.72293,
    "lng": 25.2817
  },
  {
    "id": 734722,
    "name": "Pentálofos",
    "lat": 40.74296,
    "lng": 22.85256
  },
  {
    "id": 735348,
    "name": "Makrýgialos",
    "lat": 40.41551,
    "lng": 22.60392
  },
  {
    "id": 255319,
    "name": "Pikérmi",
    "lat": 38.00161,
    "lng": 23.94075
  },
  {
    "id": 251317,
    "name": "Yimnón",
    "lat": 38.44048,
    "lng": 23.884
  },
  {
    "id": 735023,
    "name": "Néa Éfesos",
    "lat": 40.22923,
    "lng": 22.49811
  },
  {
    "id": 264223,
    "name": "Agía Marína",
    "lat": 35.51778,
    "lng": 23.92675
  },
  {
    "id": 735856,
    "name": "Kavallári",
    "lat": 40.71539,
    "lng": 23.04588
  },
  {
    "id": 252989,
    "name": "Terpsithéa",
    "lat": 39.61898,
    "lng": 22.35087
  },
  {
    "id": 736316,
    "name": "Episkopí",
    "lat": 40.68748,
    "lng": 22.1364
  },
  {
    "id": 734664,
    "name": "Petroússa",
    "lat": 41.1947,
    "lng": 24.01731
  },
  {
    "id": 256865,
    "name": "Mytilinioí",
    "lat": 37.72716,
    "lng": 26.90747
  },
  {
    "id": 263098,
    "name": "Dílesi",
    "lat": 38.33762,
    "lng": 23.67077
  },
  {
    "id": 736692,
    "name": "Ássiros",
    "lat": 40.82106,
    "lng": 23.03137
  },
  {
    "id": 256824,
    "name": "Mólos",
    "lat": 38.80998,
    "lng": 22.64544
  },
  {
    "id": 253218,
    "name": "Stefanovíkeio",
    "lat": 39.46354,
    "lng": 22.74198
  },
  {
    "id": 9960216,
    "name": "Paralía Vérgas",
    "lat": 37.00708,
    "lng": 22.15676
  },
  {
    "id": 735961,
    "name": "Karyótissa",
    "lat": 40.76915,
    "lng": 22.31331
  },
  {
    "id": 252946,
    "name": "Thérmo",
    "lat": 38.57358,
    "lng": 21.66628
  },
  {
    "id": 258672,
    "name": "Lakkí",
    "lat": 37.13344,
    "lng": 26.85237
  },
  {
    "id": 735872,
    "name": "Káto Scholári",
    "lat": 40.42906,
    "lng": 23.02978
  },
  {
    "id": 735025,
    "name": "Néa Apollonía",
    "lat": 40.62558,
    "lng": 23.44074
  },
  {
    "id": 262636,
    "name": "Epitálio",
    "lat": 37.62675,
    "lng": 21.49528
  },
  {
    "id": 255458,
    "name": "Péta",
    "lat": 39.16667,
    "lng": 21.03472
  },
  {
    "id": 736322,
    "name": "Néa Kerasiá",
    "lat": 40.47539,
    "lng": 22.86891
  },
  {
    "id": 262696,
    "name": "Emporeío",
    "lat": 36.35816,
    "lng": 25.44615
  },
  {
    "id": 735021,
    "name": "Néa Fókaia",
    "lat": 40.13333,
    "lng": 23.39754
  },
  {
    "id": 264638,
    "name": "Arkhaía Kórinthos",
    "lat": 37.90953,
    "lng": 22.88353
  },
  {
    "id": 733798,
    "name": "Genisséa",
    "lat": 41.06165,
    "lng": 24.96248
  },
  {
    "id": 734935,
    "name": "Néos Skopós",
    "lat": 41.0239,
    "lng": 23.60927
  },
  {
    "id": 734947,
    "name": "Néo Petrítsi",
    "lat": 41.27459,
    "lng": 23.29381
  },
  {
    "id": 261080,
    "name": "Pefkochóri",
    "lat": 39.98784,
    "lng": 23.61219
  },
  {
    "id": 255624,
    "name": "Pellána",
    "lat": 37.20611,
    "lng": 22.3214
  },
  {
    "id": 261003,
    "name": "Kardámaina",
    "lat": 36.78305,
    "lng": 27.14289
  },
  {
    "id": 264421,
    "name": "Ássos",
    "lat": 37.93955,
    "lng": 22.82223
  },
  {
    "id": 257621,
    "name": "Martínon",
    "lat": 38.56817,
    "lng": 23.21458
  },
  {
    "id": 265658,
    "name": "Afidnés",
    "lat": 38.20332,
    "lng": 23.83982
  },
  {
    "id": 263870,
    "name": "Agios Kirykos",
    "lat": 37.61472,
    "lng": 26.29444
  },
  {
    "id": 264094,
    "name": "Áyioi Apóstoloi",
    "lat": 38.29169,
    "lng": 23.91011
  },
  {
    "id": 734299,
    "name": "Sykiá",
    "lat": 40.03874,
    "lng": 23.94046
  },
  {
    "id": 257923,
    "name": "Makrísia",
    "lat": 37.60957,
    "lng": 21.60509
  },
  {
    "id": 261822,
    "name": "Ýdra",
    "lat": 37.34976,
    "lng": 23.4656
  },
  {
    "id": 262159,
    "name": "Gaïtánion",
    "lat": 37.79134,
    "lng": 20.87407
  },
  {
    "id": 254990,
    "name": "Platýkampos",
    "lat": 39.61667,
    "lng": 22.53333
  },
  {
    "id": 252166,
    "name": "Vathý",
    "lat": 37.74692,
    "lng": 26.98316
  },
  {
    "id": 254115,
    "name": "Samos",
    "lat": 37.75427,
    "lng": 26.97699
  },
  {
    "id": 258842,
    "name": "Kréstena",
    "lat": 37.59193,
    "lng": 21.62034
  },
  {
    "id": 265627,
    "name": "Agnanteró",
    "lat": 39.48586,
    "lng": 21.84789
  },
  {
    "id": 258933,
    "name": "Koutsopódi",
    "lat": 37.68426,
    "lng": 22.71355
  },
  {
    "id": 257448,
    "name": "Megála Kalývia",
    "lat": 39.49693,
    "lng": 21.78802
  },
  {
    "id": 736222,
    "name": "Fotolívos",
    "lat": 41.06013,
    "lng": 24.04724
  },
  {
    "id": 261708,
    "name": "Itháki",
    "lat": 38.36421,
    "lng": 20.71848
  },
  {
    "id": 8145343,
    "name": "Maritsá",
    "lat": 36.36045,
    "lng": 28.1171
  },
  {
    "id": 255585,
    "name": "Pérama",
    "lat": 39.69331,
    "lng": 20.84656
  },
  {
    "id": 262993,
    "name": "Dório",
    "lat": 37.28824,
    "lng": 21.85625
  },
  {
    "id": 260144,
    "name": "Chálki",
    "lat": 39.56853,
    "lng": 22.54017
  },
  {
    "id": 257948,
    "name": "Makrychóri",
    "lat": 39.8,
    "lng": 22.48333
  },
  {
    "id": 264374,
    "name": "Athíkia",
    "lat": 37.81675,
    "lng": 22.92939
  },
  {
    "id": 735196,
    "name": "Mesiméri",
    "lat": 40.41344,
    "lng": 23.0075
  },
  {
    "id": 260804,
    "name": "Kastélli",
    "lat": 35.20902,
    "lng": 25.33773
  },
  {
    "id": 261571,
    "name": "Kálamos",
    "lat": 38.28447,
    "lng": 23.86308
  },
  {
    "id": 735750,
    "name": "Chrysochóri",
    "lat": 40.93328,
    "lng": 24.71088
  },
  {
    "id": 254842,
    "name": "Pórto Chéli",
    "lat": 37.32786,
    "lng": 23.14384
  },
  {
    "id": 261871,
    "name": "Graviá",
    "lat": 38.67156,
    "lng": 22.43118
  },
  {
    "id": 262558,
    "name": "Examília",
    "lat": 37.89736,
    "lng": 22.92832
  },
  {
    "id": 256872,
    "name": "Mytikas",
    "lat": 38.44373,
    "lng": 23.65365
  },
  {
    "id": 734757,
    "name": "Paralía",
    "lat": 40.2671,
    "lng": 22.59615
  },
  {
    "id": 265038,
    "name": "Androúsa",
    "lat": 37.11008,
    "lng": 21.94343
  },
  {
    "id": 257814,
    "name": "Mantoúdi",
    "lat": 38.79808,
    "lng": 23.47967
  },
  {
    "id": 255305,
    "name": "Pýli",
    "lat": 39.45806,
    "lng": 21.61889
  },
  {
    "id": 264519,
    "name": "Argyropoúli",
    "lat": 39.82567,
    "lng": 22.30689
  },
  {
    "id": 261396,
    "name": "Kalloní",
    "lat": 39.23318,
    "lng": 26.20724
  },
  {
    "id": 736071,
    "name": "Kalí",
    "lat": 40.81931,
    "lng": 22.17761
  },
  {
    "id": 736243,
    "name": "Filótas",
    "lat": 40.6252,
    "lng": 21.70851
  },
  {
    "id": 735375,
    "name": "Lófos",
    "lat": 40.24395,
    "lng": 22.38033
  },
  {
    "id": 736581,
    "name": "Ágios Geórgios",
    "lat": 40.60215,
    "lng": 22.1943
  },
  {
    "id": 255750,
    "name": "Proástio",
    "lat": 39.48682,
    "lng": 21.90288
  },
  {
    "id": 255030,
    "name": "Plátanos",
    "lat": 37.66731,
    "lng": 21.61108
  },
  {
    "id": 734958,
    "name": "Neochoroúda",
    "lat": 40.73817,
    "lng": 22.87557
  },
  {
    "id": 259578,
    "name": "Kokkíni Cháni",
    "lat": 35.32827,
    "lng": 25.2581
  },
  {
    "id": 260604,
    "name": "Káto Glykóvrysi",
    "lat": 36.82791,
    "lng": 22.77732
  },
  {
    "id": 260542,
    "name": "Káto Lekhónia",
    "lat": 39.33091,
    "lng": 23.03957
  },
  {
    "id": 263171,
    "name": "Desfína",
    "lat": 38.41685,
    "lng": 22.52928
  },
  {
    "id": 253737,
    "name": "Skála",
    "lat": 37.32218,
    "lng": 26.543
  },
  {
    "id": 734454,
    "name": "Prómachoi",
    "lat": 41.02517,
    "lng": 22.00437
  },
  {
    "id": 736288,
    "name": "Evropós",
    "lat": 40.89703,
    "lng": 22.55277
  },
  {
    "id": 253614,
    "name": "Skýros",
    "lat": 38.90417,
    "lng": 24.56306
  },
  {
    "id": 253666,
    "name": "Schísma Eloúndas",
    "lat": 35.25757,
    "lng": 25.72796
  },
  {
    "id": 736682,
    "name": "Áthyra",
    "lat": 40.82615,
    "lng": 22.59279
  },
  {
    "id": 252939,
    "name": "Thesprotikó",
    "lat": 39.25114,
    "lng": 20.78528
  },
  {
    "id": 736598,
    "name": "Ágios Nikólaos",
    "lat": 40.24926,
    "lng": 23.69616
  },
  {
    "id": 735434,
    "name": "Lianovérgi",
    "lat": 40.63526,
    "lng": 22.5082
  },
  {
    "id": 734396,
    "name": "Ritíni",
    "lat": 40.28835,
    "lng": 22.28361
  },
  {
    "id": 262735,
    "name": "Elikístra",
    "lat": 38.21592,
    "lng": 21.80117
  },
  {
    "id": 734018,
    "name": "Tríkala",
    "lat": 40.59814,
    "lng": 22.55733
  },
  {
    "id": 251187,
    "name": "Zonianá",
    "lat": 35.29502,
    "lng": 24.82944
  },
  {
    "id": 256664,
    "name": "Mouzaki",
    "lat": 37.73565,
    "lng": 20.82291
  },
  {
    "id": 259993,
    "name": "Khiliomódhi",
    "lat": 37.81016,
    "lng": 22.86972
  },
  {
    "id": 264647,
    "name": "Aristoménis",
    "lat": 37.08632,
    "lng": 21.83959
  },
  {
    "id": 733986,
    "name": "Tsotíli",
    "lat": 40.26147,
    "lng": 21.32533
  },
  {
    "id": 734987,
    "name": "Néa Sánta",
    "lat": 40.84084,
    "lng": 22.92163
  },
  {
    "id": 264793,
    "name": "Anthíli",
    "lat": 38.85,
    "lng": 22.47906
  },
  {
    "id": 255195,
    "name": "Pyrgetós",
    "lat": 39.91869,
    "lng": 22.59339
  },
  {
    "id": 253494,
    "name": "Sofikón",
    "lat": 37.79412,
    "lng": 23.05204
  },
  {
    "id": 734513,
    "name": "Pontisméno",
    "lat": 41.20885,
    "lng": 23.28325
  },
  {
    "id": 736602,
    "name": "Ágios Loukás",
    "lat": 40.71799,
    "lng": 22.29545
  },
  {
    "id": 263015,
    "name": "Dhokímion",
    "lat": 38.61352,
    "lng": 21.38072
  },
  {
    "id": 735393,
    "name": "Livaderó",
    "lat": 40.03455,
    "lng": 21.94279
  },
  {
    "id": 252213,
    "name": "Vassilies",
    "lat": 35.27064,
    "lng": 25.13783
  },
  {
    "id": 2463662,
    "name": "Kontokáli",
    "lat": 39.64436,
    "lng": 19.85194
  },
  {
    "id": 255589,
    "name": "Pérama",
    "lat": 35.3703,
    "lng": 24.70345
  },
  {
    "id": 257762,
    "name": "Manoláda",
    "lat": 38.04708,
    "lng": 21.34814
  },
  {
    "id": 734389,
    "name": "Rízia",
    "lat": 41.6249,
    "lng": 26.42771
  },
  {
    "id": 261537,
    "name": "Kalávryta",
    "lat": 38.03222,
    "lng": 22.1125
  },
  {
    "id": 261935,
    "name": "Goúrnes",
    "lat": 35.32626,
    "lng": 25.2774
  },
  {
    "id": 255689,
    "name": "Patitírion",
    "lat": 39.14657,
    "lng": 23.86494
  },
  {
    "id": 260379,
    "name": "Kavásila",
    "lat": 37.87581,
    "lng": 21.26422
  },
  {
    "id": 735005,
    "name": "Néa Mádytos",
    "lat": 40.62275,
    "lng": 23.56102
  },
  {
    "id": 259265,
    "name": "Koróni",
    "lat": 36.79526,
    "lng": 21.95794
  },
  {
    "id": 734128,
    "name": "Strymonikó",
    "lat": 41.04144,
    "lng": 23.31487
  },
  {
    "id": 256175,
    "name": "Palaiá Epídavros",
    "lat": 37.63847,
    "lng": 23.15609
  },
  {
    "id": 255495,
    "name": "Periyiáli",
    "lat": 37.94041,
    "lng": 22.83946
  },
  {
    "id": 735714,
    "name": "Kýria",
    "lat": 41.099,
    "lng": 24.28915
  },
  {
    "id": 265210,
    "name": "Ambelókipoi",
    "lat": 37.75809,
    "lng": 20.87248
  },
  {
    "id": 736226,
    "name": "Néa Flogitá",
    "lat": 40.26108,
    "lng": 23.22107
  },
  {
    "id": 252030,
    "name": "Verdikoússa",
    "lat": 39.78175,
    "lng": 21.97728
  },
  {
    "id": 734995,
    "name": "Néa Pélla",
    "lat": 40.76516,
    "lng": 22.49173
  },
  {
    "id": 253866,
    "name": "Sylivainiótika",
    "lat": 38.16139,
    "lng": 22.33156
  },
  {
    "id": 8740257,
    "name": "Aghios Panteleímon",
    "lat": 38.11643,
    "lng": 23.98182
  },
  {
    "id": 9036678,
    "name": "Karellás",
    "lat": 37.93445,
    "lng": 23.86484
  },
  {
    "id": 735282,
    "name": "Mavrothálassa",
    "lat": 40.89427,
    "lng": 23.75048
  },
  {
    "id": 256860,
    "name": "Mitrópoli",
    "lat": 39.33933,
    "lng": 21.83751
  },
  {
    "id": 10175091,
    "name": "Tsiflikópoulo",
    "lat": 39.65624,
    "lng": 20.83882
  },
  {
    "id": 735749,
    "name": "Chrysó",
    "lat": 41.05806,
    "lng": 23.65108
  },
  {
    "id": 252927,
    "name": "Thymianá",
    "lat": 38.31439,
    "lng": 26.13259
  },
  {
    "id": 257406,
    "name": "Megalochóri",
    "lat": 39.55982,
    "lng": 21.84195
  },
  {
    "id": 253272,
    "name": "Stavráki",
    "lat": 39.65614,
    "lng": 20.81806
  },
  {
    "id": 734324,
    "name": "Sevastianá",
    "lat": 40.76874,
    "lng": 22.12346
  },
  {
    "id": 735017,
    "name": "Néa Iraklítsa",
    "lat": 40.86442,
    "lng": 24.3165
  },
  {
    "id": 734183,
    "name": "Sourotí",
    "lat": 40.47274,
    "lng": 23.09197
  },
  {
    "id": 8411066,
    "name": "Néa Potídhaia",
    "lat": 40.19428,
    "lng": 23.32874
  },
  {
    "id": 734990,
    "name": "Néa Poteídaia",
    "lat": 40.19409,
    "lng": 23.32832
  },
  {
    "id": 256879,
    "name": "Míthymna",
    "lat": 39.36781,
    "lng": 26.17639
  },
  {
    "id": 736732,
    "name": "Árnissa",
    "lat": 40.79555,
    "lng": 21.83577
  },
  {
    "id": 735620,
    "name": "Koryfí",
    "lat": 40.60286,
    "lng": 22.50681
  },
  {
    "id": 736810,
    "name": "Áno Kómi",
    "lat": 40.2266,
    "lng": 21.82827
  },
  {
    "id": 258011,
    "name": "Magoúla",
    "lat": 37.08007,
    "lng": 22.40469
  },
  {
    "id": 252486,
    "name": "Tsikalariá",
    "lat": 35.47623,
    "lng": 24.06274
  },
  {
    "id": 265673,
    "name": "Aetós",
    "lat": 37.24536,
    "lng": 21.83264
  },
  {
    "id": 735497,
    "name": "Lagós",
    "lat": 41.45102,
    "lng": 26.46067
  },
  {
    "id": 255798,
    "name": "Pappádos",
    "lat": 39.03905,
    "lng": 26.45598
  },
  {
    "id": 735852,
    "name": "Kavýli",
    "lat": 41.56225,
    "lng": 26.5147
  },
  {
    "id": 263000,
    "name": "Domokós",
    "lat": 39.12722,
    "lng": 22.30028
  },
  {
    "id": 253582,
    "name": "Skópelos",
    "lat": 39.02922,
    "lng": 26.44836
  },
  {
    "id": 734155,
    "name": "Stavrós",
    "lat": 40.58939,
    "lng": 22.30861
  },
  {
    "id": 261910,
    "name": "Gra Liyiá",
    "lat": 35.01467,
    "lng": 25.69127
  },
  {
    "id": 261842,
    "name": "Grizáno",
    "lat": 39.63192,
    "lng": 22.05258
  },
  {
    "id": 736843,
    "name": "Angelochóri",
    "lat": 40.67862,
    "lng": 22.19933
  },
  {
    "id": 262383,
    "name": "Fyteíes",
    "lat": 38.69524,
    "lng": 21.18467
  },
  {
    "id": 736762,
    "name": "Aravissós",
    "lat": 40.84352,
    "lng": 22.30178
  },
  {
    "id": 736592,
    "name": "Ágios Pétros",
    "lat": 40.86725,
    "lng": 22.58298
  },
  {
    "id": 264897,
    "name": "Kopanáki",
    "lat": 37.28913,
    "lng": 21.81854
  },
  {
    "id": 252889,
    "name": "Thrapsanón",
    "lat": 35.18798,
    "lng": 25.28091
  },
  {
    "id": 254898,
    "name": "Politiká",
    "lat": 38.59673,
    "lng": 23.54457
  },
  {
    "id": 255638,
    "name": "Pelasgía",
    "lat": 38.94813,
    "lng": 22.8398
  },
  {
    "id": 252165,
    "name": "Vathý",
    "lat": 37.7642,
    "lng": 23.48011
  },
  {
    "id": 252019,
    "name": "Aktaío",
    "lat": 38.30444,
    "lng": 21.7944
  },
  {
    "id": 735679,
    "name": "Koíla",
    "lat": 40.33055,
    "lng": 21.79102
  },
  {
    "id": 734823,
    "name": "Palaiochóri",
    "lat": 40.49186,
    "lng": 23.64928
  },
  {
    "id": 736396,
    "name": "Dravískos",
    "lat": 40.92393,
    "lng": 23.87119
  },
  {
    "id": 733749,
    "name": "Zygós",
    "lat": 41.0132,
    "lng": 24.38132
  },
  {
    "id": 252680,
    "name": "Triandaíika",
    "lat": 38.6553,
    "lng": 21.38315
  },
  {
    "id": 254599,
    "name": "Profítis Ilías",
    "lat": 35.20555,
    "lng": 25.09985
  },
  {
    "id": 254283,
    "name": "Rizómylos",
    "lat": 39.42763,
    "lng": 22.74717
  },
  {
    "id": 736795,
    "name": "Mitroúsi",
    "lat": 41.07041,
    "lng": 23.46064
  },
  {
    "id": 261132,
    "name": "Kaparéllion",
    "lat": 38.23697,
    "lng": 23.21411
  },
  {
    "id": 262397,
    "name": "Filótion",
    "lat": 37.05167,
    "lng": 25.49829
  },
  {
    "id": 255562,
    "name": "Pérdika",
    "lat": 39.36967,
    "lng": 20.30419
  },
  {
    "id": 734832,
    "name": "Palaífyto",
    "lat": 40.78283,
    "lng": 22.27388
  },
  {
    "id": 734906,
    "name": "Nisí",
    "lat": 40.6361,
    "lng": 22.38884
  },
  {
    "id": 735661,
    "name": "Kokkinóchoma",
    "lat": 40.9269,
    "lng": 24.30805
  },
  {
    "id": 253817,
    "name": "Synoikismós Chavaríou",
    "lat": 37.85575,
    "lng": 21.38789
  },
  {
    "id": 9036830,
    "name": "Vlycháda",
    "lat": 38.02734,
    "lng": 23.43663
  },
  {
    "id": 265498,
    "name": "Aíyira",
    "lat": 38.14846,
    "lng": 22.35426
  },
  {
    "id": 256660,
    "name": "Mouzourás",
    "lat": 35.53885,
    "lng": 24.15554
  },
  {
    "id": 252833,
    "name": "Tolón",
    "lat": 37.52021,
    "lng": 22.8586
  },
  {
    "id": 736847,
    "name": "Agkathiá",
    "lat": 40.55535,
    "lng": 22.47083
  },
  {
    "id": 264878,
    "name": "Áno Merá",
    "lat": 37.44904,
    "lng": 25.39095
  },
  {
    "id": 262402,
    "name": "Fílla",
    "lat": 38.44177,
    "lng": 23.68306
  },
  {
    "id": 253419,
    "name": "Soúrpi",
    "lat": 39.10319,
    "lng": 22.89789
  },
  {
    "id": 262526,
    "name": "Falaisía",
    "lat": 37.28678,
    "lng": 22.17252
  },
  {
    "id": 265082,
    "name": "Antikyra",
    "lat": 38.38333,
    "lng": 22.63333
  },
  {
    "id": 735474,
    "name": "Lávara",
    "lat": 41.26957,
    "lng": 26.38522
  },
  {
    "id": 259796,
    "name": "Kinéta",
    "lat": 37.96843,
    "lng": 23.21351
  },
  {
    "id": 251888,
    "name": "Vlachópoulo",
    "lat": 37.03186,
    "lng": 21.79158
  },
  {
    "id": 733831,
    "name": "Xylaganí",
    "lat": 40.97437,
    "lng": 25.42022
  },
  {
    "id": 251366,
    "name": "Gérgeri",
    "lat": 35.13281,
    "lng": 24.94963
  },
  {
    "id": 733828,
    "name": "Xilópolis",
    "lat": 40.92669,
    "lng": 23.17854
  },
  {
    "id": 254188,
    "name": "Neápolis",
    "lat": 38.67144,
    "lng": 21.36274
  },
  {
    "id": 735821,
    "name": "Keramotí",
    "lat": 40.85591,
    "lng": 24.70595
  },
  {
    "id": 252942,
    "name": "Thespiés",
    "lat": 38.303,
    "lng": 23.15016
  },
  {
    "id": 735220,
    "name": "Melíti",
    "lat": 40.83434,
    "lng": 21.58426
  },
  {
    "id": 261903,
    "name": "Grammatikó",
    "lat": 38.20251,
    "lng": 23.96504
  },
  {
    "id": 257322,
    "name": "Meligalás",
    "lat": 37.21667,
    "lng": 21.96667
  },
  {
    "id": 253716,
    "name": "Skála Oropoú",
    "lat": 38.31964,
    "lng": 23.78763
  },
  {
    "id": 261497,
    "name": "Kalýves",
    "lat": 35.45046,
    "lng": 24.17507
  },
  {
    "id": 254849,
    "name": "Portariá",
    "lat": 39.3895,
    "lng": 22.99948
  },
  {
    "id": 265040,
    "name": "Andros",
    "lat": 37.8367,
    "lng": 24.9367
  },
  {
    "id": 736716,
    "name": "Askós",
    "lat": 40.74946,
    "lng": 23.38755
  },
  {
    "id": 735015,
    "name": "Néa Karyá",
    "lat": 40.90621,
    "lng": 24.70726
  },
  {
    "id": 258912,
    "name": "Kouvarás",
    "lat": 37.82711,
    "lng": 23.96715
  },
  {
    "id": 257535,
    "name": "Mavrommáti",
    "lat": 39.42386,
    "lng": 21.69379
  },
  {
    "id": 734216,
    "name": "Skotoússa",
    "lat": 41.12844,
    "lng": 23.38174
  },
  {
    "id": 735674,
    "name": "Koímisi",
    "lat": 41.21282,
    "lng": 23.30035
  },
  {
    "id": 735342,
    "name": "Díon",
    "lat": 40.17169,
    "lng": 22.48463
  },
  {
    "id": 735702,
    "name": "Kítros",
    "lat": 40.37399,
    "lng": 22.57862
  },
  {
    "id": 735695,
    "name": "Kleidí",
    "lat": 40.56632,
    "lng": 22.59033
  },
  {
    "id": 264547,
    "name": "Artesianó",
    "lat": 39.40194,
    "lng": 21.89649
  },
  {
    "id": 254286,
    "name": "Rízoma",
    "lat": 39.66432,
    "lng": 21.73541
  },
  {
    "id": 257434,
    "name": "Megáli Khóra",
    "lat": 38.64629,
    "lng": 21.37309
  },
  {
    "id": 251253,
    "name": "Zárkos",
    "lat": 39.6086,
    "lng": 22.12336
  },
  {
    "id": 11612310,
    "name": "Iliokentima",
    "lat": 40.94931,
    "lng": 24.78859
  },
  {
    "id": 265650,
    "name": "Afrátion",
    "lat": 38.45212,
    "lng": 23.68775
  },
  {
    "id": 734821,
    "name": "Palaiochóri",
    "lat": 40.94338,
    "lng": 24.17747
  },
  {
    "id": 251749,
    "name": "Vounoplagiá",
    "lat": 39.69161,
    "lng": 20.78597
  },
  {
    "id": 733768,
    "name": "Akrolímni",
    "lat": 40.6802,
    "lng": 22.2645
  },
  {
    "id": 265417,
    "name": "Akráta",
    "lat": 38.15469,
    "lng": 22.3183
  },
  {
    "id": 264359,
    "name": "Atsipópoulo",
    "lat": 35.35253,
    "lng": 24.43378
  },
  {
    "id": 736725,
    "name": "Arsénio",
    "lat": 40.71412,
    "lng": 22.15923
  },
  {
    "id": 252200,
    "name": "Vasilikí",
    "lat": 39.63984,
    "lng": 21.70448
  },
  {
    "id": 254924,
    "name": "Polydéndri",
    "lat": 38.216,
    "lng": 23.86806
  },
  {
    "id": 736309,
    "name": "Erátyra",
    "lat": 40.34253,
    "lng": 21.51333
  },
  {
    "id": 734496,
    "name": "Potamiá",
    "lat": 40.71633,
    "lng": 24.72859
  },
  {
    "id": 735682,
    "name": "Kleítos",
    "lat": 40.4314,
    "lng": 21.85806
  },
  {
    "id": 260176,
    "name": "Chairóneia",
    "lat": 38.49551,
    "lng": 22.84424
  },
  {
    "id": 260674,
    "name": "Katastárion",
    "lat": 37.83012,
    "lng": 20.75755
  },
  {
    "id": 255498,
    "name": "Perivóli",
    "lat": 39.41936,
    "lng": 20.01469
  },
  {
    "id": 8740252,
    "name": "Varybóbi",
    "lat": 38.12723,
    "lng": 23.78729
  },
  {
    "id": 258584,
    "name": "Lápas",
    "lat": 38.09755,
    "lng": 21.41861
  },
  {
    "id": 445298,
    "name": "Néos Oropós",
    "lat": 39.15064,
    "lng": 20.73636
  },
  {
    "id": 264482,
    "name": "Asopía",
    "lat": 38.29882,
    "lng": 23.50189
  },
  {
    "id": 735523,
    "name": "Krithiá",
    "lat": 40.84184,
    "lng": 22.98292
  },
  {
    "id": 260811,
    "name": "Kastélla",
    "lat": 38.57048,
    "lng": 23.63131
  },
  {
    "id": 264260,
    "name": "Agía Galíni",
    "lat": 35.09707,
    "lng": 24.68818
  },
  {
    "id": 258600,
    "name": "Langádhia",
    "lat": 37.68186,
    "lng": 22.03002
  },
  {
    "id": 736677,
    "name": "Ávato",
    "lat": 40.96279,
    "lng": 24.80441
  },
  {
    "id": 736628,
    "name": "Ágio Pnévma",
    "lat": 41.10142,
    "lng": 23.67992
  },
  {
    "id": 408689,
    "name": "Lárdos",
    "lat": 36.09419,
    "lng": 28.01565
  },
  {
    "id": 259720,
    "name": "Kírra",
    "lat": 38.42944,
    "lng": 22.44443
  },
  {
    "id": 265711,
    "name": "Adámas",
    "lat": 36.72506,
    "lng": 24.44685
  },
  {
    "id": 254123,
    "name": "Sámi",
    "lat": 38.25081,
    "lng": 20.64686
  },
  {
    "id": 257593,
    "name": "Mataránga",
    "lat": 38.52359,
    "lng": 21.47325
  },
  {
    "id": 254045,
    "name": "Savália",
    "lat": 37.82158,
    "lng": 21.29425
  },
  {
    "id": 736058,
    "name": "Ágios Spyrídon",
    "lat": 40.20778,
    "lng": 22.44311
  },
  {
    "id": 734819,
    "name": "Axós",
    "lat": 40.80223,
    "lng": 22.36158
  },
  {
    "id": 736056,
    "name": "Kalýves Polygýrou",
    "lat": 40.28659,
    "lng": 23.39033
  },
  {
    "id": 734733,
    "name": "Patrída",
    "lat": 40.56071,
    "lng": 22.18545
  },
  {
    "id": 258754,
    "name": "Krokeés",
    "lat": 36.88297,
    "lng": 22.54683
  },
  {
    "id": 736586,
    "name": "Ágios Vasíleios",
    "lat": 40.66424,
    "lng": 23.11373
  },
  {
    "id": 256499,
    "name": "Neochorópoulo",
    "lat": 39.62553,
    "lng": 20.83558
  },
  {
    "id": 252244,
    "name": "Varnávas",
    "lat": 38.22358,
    "lng": 23.92307
  },
  {
    "id": 251411,
    "name": "Geráki",
    "lat": 36.99227,
    "lng": 22.70663
  },
  {
    "id": 256728,
    "name": "Moúlki",
    "lat": 37.99319,
    "lng": 22.72531
  },
  {
    "id": 736192,
    "name": "Gázoros",
    "lat": 41.02557,
    "lng": 23.77574
  },
  {
    "id": 255807,
    "name": "Pappadátes",
    "lat": 39.31444,
    "lng": 20.79314
  },
  {
    "id": 258819,
    "name": "Kríkellos",
    "lat": 38.94532,
    "lng": 21.1791
  },
  {
    "id": 258241,
    "name": "Lithakiá",
    "lat": 37.71935,
    "lng": 20.83013
  },
  {
    "id": 735115,
    "name": "Mikró Monastíri",
    "lat": 40.7043,
    "lng": 22.54112
  },
  {
    "id": 263809,
    "name": "Arkoúdi",
    "lat": 37.84681,
    "lng": 21.11022
  },
  {
    "id": 736337,
    "name": "Eleftherés",
    "lat": 40.84666,
    "lng": 24.25431
  },
  {
    "id": 255161,
    "name": "Pithári",
    "lat": 35.51672,
    "lng": 24.08653
  },
  {
    "id": 252891,
    "name": "Thouría",
    "lat": 37.08356,
    "lng": 22.04891
  },
  {
    "id": 261714,
    "name": "Itéa",
    "lat": 39.45669,
    "lng": 22.16577
  },
  {
    "id": 256808,
    "name": "Monastiráki",
    "lat": 38.85053,
    "lng": 20.94458
  },
  {
    "id": 255439,
    "name": "Pétra",
    "lat": 39.32682,
    "lng": 26.17648
  },
  {
    "id": 251465,
    "name": "Géfyra",
    "lat": 36.68715,
    "lng": 23.03509
  },
  {
    "id": 255709,
    "name": "Pásion",
    "lat": 38.01294,
    "lng": 22.72814
  },
  {
    "id": 735365,
    "name": "Loutrós",
    "lat": 40.58873,
    "lng": 22.39976
  },
  {
    "id": 258759,
    "name": "Kritsá",
    "lat": 35.15821,
    "lng": 25.64459
  },
  {
    "id": 736449,
    "name": "Diavatós",
    "lat": 40.54606,
    "lng": 22.26686
  },
  {
    "id": 256284,
    "name": "Oreoí",
    "lat": 38.95034,
    "lng": 23.09191
  },
  {
    "id": 736283,
    "name": "Exaplátanos",
    "lat": 40.97643,
    "lng": 22.12958
  },
  {
    "id": 263714,
    "name": "Áyios Thomás",
    "lat": 38.27717,
    "lng": 23.58906
  },
  {
    "id": 254165,
    "name": "Royítika",
    "lat": 38.18268,
    "lng": 21.68414
  },
  {
    "id": 735299,
    "name": "Mavrochóri",
    "lat": 40.51224,
    "lng": 21.32038
  },
  {
    "id": 735881,
    "name": "Káto Miliá",
    "lat": 40.25403,
    "lng": 22.34342
  },
  {
    "id": 264679,
    "name": "Arfará",
    "lat": 37.15619,
    "lng": 22.04485
  },
  {
    "id": 264677,
    "name": "Argalastí",
    "lat": 39.22627,
    "lng": 23.21868
  },
  {
    "id": 260142,
    "name": "Chalkiádes",
    "lat": 39.15981,
    "lng": 20.93292
  },
  {
    "id": 7646358,
    "name": "Exochi",
    "lat": 40.63017,
    "lng": 23.04271
  },
  {
    "id": 252232,
    "name": "Varvásaina",
    "lat": 37.67106,
    "lng": 21.49886
  },
  {
    "id": 736107,
    "name": "Iráklion",
    "lat": 40.7568,
    "lng": 23.0356
  },
  {
    "id": 736024,
    "name": "Kalós Agrós",
    "lat": 41.10543,
    "lng": 24.0857
  },
  {
    "id": 734820,
    "name": "Palaiokómi",
    "lat": 40.87068,
    "lng": 23.90121
  },
  {
    "id": 736987,
    "name": "Áfytos",
    "lat": 40.09915,
    "lng": 23.4367
  },
  {
    "id": 262920,
    "name": "Drépanon",
    "lat": 37.53888,
    "lng": 22.89323
  },
  {
    "id": 255163,
    "name": "Pythagóreio",
    "lat": 37.69102,
    "lng": 26.94341
  },
  {
    "id": 251959,
    "name": "Vília",
    "lat": 38.16716,
    "lng": 23.33659
  },
  {
    "id": 252271,
    "name": "Vári",
    "lat": 37.39859,
    "lng": 24.94904
  },
  {
    "id": 8145316,
    "name": "Soroní",
    "lat": 36.36212,
    "lng": 28.00267
  },
  {
    "id": 263698,
    "name": "Áyios Vasílios",
    "lat": 37.79763,
    "lng": 22.79727
  },
  {
    "id": 260630,
    "name": "Káto Asítai",
    "lat": 35.20271,
    "lng": 24.99827
  },
  {
    "id": 261913,
    "name": "Graikochóri",
    "lat": 39.49789,
    "lng": 20.27608
  },
  {
    "id": 264501,
    "name": "Asímion",
    "lat": 35.04321,
    "lng": 25.09277
  },
  {
    "id": 261895,
    "name": "Grammenítsa",
    "lat": 39.18444,
    "lng": 20.97933
  },
  {
    "id": 253688,
    "name": "Skarmagkás",
    "lat": 38.01133,
    "lng": 23.60303
  },
  {
    "id": 255959,
    "name": "Pámfila",
    "lat": 39.15697,
    "lng": 26.5217
  },
  {
    "id": 736878,
    "name": "Ammochóri",
    "lat": 40.78203,
    "lng": 21.48458
  },
  {
    "id": 265544,
    "name": "Aidipsós",
    "lat": 38.87924,
    "lng": 23.04691
  },
  {
    "id": 261150,
    "name": "Kandíla",
    "lat": 38.70564,
    "lng": 20.94749
  },
  {
    "id": 733901,
    "name": "Vergína",
    "lat": 40.48654,
    "lng": 22.31735
  },
  {
    "id": 257224,
    "name": "Mesariá",
    "lat": 36.39893,
    "lng": 25.44807
  },
  {
    "id": 734963,
    "name": "Neochóri",
    "lat": 41.05231,
    "lng": 23.57997
  },
  {
    "id": 734461,
    "name": "Profítis Ilías",
    "lat": 40.81373,
    "lng": 22.16166
  },
  {
    "id": 733877,
    "name": "Vólakas",
    "lat": 41.31661,
    "lng": 24.00215
  },
  {
    "id": 260037,
    "name": "Chávari",
    "lat": 37.84842,
    "lng": 21.38403
  },
  {
    "id": 733791,
    "name": "Gerakaroú",
    "lat": 40.62666,
    "lng": 23.21566
  },
  {
    "id": 265013,
    "name": "Angelókastro",
    "lat": 38.56585,
    "lng": 21.29631
  },
  {
    "id": 259917,
    "name": "Chóra",
    "lat": 37.70374,
    "lng": 26.90454
  },
  {
    "id": 735938,
    "name": "Kastaniés",
    "lat": 41.64551,
    "lng": 26.47676
  },
  {
    "id": 734455,
    "name": "Próchoma",
    "lat": 40.79826,
    "lng": 22.66659
  },
  {
    "id": 264890,
    "name": "Áno Lekhónia",
    "lat": 39.32763,
    "lng": 23.05395
  },
  {
    "id": 258294,
    "name": "Limnokhórion",
    "lat": 38.14115,
    "lng": 21.48047
  },
  {
    "id": 256914,
    "name": "Myrsíni",
    "lat": 37.92117,
    "lng": 21.237
  },
  {
    "id": 256580,
    "name": "Néa Seléfkeia",
    "lat": 39.52461,
    "lng": 20.25519
  },
  {
    "id": 736067,
    "name": "Prínos",
    "lat": 40.7409,
    "lng": 24.57787
  },
  {
    "id": 256296,
    "name": "Omvriakí",
    "lat": 39.10118,
    "lng": 22.27106
  },
  {
    "id": 734320,
    "name": "Sfendámi",
    "lat": 40.41307,
    "lng": 22.54677
  },
  {
    "id": 264637,
    "name": "Archaía Olympía",
    "lat": 37.64788,
    "lng": 21.6271
  },
  {
    "id": 261431,
    "name": "Kallifóni",
    "lat": 39.27712,
    "lng": 21.96128
  },
  {
    "id": 254170,
    "name": "Roviés",
    "lat": 38.80971,
    "lng": 23.23073
  },
  {
    "id": 735338,
    "name": "Mándalo",
    "lat": 40.85677,
    "lng": 22.21264
  },
  {
    "id": 734499,
    "name": "Portariá",
    "lat": 40.28405,
    "lng": 23.29549
  },
  {
    "id": 2463549,
    "name": "Virós",
    "lat": 39.5834,
    "lng": 19.8827
  },
  {
    "id": 260618,
    "name": "Káto Dhiminió",
    "lat": 38.0249,
    "lng": 22.73294
  },
  {
    "id": 261283,
    "name": "Kamárai",
    "lat": 38.29881,
    "lng": 21.99892
  },
  {
    "id": 736346,
    "name": "Elaiochóri",
    "lat": 40.8203,
    "lng": 24.24373
  },
  {
    "id": 265420,
    "name": "Akraifnía",
    "lat": 38.45663,
    "lng": 23.22093
  },
  {
    "id": 264618,
    "name": "Archontochóri",
    "lat": 38.70053,
    "lng": 21.03896
  },
  {
    "id": 265340,
    "name": "Alífeira",
    "lat": 37.53923,
    "lng": 21.86266
  },
  {
    "id": 265300,
    "name": "Álli Meriá",
    "lat": 39.37039,
    "lng": 22.9835
  },
  {
    "id": 257949,
    "name": "Makrychóri",
    "lat": 39.43978,
    "lng": 21.96582
  },
  {
    "id": 256571,
    "name": "Néa Tírins",
    "lat": 37.60793,
    "lng": 22.81996
  },
  {
    "id": 253878,
    "name": "Sikyón",
    "lat": 37.9823,
    "lng": 22.72462
  },
  {
    "id": 256093,
    "name": "Palaiókipos",
    "lat": 39.05563,
    "lng": 26.45053
  },
  {
    "id": 256079,
    "name": "Palaiomonástiro",
    "lat": 39.46269,
    "lng": 21.65793
  },
  {
    "id": 253305,
    "name": "Stalís",
    "lat": 35.29257,
    "lng": 25.43292
  },
  {
    "id": 252655,
    "name": "Tríkeri",
    "lat": 39.10114,
    "lng": 23.07669
  },
  {
    "id": 736040,
    "name": "Kallithéa",
    "lat": 40.07374,
    "lng": 23.44637
  },
  {
    "id": 255196,
    "name": "Pyrgetós",
    "lat": 39.55276,
    "lng": 21.74846
  },
  {
    "id": 736845,
    "name": "Angelochóri",
    "lat": 40.49717,
    "lng": 22.8344
  },
  {
    "id": 734195,
    "name": "Sosándra",
    "lat": 40.99894,
    "lng": 22.03254
  },
  {
    "id": 734957,
    "name": "Néo Agionéri",
    "lat": 40.80826,
    "lng": 22.70733
  },
  {
    "id": 734443,
    "name": "Próti",
    "lat": 40.94411,
    "lng": 24.00118
  },
  {
    "id": 256757,
    "name": "Mória",
    "lat": 39.13248,
    "lng": 26.51698
  },
  {
    "id": 260780,
    "name": "Kastráki",
    "lat": 39.71692,
    "lng": 21.61865
  },
  {
    "id": 735490,
    "name": "Lákkoma",
    "lat": 40.39139,
    "lng": 23.05578
  },
  {
    "id": 262465,
    "name": "Fáros",
    "lat": 38.39959,
    "lng": 23.62275
  },
  {
    "id": 736014,
    "name": "Kampánis",
    "lat": 40.88951,
    "lng": 22.91682
  },
  {
    "id": 258655,
    "name": "Lálas",
    "lat": 37.70936,
    "lng": 21.72117
  },
  {
    "id": 259618,
    "name": "Koilás",
    "lat": 37.4123,
    "lng": 23.12553
  },
  {
    "id": 257122,
    "name": "Methóni",
    "lat": 36.81973,
    "lng": 21.70486
  },
  {
    "id": 736051,
    "name": "Kalí Vrýsi",
    "lat": 41.14653,
    "lng": 23.90667
  },
  {
    "id": 258108,
    "name": "Loukísia",
    "lat": 38.47946,
    "lng": 23.44796
  },
  {
    "id": 734960,
    "name": "Neochóri",
    "lat": 41.51131,
    "lng": 26.4574
  },
  {
    "id": 734688,
    "name": "Perivolákion",
    "lat": 40.74418,
    "lng": 23.03571
  },
  {
    "id": 256485,
    "name": "Néon Monastírion",
    "lat": 39.23988,
    "lng": 22.27465
  },
  {
    "id": 736727,
    "name": "Arrianá",
    "lat": 41.08131,
    "lng": 25.69494
  },
  {
    "id": 255138,
    "name": "Pigí",
    "lat": 39.51061,
    "lng": 21.70103
  },
  {
    "id": 734386,
    "name": "Rizómata",
    "lat": 40.35061,
    "lng": 22.21079
  },
  {
    "id": 258757,
    "name": "Taxiárches",
    "lat": 39.57565,
    "lng": 21.89245
  },
  {
    "id": 255849,
    "name": "Pánormos",
    "lat": 35.41815,
    "lng": 24.69091
  },
  {
    "id": 735581,
    "name": "Kouloúra",
    "lat": 40.54652,
    "lng": 22.31795
  },
  {
    "id": 734339,
    "name": "Sárti",
    "lat": 40.09369,
    "lng": 23.97859
  },
  {
    "id": 734988,
    "name": "Néa Róda",
    "lat": 40.38119,
    "lng": 23.92374
  },
  {
    "id": 736763,
    "name": "Áratos",
    "lat": 41.08139,
    "lng": 25.55186
  },
  {
    "id": 264131,
    "name": "Ayía Triás",
    "lat": 37.63707,
    "lng": 22.80504
  },
  {
    "id": 736866,
    "name": "Anaráchi",
    "lat": 40.49234,
    "lng": 21.57279
  },
  {
    "id": 8261472,
    "name": "Paralía Ofryníou",
    "lat": 40.76663,
    "lng": 23.90039
  },
  {
    "id": 735886,
    "name": "Loutráki",
    "lat": 40.97116,
    "lng": 21.94659
  },
  {
    "id": 9408790,
    "name": "Loutrá Oraías Elénis",
    "lat": 37.86466,
    "lng": 22.99614
  },
  {
    "id": 265095,
    "name": "Anávra",
    "lat": 39.18996,
    "lng": 22.09308
  },
  {
    "id": 255594,
    "name": "Perachóra",
    "lat": 38.03021,
    "lng": 22.94902
  },
  {
    "id": 254442,
    "name": "Pteleós",
    "lat": 39.05261,
    "lng": 22.95271
  },
  {
    "id": 254253,
    "name": "Rodotópi",
    "lat": 39.70822,
    "lng": 20.72656
  },
  {
    "id": 264839,
    "name": "Áno Sýros",
    "lat": 37.44997,
    "lng": 24.93562
  },
  {
    "id": 261680,
    "name": "Kainoúryion",
    "lat": 38.79283,
    "lng": 22.7247
  },
  {
    "id": 261002,
    "name": "Kardamás",
    "lat": 37.76729,
    "lng": 21.33946
  },
  {
    "id": 259292,
    "name": "Domvraína",
    "lat": 38.253,
    "lng": 22.98211
  },
  {
    "id": 254746,
    "name": "Prámanta",
    "lat": 39.52306,
    "lng": 21.10139
  },
  {
    "id": 261721,
    "name": "Isthmía",
    "lat": 37.91356,
    "lng": 23.0046
  },
  {
    "id": 255242,
    "name": "Pýrgos",
    "lat": 35.00611,
    "lng": 25.15191
  },
  {
    "id": 252267,
    "name": "Vareiá",
    "lat": 39.07941,
    "lng": 26.57777
  },
  {
    "id": 256838,
    "name": "Mokhós",
    "lat": 35.26342,
    "lng": 25.42305
  },
  {
    "id": 253286,
    "name": "Stános",
    "lat": 38.80453,
    "lng": 21.17461
  },
  {
    "id": 736084,
    "name": "Kalá Déndra",
    "lat": 41.09941,
    "lng": 23.42396
  },
  {
    "id": 736065,
    "name": "Kalývia",
    "lat": 40.75508,
    "lng": 22.21753
  },
  {
    "id": 735146,
    "name": "Mýki",
    "lat": 41.24384,
    "lng": 24.92084
  },
  {
    "id": 264408,
    "name": "Astypálaia",
    "lat": 36.55,
    "lng": 26.35
  },
  {
    "id": 259734,
    "name": "Kyrás Vrýsi",
    "lat": 37.91295,
    "lng": 22.98651
  },
  {
    "id": 735902,
    "name": "Káto Kamíla",
    "lat": 41.02119,
    "lng": 23.48336
  },
  {
    "id": 734992,
    "name": "Néa Plágia",
    "lat": 40.26537,
    "lng": 23.20376
  },
  {
    "id": 735643,
    "name": "Komniná",
    "lat": 40.59057,
    "lng": 21.77671
  },
  {
    "id": 255753,
    "name": "Parapótamos",
    "lat": 39.54858,
    "lng": 20.32436
  },
  {
    "id": 253003,
    "name": "Témeni",
    "lat": 38.23707,
    "lng": 22.12533
  },
  {
    "id": 262485,
    "name": "Farakláta",
    "lat": 38.20236,
    "lng": 20.52014
  },
  {
    "id": 736767,
    "name": "Ápsalos",
    "lat": 40.8924,
    "lng": 22.05709
  },
  {
    "id": 257827,
    "name": "Mantamádos",
    "lat": 39.31003,
    "lng": 26.33629
  },
  {
    "id": 258949,
    "name": "Koutselió",
    "lat": 39.58808,
    "lng": 20.91197
  },
  {
    "id": 255739,
    "name": "Paravóla",
    "lat": 38.61472,
    "lng": 21.52046
  },
  {
    "id": 9036767,
    "name": "Neos Voutzás",
    "lat": 38.04312,
    "lng": 23.97749
  },
  {
    "id": 258076,
    "name": "Loutrá",
    "lat": 39.05695,
    "lng": 26.54476
  },
  {
    "id": 736102,
    "name": "Léchovo",
    "lat": 40.58442,
    "lng": 21.49218
  },
  {
    "id": 736944,
    "name": "Akriní",
    "lat": 40.43492,
    "lng": 21.90609
  },
  {
    "id": 734579,
    "name": "Platanórevma",
    "lat": 40.20083,
    "lng": 22.02488
  },
  {
    "id": 734996,
    "name": "Ólynthos",
    "lat": 40.29147,
    "lng": 23.34205
  },
  {
    "id": 265028,
    "name": "Anéza",
    "lat": 39.08658,
    "lng": 20.923
  },
  {
    "id": 256257,
    "name": "Oropós",
    "lat": 38.30326,
    "lng": 23.75549
  },
  {
    "id": 734843,
    "name": "Páchni",
    "lat": 41.30506,
    "lng": 24.89438
  },
  {
    "id": 257268,
    "name": "Menídi",
    "lat": 39.04213,
    "lng": 21.11875
  },
  {
    "id": 254584,
    "name": "Prokópi",
    "lat": 38.73402,
    "lng": 23.4906
  },
  {
    "id": 735757,
    "name": "Chrysavgí",
    "lat": 40.76478,
    "lng": 23.08104
  },
  {
    "id": 734385,
    "name": "Rizó",
    "lat": 40.73331,
    "lng": 22.13674
  },
  {
    "id": 734268,
    "name": "Sitagroí",
    "lat": 41.11067,
    "lng": 24.02755
  },
  {
    "id": 256527,
    "name": "Neochóri",
    "lat": 37.90794,
    "lng": 21.20392
  },
  {
    "id": 252303,
    "name": "Vamvakoú",
    "lat": 39.33708,
    "lng": 22.41983
  },
  {
    "id": 733965,
    "name": "Valteró",
    "lat": 41.17927,
    "lng": 23.32022
  },
  {
    "id": 734440,
    "name": "Provatás",
    "lat": 41.06825,
    "lng": 23.3903
  },
  {
    "id": 736049,
    "name": "Kallífytos",
    "lat": 41.1728,
    "lng": 24.21527
  },
  {
    "id": 734391,
    "name": "Rizári",
    "lat": 40.78373,
    "lng": 22.088
  },
  {
    "id": 264128,
    "name": "Agía Triáda",
    "lat": 38.35505,
    "lng": 22.90881
  },
  {
    "id": 262433,
    "name": "Fíki",
    "lat": 39.51602,
    "lng": 21.65556
  },
  {
    "id": 261401,
    "name": "Kallíthiro",
    "lat": 39.28099,
    "lng": 21.90491
  },
  {
    "id": 257884,
    "name": "Malakónta",
    "lat": 38.4,
    "lng": 23.76667
  },
  {
    "id": 735720,
    "name": "Kyprínos",
    "lat": 41.57542,
    "lng": 26.22905
  },
  {
    "id": 735111,
    "name": "Mikrópolis",
    "lat": 41.19351,
    "lng": 23.8157
  },
  {
    "id": 256155,
    "name": "Palekastro",
    "lat": 35.19793,
    "lng": 26.25429
  },
  {
    "id": 262758,
    "name": "Eleoúsa",
    "lat": 39.15278,
    "lng": 20.96214
  },
  {
    "id": 735318,
    "name": "Marína",
    "lat": 40.692,
    "lng": 22.10099
  },
  {
    "id": 2463763,
    "name": "Ágios Matthaíos",
    "lat": 39.49506,
    "lng": 19.87336
  },
  {
    "id": 258399,
    "name": "Lianokládhion",
    "lat": 38.91655,
    "lng": 22.30336
  },
  {
    "id": 251671,
    "name": "Vraná",
    "lat": 38.12497,
    "lng": 23.95198
  },
  {
    "id": 735430,
    "name": "Lýkeio",
    "lat": 41.06413,
    "lng": 25.6857
  },
  {
    "id": 733827,
    "name": "Xinó Neró",
    "lat": 40.69028,
    "lng": 21.62324
  },
  {
    "id": 264040,
    "name": "Áyios Adhrianós",
    "lat": 37.59975,
    "lng": 22.8456
  },
  {
    "id": 259813,
    "name": "Kyllíni",
    "lat": 37.93542,
    "lng": 21.14503
  },
  {
    "id": 264604,
    "name": "Árma",
    "lat": 38.35121,
    "lng": 23.48599
  },
  {
    "id": 255808,
    "name": "Pappadhátai",
    "lat": 38.52816,
    "lng": 21.45016
  },
  {
    "id": 735888,
    "name": "Káto Lipochóri",
    "lat": 40.75754,
    "lng": 22.17962
  },
  {
    "id": 255621,
    "name": "Pelópi",
    "lat": 37.67444,
    "lng": 21.59344
  },
  {
    "id": 261956,
    "name": "Goúmero",
    "lat": 37.76236,
    "lng": 21.61853
  },
  {
    "id": 736902,
    "name": "Ampeleíes",
    "lat": 40.83417,
    "lng": 22.38767
  },
  {
    "id": 257721,
    "name": "Marathókampos",
    "lat": 37.72674,
    "lng": 26.68964
  },
  {
    "id": 736751,
    "name": "Arísvi",
    "lat": 41.07,
    "lng": 25.59041
  },
  {
    "id": 735277,
    "name": "Mavrovoúni",
    "lat": 40.78243,
    "lng": 22.15629
  },
  {
    "id": 265344,
    "name": "Alfeioúsa",
    "lat": 37.64019,
    "lng": 21.5375
  },
  {
    "id": 262007,
    "name": "Gómfoi",
    "lat": 39.46413,
    "lng": 21.69342
  },
  {
    "id": 254064,
    "name": "Sardínia",
    "lat": 38.89003,
    "lng": 21.20619
  },
  {
    "id": 258004,
    "name": "Magoúla",
    "lat": 38.41178,
    "lng": 23.82128
  },
  {
    "id": 733955,
    "name": "Vamvakófyto",
    "lat": 41.17916,
    "lng": 23.39602
  },
  {
    "id": 262698,
    "name": "Émponas",
    "lat": 36.22683,
    "lng": 27.85645
  },
  {
    "id": 256210,
    "name": "Oxílithos",
    "lat": 38.57988,
    "lng": 24.11184
  },
  {
    "id": 259595,
    "name": "Kokkári",
    "lat": 37.77908,
    "lng": 26.89179
  },
  {
    "id": 260886,
    "name": "Karpochóri",
    "lat": 39.33575,
    "lng": 22.01129
  },
  {
    "id": 254864,
    "name": "Póros",
    "lat": 38.15369,
    "lng": 20.7712
  },
  {
    "id": 734133,
    "name": "Stratónion",
    "lat": 40.51406,
    "lng": 23.82471
  },
  {
    "id": 262140,
    "name": "Galatás",
    "lat": 38.35742,
    "lng": 21.56222
  },
  {
    "id": 259537,
    "name": "Kokkónion",
    "lat": 37.97061,
    "lng": 22.78018
  },
  {
    "id": 253158,
    "name": "Steíri",
    "lat": 38.40831,
    "lng": 22.71162
  },
  {
    "id": 264496,
    "name": "Asíni",
    "lat": 37.54431,
    "lng": 22.86435
  },
  {
    "id": 2463670,
    "name": "Kynopiástes",
    "lat": 39.56785,
    "lng": 19.88362
  },
  {
    "id": 734672,
    "name": "Petrochóri",
    "lat": 41.08742,
    "lng": 24.84092
  },
  {
    "id": 734543,
    "name": "Polykárpi",
    "lat": 40.92598,
    "lng": 22.01634
  },
  {
    "id": 260956,
    "name": "Karyés",
    "lat": 37.29119,
    "lng": 22.50066
  },
  {
    "id": 734854,
    "name": "Ouranoupolis",
    "lat": 40.33333,
    "lng": 23.98333
  },
  {
    "id": 263115,
    "name": "Dídyma",
    "lat": 37.4625,
    "lng": 23.17183
  },
  {
    "id": 252300,
    "name": "Vanáton",
    "lat": 37.79446,
    "lng": 20.85188
  },
  {
    "id": 255013,
    "name": "Platariá",
    "lat": 39.45044,
    "lng": 20.27781
  },
  {
    "id": 735794,
    "name": "Charopó",
    "lat": 41.26031,
    "lng": 23.37279
  },
  {
    "id": 262629,
    "name": "Eresós",
    "lat": 39.16973,
    "lng": 25.93437
  },
  {
    "id": 736244,
    "name": "Fillýra",
    "lat": 41.11667,
    "lng": 25.63333
  },
  {
    "id": 12022148,
    "name": "Stathmós Mourión",
    "lat": 41.26378,
    "lng": 22.83855
  },
  {
    "id": 734715,
    "name": "Péplos",
    "lat": 40.95755,
    "lng": 26.26577
  },
  {
    "id": 264650,
    "name": "Áris",
    "lat": 37.0992,
    "lng": 22.00443
  },
  {
    "id": 262503,
    "name": "Magoúla",
    "lat": 39.45395,
    "lng": 21.80351
  },
  {
    "id": 256066,
    "name": "Palaiópyrgos",
    "lat": 39.60845,
    "lng": 21.8172
  },
  {
    "id": 736324,
    "name": "Empório",
    "lat": 40.48866,
    "lng": 21.55768
  },
  {
    "id": 264022,
    "name": "Ágios Andréas",
    "lat": 37.34519,
    "lng": 22.76466
  },
  {
    "id": 259508,
    "name": "Kolympári",
    "lat": 35.54115,
    "lng": 23.77995
  },
  {
    "id": 256572,
    "name": "Néa Stíra",
    "lat": 38.17935,
    "lng": 24.20842
  },
  {
    "id": 253908,
    "name": "Sykiá",
    "lat": 36.76398,
    "lng": 22.94302
  },
  {
    "id": 257258,
    "name": "Agía Triáda",
    "lat": 39.46361,
    "lng": 21.89848
  },
  {
    "id": 254919,
    "name": "Polídhrosos",
    "lat": 38.64015,
    "lng": 22.53174
  },
  {
    "id": 252864,
    "name": "Tílisos",
    "lat": 35.29607,
    "lng": 25.01587
  },
  {
    "id": 6692717,
    "name": "Ornós",
    "lat": 37.42391,
    "lng": 25.32248
  },
  {
    "id": 258458,
    "name": "Levídion",
    "lat": 37.68269,
    "lng": 22.29586
  },
  {
    "id": 9036773,
    "name": "Argithéa",
    "lat": 37.97506,
    "lng": 23.88556
  },
  {
    "id": 865331,
    "name": "Melíssi",
    "lat": 40.77406,
    "lng": 22.35304
  },
  {
    "id": 735751,
    "name": "Chrysochórafa",
    "lat": 41.18097,
    "lng": 23.23551
  },
  {
    "id": 736017,
    "name": "Kamariótissa",
    "lat": 40.47501,
    "lng": 25.47456
  },
  {
    "id": 9165903,
    "name": "Perama",
    "lat": 39.58289,
    "lng": 19.9122
  },
  {
    "id": 260264,
    "name": "Kentrí",
    "lat": 35.03258,
    "lng": 25.7528
  },
  {
    "id": 253164,
    "name": "Stýpsi",
    "lat": 39.31121,
    "lng": 26.22056
  },
  {
    "id": 251849,
    "name": "Vokhaïkó",
    "lat": 37.94843,
    "lng": 22.79203
  },
  {
    "id": 265067,
    "name": "Antirrio",
    "lat": 38.33014,
    "lng": 21.76413
  },
  {
    "id": 262091,
    "name": "Gavaloú",
    "lat": 38.52903,
    "lng": 21.53226
  },
  {
    "id": 261596,
    "name": "Kalamiá",
    "lat": 39.16528,
    "lng": 20.93206
  },
  {
    "id": 734720,
    "name": "Pentaplátano",
    "lat": 40.81902,
    "lng": 22.41903
  },
  {
    "id": 261169,
    "name": "Kanália",
    "lat": 39.49928,
    "lng": 22.88589
  },
  {
    "id": 734683,
    "name": "Peteinós",
    "lat": 41.10056,
    "lng": 24.89847
  },
  {
    "id": 6692637,
    "name": "Acharávi",
    "lat": 39.7936,
    "lng": 19.81736
  },
  {
    "id": 257643,
    "name": "Marmárion",
    "lat": 38.04839,
    "lng": 24.32039
  },
  {
    "id": 10792347,
    "name": "Anakasiá",
    "lat": 39.38112,
    "lng": 22.97484
  },
  {
    "id": 253717,
    "name": "Skalánion",
    "lat": 35.28262,
    "lng": 25.18684
  },
  {
    "id": 9036677,
    "name": "Agios Dimítrios Kropiás",
    "lat": 37.80612,
    "lng": 23.85793
  },
  {
    "id": 263482,
    "name": "Batsíon",
    "lat": 37.86008,
    "lng": 24.7849
  },
  {
    "id": 12492010,
    "name": "Kallikomo",
    "lat": 37.5833,
    "lng": 21.5833
  },
  {
    "id": 252327,
    "name": "Valsamáta",
    "lat": 38.176,
    "lng": 20.58392
  },
  {
    "id": 734430,
    "name": "Fteliá",
    "lat": 41.08266,
    "lng": 24.18968
  },
  {
    "id": 260531,
    "name": "Káto Mazaráki",
    "lat": 38.07035,
    "lng": 21.65097
  },
  {
    "id": 261039,
    "name": "Karátoula",
    "lat": 37.73564,
    "lng": 21.53578
  },
  {
    "id": 253357,
    "name": "Sperchógeia",
    "lat": 37.07405,
    "lng": 22.06248
  },
  {
    "id": 264909,
    "name": "Áno Kastrítsi",
    "lat": 38.27228,
    "lng": 21.836
  },
  {
    "id": 253770,
    "name": "Sísion",
    "lat": 35.3077,
    "lng": 25.52021
  },
  {
    "id": 8608506,
    "name": "Néa Anatolí",
    "lat": 35.0092,
    "lng": 25.6617
  },
  {
    "id": 258052,
    "name": "Loutró",
    "lat": 38.95208,
    "lng": 21.20489
  },
  {
    "id": 252967,
    "name": "Theodóriana",
    "lat": 39.43512,
    "lng": 21.20989
  },
  {
    "id": 735613,
    "name": "Korisós",
    "lat": 40.5049,
    "lng": 21.37703
  },
  {
    "id": 734537,
    "name": "Políkhronon",
    "lat": 40.01657,
    "lng": 23.52834
  },
  {
    "id": 257035,
    "name": "Mikrománi",
    "lat": 37.07707,
    "lng": 22.03235
  },
  {
    "id": 256036,
    "name": "Paliámpela",
    "lat": 38.91075,
    "lng": 20.95178
  },
  {
    "id": 734719,
    "name": "Pentápoli",
    "lat": 41.05011,
    "lng": 23.68893
  },
  {
    "id": 251502,
    "name": "Xirokámbion",
    "lat": 36.95939,
    "lng": 22.45211
  },
  {
    "id": 254659,
    "name": "Pródromos",
    "lat": 39.37571,
    "lng": 21.97493
  },
  {
    "id": 736874,
    "name": "Ammoudhiá",
    "lat": 41.14324,
    "lng": 23.33539
  },
  {
    "id": 263325,
    "name": "Dáfia",
    "lat": 39.24212,
    "lng": 26.1992
  },
  {
    "id": 2463702,
    "name": "Karousádes",
    "lat": 39.78028,
    "lng": 19.74475
  },
  {
    "id": 735537,
    "name": "Kryonéri",
    "lat": 40.81497,
    "lng": 23.28131
  },
  {
    "id": 259407,
    "name": "Kontovázaina",
    "lat": 37.79704,
    "lng": 21.89957
  },
  {
    "id": 252334,
    "name": "Valýra",
    "lat": 37.16554,
    "lng": 21.98165
  },
  {
    "id": 736431,
    "name": "Dimitrítsi",
    "lat": 40.98508,
    "lng": 23.41347
  },
  {
    "id": 257417,
    "name": "Megáli Vrísi",
    "lat": 38.89407,
    "lng": 22.47511
  },
  {
    "id": 736300,
    "name": "Esóvalta",
    "lat": 40.70733,
    "lng": 22.26385
  },
  {
    "id": 735526,
    "name": "Kristóni",
    "lat": 40.95962,
    "lng": 22.85929
  },
  {
    "id": 262019,
    "name": "Glóssa",
    "lat": 39.17519,
    "lng": 23.61572
  },
  {
    "id": 736735,
    "name": "Armenokhórion",
    "lat": 40.80257,
    "lng": 21.46085
  },
  {
    "id": 735364,
    "name": "Loutrós",
    "lat": 40.88153,
    "lng": 26.04697
  },
  {
    "id": 736595,
    "name": "Ágios Panteleímonas",
    "lat": 40.72398,
    "lng": 21.74825
  },
  {
    "id": 263905,
    "name": "Áyios Ioánnis",
    "lat": 38.44811,
    "lng": 24.00511
  },
  {
    "id": 258149,
    "name": "Longá",
    "lat": 36.86881,
    "lng": 21.90667
  },
  {
    "id": 264751,
    "name": "Apóllona",
    "lat": 36.26091,
    "lng": 27.96698
  },
  {
    "id": 253528,
    "name": "Skoúrta",
    "lat": 38.21412,
    "lng": 23.55145
  },
  {
    "id": 253167,
    "name": "Stimánga",
    "lat": 37.90964,
    "lng": 22.70074
  },
  {
    "id": 735813,
    "name": "Kerkíni",
    "lat": 41.21887,
    "lng": 23.08454
  },