[
  {
    "id": 3054643,
    "name": "Budapest",
    "lat": 47.49835,
    "lng": 19.04045
  },
  {
    "id": 721472,
    "name": "Debrecen",
    "lat": 47.53167,
    "lng": 21.62444
  },
  {
    "id": 715429,
    "name": "Szeged",
    "lat": 46.253,
    "lng": 20.14824
  },
  {
    "id": 717582,
    "name": "Miskolc",
    "lat": 48.10327,
    "lng": 20.77806
  },
  {
    "id": 3046526,
    "name": "Pécs",
    "lat": 46.07617,
    "lng": 18.22814
  },
  {
    "id": 3052009,
    "name": "Győr",
    "lat": 47.68333,
    "lng": 17.63512
  },
  {
    "id": 716935,
    "name": "Nyíregyháza",
    "lat": 47.95539,
    "lng": 21.71671
  },
  {
    "id": 3050434,
    "name": "Kecskemét",
    "lat": 46.90618,
    "lng": 19.69128
  },
  {
    "id": 3044774,
    "name": "Székesfehérvár",
    "lat": 47.18995,
    "lng": 18.41034
  },
  {
    "id": 3044310,
    "name": "Szombathely",
    "lat": 47.23088,
    "lng": 16.62155
  },
  {
    "id": 715126,
    "name": "Szolnok",
    "lat": 47.18066,
    "lng": 20.19835
  },
  {
    "id": 3044082,
    "name": "Tatabánya",
    "lat": 47.59247,
    "lng": 18.38099
  },
  {
    "id": 3050616,
    "name": "Kaposvár",
    "lat": 46.36667,
    "lng": 17.8
  },
  {
    "id": 3053281,
    "name": "Érd",
    "lat": 47.39489,
    "lng": 18.91361
  },
  {
    "id": 3045190,
    "name": "Sopron",
    "lat": 47.68501,
    "lng": 16.59049
  },
  {
    "id": 3042638,
    "name": "Zalaegerszeg",
    "lat": 46.83695,
    "lng": 16.84401
  },
  {
    "id": 722437,
    "name": "Békéscsaba",
    "lat": 46.68333,
    "lng": 21.1
  },
  {
    "id": 3042929,
    "name": "Veszprém",
    "lat": 47.09327,
    "lng": 17.91149
  },
  {
    "id": 721239,
    "name": "Eger",
    "lat": 47.90265,
    "lng": 20.37329
  },
  {
    "id": 3053438,
    "name": "Dunaújváros",
    "lat": 46.96479,
    "lng": 18.93974
  },
  {
    "id": 3047679,
    "name": "Nagykanizsa",
    "lat": 46.45347,
    "lng": 16.99104
  },
  {
    "id": 719965,
    "name": "Hódmezővásárhely",
    "lat": 46.41667,
    "lng": 20.33333
  },
  {
    "id": 3054543,
    "name": "Cegléd",
    "lat": 47.17266,
    "lng": 19.79952
  },
  {
    "id": 716671,
    "name": "Ózd",
    "lat": 48.21667,
    "lng": 20.3
  },
  {
    "id": 3055685,
    "name": "Baja",
    "lat": 46.18299,
    "lng": 18.95307
  },
  {
    "id": 3043293,
    "name": "Vác",
    "lat": 47.77591,
    "lng": 19.13612
  },
  {
    "id": 3045643,
    "name": "Salgótarján",
    "lat": 48.09872,
    "lng": 19.80303
  },
  {
    "id": 3044760,
    "name": "Szekszárd",
    "lat": 46.34723,
    "lng": 18.71189
  },
  {
    "id": 3046686,
    "name": "Pápa",
    "lat": 47.33004,
    "lng": 17.4674
  },
  {
    "id": 3052040,
    "name": "Gyöngyös",
    "lat": 47.78257,
    "lng": 19.928
  },
  {
    "id": 719311,
    "name": "Kazincbarcika",
    "lat": 48.25,
    "lng": 20.63333
  },
  {
    "id": 3052236,
    "name": "Gödöllő",
    "lat": 47.59657,
    "lng": 19.35515
  },
  {
    "id": 720334,
    "name": "Gyula",
    "lat": 46.65,
    "lng": 21.28333
  },
  {
    "id": 720292,
    "name": "Hajdúböszörmény",
    "lat": 47.66667,
    "lng": 21.51667
  },
  {
    "id": 3049885,
    "name": "Kiskunfélegyháza",
    "lat": 46.71213,
    "lng": 19.84458
  },
  {
    "id": 3056357,
    "name": "Ajka",
    "lat": 47.10196,
    "lng": 17.55892
  },
  {
    "id": 716736,
    "name": "Orosháza",
    "lat": 46.56667,
    "lng": 20.66667
  },
  {
    "id": 3047896,
    "name": "Mosonmagyaróvár",
    "lat": 47.86789,
    "lng": 17.26994
  },
  {
    "id": 3053476,
    "name": "Dunakeszi",
    "lat": 47.63641,
    "lng": 19.13864
  },
  {
    "id": 3049880,
    "name": "Kiskunhalas",
    "lat": 46.43402,
    "lng": 19.48479
  },
  {
    "id": 3053163,
    "name": "Esztergom",
    "lat": 47.7928,
    "lng": 18.74148
  },
  {
    "id": 715337,
    "name": "Szentes",
    "lat": 46.65834,
    "lng": 20.2608
  },
  {
    "id": 3050907,
    "name": "Jászberény",
    "lat": 47.5,
    "lng": 19.91667
  },
  {
    "id": 3049512,
    "name": "Komló",
    "lat": 46.19278,
    "lng": 18.26494
  },
  {
    "id": 717902,
    "name": "Makó",
    "lat": 46.21667,
    "lng": 20.48333
  },
  {
    "id": 3054646,
    "name": "Budaörs",
    "lat": 47.46181,
    "lng": 18.95845
  },
  {
    "id": 3044475,
    "name": "Szigetszentmiklós",
    "lat": 47.34382,
    "lng": 19.04335
  },
  {
    "id": 720276,
    "name": "Hajdúszoboszló",
    "lat": 47.45,
    "lng": 21.4
  },
  {
    "id": 3044681,
    "name": "Szentendre",
    "lat": 47.66943,
    "lng": 19.07561
  },
  {
    "id": 3047651,
    "name": "Nagykőrös",
    "lat": 47.03419,
    "lng": 19.77857
  },
  {
    "id": 3044083,
    "name": "Tata",
    "lat": 47.65289,
    "lng": 18.31838
  },
  {
    "id": 3045332,
    "name": "Siófok",
    "lat": 46.90413,
    "lng": 18.058
  },
  {
    "id": 714581,
    "name": "Törökszentmiklós",
    "lat": 47.18333,
    "lng": 20.41667
  },
  {
    "id": 719404,
    "name": "Karcag",
    "lat": 47.31667,
    "lng": 20.93333
  },
  {
    "id": 3052101,
    "name": "Gyál",
    "lat": 47.38449,
    "lng": 19.2214
  },
  {
    "id": 3047942,
    "name": "Monor",
    "lat": 47.35133,
    "lng": 19.44733
  },
  {
    "id": 3043095,
    "name": "Várpalota",
    "lat": 47.19936,
    "lng": 18.13954
  },
  {
    "id": 722439,
    "name": "Békés",
    "lat": 46.76667,
    "lng": 21.13333
  },
  {
    "id": 3053590,
    "name": "Dombóvár",
    "lat": 46.37657,
    "lng": 18.13696
  },
  {
    "id": 3046768,
    "name": "Paks",
    "lat": 46.6221,
    "lng": 18.85569
  },
  {
    "id": 3046888,
    "name": "Oroszlány",
    "lat": 47.48671,
    "lng": 18.31225
  },
  {
    "id": 3051621,
    "name": "Hatvan",
    "lat": 47.66667,
    "lng": 19.68333
  },
  {
    "id": 3050212,
    "name": "Keszthely",
    "lat": 46.76812,
    "lng": 17.24317
  },
  {
    "id": 3043019,
    "name": "Vecsés",
    "lat": 47.40705,
    "lng": 19.28648
  },
  {
    "id": 717635,
    "name": "Mezőtúr",
    "lat": 47.0,
    "lng": 20.63333
  },
  {
    "id": 3049519,
    "name": "Komárom",
    "lat": 47.74318,
    "lng": 18.11913
  },
  {
    "id": 717771,
    "name": "Mátészalka",
    "lat": 47.95528,
    "lng": 22.32348
  },
  {
    "id": 3047967,
    "name": "Mohács",
    "lat": 45.9902,
    "lng": 18.68621
  },
  {
    "id": 721592,
    "name": "Csongrád",
    "lat": 46.71332,
    "lng": 20.14241
  },
  {
    "id": 3050719,
    "name": "Kalocsa",
    "lat": 46.52981,
    "lng": 18.97283
  },
  {
    "id": 718739,
    "name": "Kisvárda",
    "lat": 48.21667,
    "lng": 22.08333
  },
  {
    "id": 715466,
    "name": "Szarvas",
    "lat": 46.86667,
    "lng": 20.55
  },
  {
    "id": 3042968,
    "name": "Veresegyház",
    "lat": 47.6459,
    "lng": 19.29536
  },
  {
    "id": 715839,
    "name": "Sátoraljaújhely",
    "lat": 48.39492,
    "lng": 21.65871
  },
  {
    "id": 720284,
    "name": "Hajdúnánás",
    "lat": 47.85,
    "lng": 21.43333
  },
  {
    "id": 722636,
    "name": "Balmazújváros",
    "lat": 47.61667,
    "lng": 21.35
  },
  {
    "id": 717652,
    "name": "Mezőkövesd",
    "lat": 47.81667,
    "lng": 20.58333
  },
  {
    "id": 3044141,
    "name": "Tapolca",
    "lat": 46.88152,
    "lng": 17.44117
  },
  {
    "id": 3044821,
    "name": "Százhalombatta",
    "lat": 47.32949,
    "lng": 18.93878
  },
  {
    "id": 714697,
    "name": "Tiszaújváros",
    "lat": 47.93333,
    "lng": 21.08333
  },
  {
    "id": 3053485,
    "name": "Dunaharaszti",
    "lat": 47.3545,
    "lng": 19.09822
  },
  {
    "id": 3052542,
    "name": "Fót",
    "lat": 47.6177,
    "lng": 19.1887
  },
  {
    "id": 3053836,
    "name": "Dabas",
    "lat": 47.18594,
    "lng": 19.31091
  },
  {
    "id": 723030,
    "name": "Abony",
    "lat": 47.1899,
    "lng": 20.00476
  },
  {
    "id": 716301,
    "name": "Püspökladány",
    "lat": 47.31667,
    "lng": 21.11667
  },
  {
    "id": 3052241,
    "name": "Göd",
    "lat": 47.68324,
    "lng": 19.13417
  },
  {
    "id": 3045487,
    "name": "Sárvár",
    "lat": 47.25395,
    "lng": 16.93525
  },
  {
    "id": 720364,
    "name": "Gyomaendrőd",
    "lat": 46.93333,
    "lng": 20.83333
  },
  {
    "id": 3049896,
    "name": "Kiskőrös",
    "lat": 46.62139,
    "lng": 19.28528
  },
  {
    "id": 3046230,
    "name": "Pomáz",
    "lat": 47.64227,
    "lng": 19.02784
  },
  {
    "id": 3047927,
    "name": "Mór",
    "lat": 47.37787,
    "lng": 18.20353
  },
  {
    "id": 722324,
    "name": "Berettyóújfalu",
    "lat": 47.22362,
    "lng": 21.53656
  },
  {
    "id": 3054648,
    "name": "Budakeszi",
    "lat": 47.51083,
    "lng": 18.92717
  },
  {
    "id": 3046340,
    "name": "Pilisvörösvár",
    "lat": 47.61386,
    "lng": 18.90893
  },
  {
    "id": 3055287,
    "name": "Bátonyterenye",
    "lat": 47.96962,
    "lng": 19.84076
  },
  {
    "id": 3054809,
    "name": "Bonyhád",
    "lat": 46.29921,
    "lng": 18.53024
  },
  {
    "id": 3052045,
    "name": "Gyömrő",
    "lat": 47.42733,
    "lng": 19.40133
  },
  {
    "id": 3055601,
    "name": "Balassagyarmat",
    "lat": 48.07296,
    "lng": 19.29614
  },
  {
    "id": 714692,
    "name": "Tiszavasvári",
    "lat": 47.96667,
    "lng": 21.35
  },
  {
    "id": 714464,
    "name": "Újfehértó",
    "lat": 47.8,
    "lng": 21.68333
  },
  {
    "id": 716948,
    "name": "Nyírbátor",
    "lat": 47.83333,
    "lng": 22.13333
  },
  {
    "id": 3045564,
    "name": "Sárbogárd",
    "lat": 46.88692,
    "lng": 18.62041
  },
  {
    "id": 3047669,
    "name": "Nagykáta",
    "lat": 47.41514,
    "lng": 19.7441
  },
  {
    "id": 3046531,
    "name": "Pécel",
    "lat": 47.48962,
    "lng": 19.34162
  },
  {
    "id": 3055566,
    "name": "Balatonfüred",
    "lat": 46.96188,
    "lng": 17.87187
  },
  {
    "id": 3044487,
    "name": "Szigethalom",
    "lat": 47.32228,
    "lng": 19.00262
  },
  {
    "id": 720287,
    "name": "Hajdúhadház",
    "lat": 47.68333,
    "lng": 21.66667
  },
  {
    "id": 718744,
    "name": "Kisújszállás",
    "lat": 47.21667,
    "lng": 20.76667
  },
  {
    "id": 3053562,
    "name": "Dorog",
    "lat": 47.72095,
    "lng": 18.73641
  },
  {
    "id": 3050290,
    "name": "Kistarcsa",
    "lat": 47.54757,
    "lng": 19.26247
  },
  {
    "id": 3049430,
    "name": "Körmend",
    "lat": 47.01096,
    "lng": 16.60596
  },
  {
    "id": 3043356,
    "name": "Üllő",
    "lat": 47.38771,
    "lng": 19.35533
  },
  {
    "id": 3055368,
    "name": "Barcs",
    "lat": 45.96,
    "lng": 17.45861
  },
  {
    "id": 3043849,
    "name": "Tolna",
    "lat": 46.42677,
    "lng": 18.78248
  },
  {
    "id": 3049875,
    "name": "Kiskunmajsa",
    "lat": 46.49028,
    "lng": 19.74
  },
  {
    "id": 715867,
    "name": "Sárospatak",
    "lat": 48.3245,
    "lng": 21.57383
  },
  {
    "id": 714774,
    "name": "Tiszaföldvár",
    "lat": 46.98333,
    "lng": 20.25
  },
  {
    "id": 3056326,
    "name": "Albertirsa",
    "lat": 47.24315,
    "lng": 19.61686
  },
  {
    "id": 714754,
    "name": "Tiszakécske",
    "lat": 46.93261,
    "lng": 20.10349
  },
  {
    "id": 715945,
    "name": "Sajószentpéter",
    "lat": 48.21667,
    "lng": 20.71667
  },
  {
    "id": 3043778,
    "name": "Törökbálint",
    "lat": 47.42931,
    "lng": 18.91356
  },
  {
    "id": 3049366,
    "name": "Kőszeg",
    "lat": 47.38922,
    "lng": 16.541
  },
  {
    "id": 3054533,
    "name": "Celldömölk",
    "lat": 47.25713,
    "lng": 17.15027
  },
  {
    "id": 3051077,
    "name": "Isaszeg",
    "lat": 47.53011,
    "lng": 19.40205
  },
  {
    "id": 720006,
    "name": "Heves",
    "lat": 47.6,
    "lng": 20.28333
  },
  {
    "id": 717669,
    "name": "Mezőberény",
    "lat": 46.81667,
    "lng": 21.03333
  },
  {
    "id": 3044469,
    "name": "Szigetvár",
    "lat": 46.04865,
    "lng": 17.80554
  },
  {
    "id": 3048456,
    "name": "Marcali",
    "lat": 46.58498,
    "lng": 17.41196
  },
  {
    "id": 3046355,
    "name": "Pilis",
    "lat": 47.28904,
    "lng": 19.54848
  },
  {
    "id": 3055030,
    "name": "Bicske",
    "lat": 47.48419,
    "lng": 18.64404
  },
  {
    "id": 721246,
    "name": "Edelény",
    "lat": 48.3,
    "lng": 20.73333
  },
  {
    "id": 3049002,
    "name": "Lajosmizse",
    "lat": 47.02133,
    "lng": 19.56171
  },
  {
    "id": 714772,
    "name": "Tiszafüred",
    "lat": 47.61667,
    "lng": 20.76667
  },
  {
    "id": 720280,
    "name": "Hajdúsámson",
    "lat": 47.6,
    "lng": 21.76667
  },
  {
    "id": 3053918,
    "name": "Csorna",
    "lat": 47.61155,
    "lng": 17.25012
  },
  {
    "id": 717281,
    "name": "Nagykálló",
    "lat": 47.87491,
    "lng": 21.84082
  },
  {
    "id": 715888,
    "name": "Sarkad",
    "lat": 46.75,
    "lng": 21.38333
  },
  {
    "id": 3050594,
    "name": "Kapuvár",
    "lat": 47.59224,
    "lng": 17.02886
  },
  {
    "id": 3047819,
    "name": "Nagyatád",
    "lat": 46.22961,
    "lng": 17.35788
  },
  {
    "id": 3045364,
    "name": "Siklós",
    "lat": 45.85499,
    "lng": 18.29752
  },
  {
    "id": 3043860,
    "name": "Tököl",
    "lat": 47.32178,
    "lng": 18.96249
  },
  {
    "id": 3048630,
    "name": "Maglód",
    "lat": 47.44258,
    "lng": 19.36438
  },
  {
    "id": 3046580,
    "name": "Pásztó",
    "lat": 47.92019,
    "lng": 19.69829
  },
  {
    "id": 715302,
    "name": "Szerencs",
    "lat": 48.15993,
    "lng": 21.2097
  },
  {
    "id": 714504,
    "name": "Túrkeve",
    "lat": 47.1,
    "lng": 20.75
  },
  {
    "id": 715422,
    "name": "Szeghalom",
    "lat": 47.03333,
    "lng": 21.16667
  },
  {
    "id": 7284912,
    "name": "Kerepes",
    "lat": 47.56008,
    "lng": 19.28289
  },
  {
    "id": 719655,
    "name": "Jászapáti",
    "lat": 47.51667,
    "lng": 20.15
  },
  {
    "id": 3050967,
    "name": "Jánoshalma",
    "lat": 46.29861,
    "lng": 19.32583
  },
  {
    "id": 3044171,
    "name": "Tamási",
    "lat": 46.63333,
    "lng": 18.28333
  },
  {
    "id": 718312,
    "name": "Kunszentmárton",
    "lat": 46.83916,
    "lng": 20.28879
  },
  {
    "id": 720290,
    "name": "Hajdúdorog",
    "lat": 47.81667,
    "lng": 21.5
  },
  {
    "id": 714188,
    "name": "Vásárosnamény",
    "lat": 48.12542,
    "lng": 22.31325
  },
  {
    "id": 3045294,
    "name": "Solymár",
    "lat": 47.59246,
    "lng": 18.93212
  },
  {
    "id": 3046026,
    "name": "Ráckeve",
    "lat": 47.16095,
    "lng": 18.94478
  },
  {
    "id": 721428,
    "name": "Derecske",
    "lat": 47.35,
    "lng": 21.56667
  },
  {
    "id": 3050454,
    "name": "Kecel",
    "lat": 46.52528,
    "lng": 19.25194
  },
  {
    "id": 717449,
    "name": "Nádudvar",
    "lat": 47.41667,
    "lng": 21.16667
  },
  {
    "id": 3047206,
    "name": "Ócsa",
    "lat": 47.29986,
    "lng": 19.23057
  },
  {
    "id": 3053489,
    "name": "Dunaföldvár",
    "lat": 46.80713,
    "lng": 18.92763
  },
  {
    "id": 720988,
    "name": "Fehérgyarmat",
    "lat": 47.98333,
    "lng": 22.51667
  },
  {
    "id": 3049878,
    "name": "Kiskunlacháza",
    "lat": 47.18839,
    "lng": 19.0093
  },
  {
    "id": 3049100,
    "name": "Kunszentmiklós",
    "lat": 47.02699,
    "lng": 19.12575
  },
  {
    "id": 3044669,
    "name": "Szentgotthárd",
    "lat": 46.95261,
    "lng": 16.27358
  },
  {
    "id": 721404,
    "name": "Dévaványa",
    "lat": 47.03333,
    "lng": 20.96667
  },
  {
    "id": 3055038,
    "name": "Biatorbágy",
    "lat": 47.4706,
    "lng": 18.81892
  },
  {
    "id": 718321,
    "name": "Kunhegyes",
    "lat": 47.36667,
    "lng": 20.63333
  },
  {
    "id": 3048847,
    "name": "Lenti",
    "lat": 46.62403,
    "lng": 16.53863
  },
  {
    "id": 3053283,
    "name": "Ercsi",
    "lat": 47.25194,
    "lng": 18.89623
  },
  {
    "id": 3055590,
    "name": "Balatonalmádi",
    "lat": 47.03526,
    "lng": 18.02076
  },
  {
    "id": 716356,
    "name": "Polgár",
    "lat": 47.86667,
    "lng": 21.11667
  },
  {
    "id": 3053434,
    "name": "Dunavarsány",
    "lat": 47.27859,
    "lng": 19.06617
  },
  {
    "id": 3043678,
    "name": "Tura",
    "lat": 47.60924,
    "lng": 19.60279
  },
  {
    "id": 3044154,
    "name": "Sülysáp",
    "lat": 47.45206,
    "lng": 19.53369
  },
  {
    "id": 720687,
    "name": "Füzesabony",
    "lat": 47.75,
    "lng": 20.41667
  },
  {
    "id": 3050909,
    "name": "Jászárokszállás",
    "lat": 47.64238,
    "lng": 19.98038
  },
  {
    "id": 3052381,
    "name": "Gárdony",
    "lat": 47.20942,
    "lng": 18.63607
  },
  {
    "id": 3044103,
    "name": "Tárnok",
    "lat": 47.37327,
    "lng": 18.84579
  },
  {
    "id": 716951,
    "name": "Nyíradony",
    "lat": 47.69746,
    "lng": 21.91878
  },
  {
    "id": 3042603,
    "name": "Zalaszentgrót",
    "lat": 46.94474,
    "lng": 17.07925
  },
  {
    "id": 715924,
    "name": "Sándorfalva",
    "lat": 46.36087,
    "lng": 20.09889
  },
  {
    "id": 3045298,
    "name": "Soltvadkert",
    "lat": 46.57889,
    "lng": 19.39389
  },
  {
    "id": 3047282,
    "name": "Nyergesújfalu",
    "lat": 47.76027,
    "lng": 18.55694
  },
  {
    "id": 3055760,
    "name": "Bácsalmás",
    "lat": 46.12648,
    "lng": 19.3326
  },
  {
    "id": 3053971,
    "name": "Csömör",
    "lat": 47.55,
    "lng": 19.23333
  },
  {
    "id": 716247,
    "name": "Putnok",
    "lat": 48.3,
    "lng": 20.43333
  },
  {
    "id": 714073,
    "name": "Vésztő",
    "lat": 46.91667,
    "lng": 21.26667
  },
  {
    "id": 3049719,
    "name": "Kistelek",
    "lat": 46.4725,
    "lng": 19.97972
  },
  {
    "id": 3042536,
    "name": "Zirc",
    "lat": 47.26362,
    "lng": 17.87373
  },
  {
    "id": 3051822,
    "name": "Halásztelek",
    "lat": 47.36173,
    "lng": 18.98119
  },
  {
    "id": 717591,
    "name": "Mindszent",
    "lat": 46.52362,
    "lng": 20.19038
  },
  {
    "id": 3056437,
    "name": "Ács",
    "lat": 47.71231,
    "lng": 18.01131
  },
  {
    "id": 3053297,
    "name": "Enying",
    "lat": 46.93046,
    "lng": 18.24202
  },
  {
    "id": 718113,
    "name": "Létavértes",
    "lat": 47.38333,
    "lng": 21.9
  },
  {
    "id": 716893,
    "name": "Nyírtelek",
    "lat": 48.01667,
    "lng": 21.63333
  },
  {
    "id": 3044575,
    "name": "Szentlőrinc",
    "lat": 46.04016,
    "lng": 17.98719
  },
  {
    "id": 720857,
    "name": "Felsőzsolca",
    "lat": 48.1,
    "lng": 20.86667
  },
  {
    "id": 3045303,
    "name": "Solt",
    "lat": 46.80101,
    "lng": 19.00098
  },
  {
    "id": 720992,
    "name": "Fegyvernek",
    "lat": 47.26667,
    "lng": 20.53333
  },
  {
    "id": 717397,
    "name": "Nagyecsed",
    "lat": 47.86547,
    "lng": 22.39159
  },
  {
    "id": 721159,
    "name": "Encs",
    "lat": 48.33333,
    "lng": 21.13333
  },
  {
    "id": 719806,
    "name": "Ibrány",
    "lat": 48.12329,
    "lng": 21.70953
  },
  {
    "id": 717656,
    "name": "Mezőkovácsháza",
    "lat": 46.4,
    "lng": 20.91667
  },
  {
    "id": 714421,
    "name": "Újszász",
    "lat": 47.3,
    "lng": 20.08333
  },
  {
    "id": 3055298,
    "name": "Bátaszék",
    "lat": 46.19373,
    "lng": 18.72307
  },
  {
    "id": 722650,
    "name": "Balkány",
    "lat": 47.77066,
    "lng": 21.86314
  },
  {
    "id": 3045070,
    "name": "Sümeg",
    "lat": 46.97703,
    "lng": 17.28209
  },
  {
    "id": 3044153,
    "name": "Tápiószecső",
    "lat": 47.45,
    "lng": 19.60923
  },
  {
    "id": 3045017,
    "name": "Szabadszállás",
    "lat": 46.87575,
    "lng": 19.22324
  },
  {
    "id": 722477,
    "name": "Battonya",
    "lat": 46.28333,
    "lng": 21.01667
  },
  {
    "id": 3046249,
    "name": "Polgárdi",
    "lat": 47.06099,
    "lng": 18.302
  },
  {
    "id": 717667,
    "name": "Mezőcsát",
    "lat": 47.81667,
    "lng": 20.91667
  },
  {
    "id": 714548,
    "name": "Tótkomlós",
    "lat": 46.41667,
    "lng": 20.73333
  },
  {
    "id": 3046353,
    "name": "Piliscsaba",
    "lat": 47.63417,
    "lng": 18.82886
  },
  {
    "id": 3044809,
    "name": "Szécsény",
    "lat": 48.08057,
    "lng": 19.52019
  },
  {
    "id": 720679,
    "name": "Füzesgyarmat",
    "lat": 47.1,
    "lng": 21.21667
  },
  {
    "id": 719555,
    "name": "Kaba",
    "lat": 47.35,
    "lng": 21.28333
  },
  {
    "id": 3046087,
    "name": "Pusztaszabolcs",
    "lat": 47.13718,
    "lng": 18.76704
  },
  {
    "id": 714914,
    "name": "Téglás",
    "lat": 47.71667,
    "lng": 21.68333
  },
  {
    "id": 3050927,
    "name": "Jánossomorja",
    "lat": 47.78621,
    "lng": 17.13603
  },
  {
    "id": 717662,
    "name": "Mezőhegyes",
    "lat": 46.31667,
    "lng": 20.81667
  },
  {
    "id": 719640,
    "name": "Jászladány",
    "lat": 47.36667,
    "lng": 20.16667
  },
  {
    "id": 3044151,
    "name": "Tápiószele",
    "lat": 47.33609,
    "lng": 19.87724
  },
  {
    "id": 3054693,
    "name": "Aszód",
    "lat": 47.65174,
    "lng": 19.4785
  },
  {
    "id": 3053684,
    "name": "Diósd",
    "lat": 47.4095,
    "lng": 18.94898
  },
  {
    "id": 3044181,
    "name": "Taksony",
    "lat": 47.32968,
    "lng": 19.06695
  },
  {
    "id": 714742,
    "name": "Tiszalök",
    "lat": 48.01667,
    "lng": 21.38333
  },
  {
    "id": 3051016,
    "name": "Izsák",
    "lat": 46.80454,
    "lng": 19.35172
  },
  {
    "id": 718637,
    "name": "Komádi",
    "lat": 47.0,
    "lng": 21.5
  },
  {
    "id": 3048725,
    "name": "Lőrinci",
    "lat": 47.73295,
    "lng": 19.67867
  },
  {
    "id": 722882,
    "name": "Alsózsolca",
    "lat": 48.06982,
    "lng": 20.88046
  },
  {
    "id": 3050526,
    "name": "Kartal",
    "lat": 47.67133,
    "lng": 19.542
  },
  {
    "id": 3053253,
    "name": "Erdőkertes",
    "lat": 47.67261,
    "lng": 19.30786
  },
  {
    "id": 3050311,
    "name": "Kerekegyháza",
    "lat": 46.93722,
    "lng": 19.47806
  },
  {
    "id": 3055584,
    "name": "Balatonboglár",
    "lat": 46.77525,
    "lng": 17.64415
  },
  {
    "id": 715259,
    "name": "Szikszó",
    "lat": 48.2,
    "lng": 20.93333
  },
  {
    "id": 3053577,
    "name": "Dömsöd",
    "lat": 47.09005,
    "lng": 19.01106
  },
  {
    "id": 717345,
    "name": "Nagyhalász",
    "lat": 48.13266,
    "lng": 21.76104
  },
  {
    "id": 3050088,
    "name": "Kisbér",
    "lat": 47.50289,
    "lng": 18.03665
  },
  {
    "id": 718315,
    "name": "Kunmadaras",
    "lat": 47.43333,
    "lng": 20.8
  },
  {
    "id": 3055091,
    "name": "Berhida",
    "lat": 47.11131,
    "lng": 18.12948
  },
  {
    "id": 718615,
    "name": "Kondoros",
    "lat": 46.76667,
    "lng": 20.8
  },
  {
    "id": 3048194,
    "name": "Mélykút",
    "lat": 46.21509,
    "lng": 19.38102
  },
  {
    "id": 719643,
    "name": "Jászkisér",
    "lat": 47.45,
    "lng": 20.21667
  },
  {
    "id": 3053863,
    "name": "Csurgó",
    "lat": 46.25314,
    "lng": 17.1006
  },
  {
    "id": 721559,
    "name": "Csorvás",
    "lat": 46.63333,
    "lng": 20.83333
  },
  {
    "id": 717130,
    "name": "Nagyszénás",
    "lat": 46.68333,
    "lng": 20.66667
  },
  {
    "id": 714449,
    "name": "Újkígyós",
    "lat": 46.58333,
    "lng": 21.03333
  },
  {
    "id": 3044149,
    "name": "Tápiószentmárton",
    "lat": 47.3399,
    "lng": 19.74648
  },
  {
    "id": 3044084,
    "name": "Tát",
    "lat": 47.74148,
    "lng": 18.64813
  },
  {
    "id": 721208,
    "name": "Egyek",
    "lat": 47.63333,
    "lng": 20.9
  },
  {
    "id": 714739,
    "name": "Tiszalúc",
    "lat": 48.03774,
    "lng": 21.07261
  },
  {
    "id": 3047127,
    "name": "Őrbottyán",
    "lat": 47.68711,
    "lng": 19.28239
  },
  {
    "id": 716197,
    "name": "Rákóczifalva",
    "lat": 47.08333,
    "lng": 20.23333
  },
  {
    "id": 3042507,
    "name": "Zsámbék",
    "lat": 47.54814,
    "lng": 18.72011
  },
  {
    "id": 719843,
    "name": "Hosszúpályi",
    "lat": 47.39303,
    "lng": 21.7328
  },
  {
    "id": 3046546,
    "name": "Páty",
    "lat": 47.51709,
    "lng": 18.82851
  },
  {
    "id": 721189,
    "name": "Elek",
    "lat": 46.53333,
    "lng": 21.25
  },
  {
    "id": 714265,
    "name": "Vámospércs",
    "lat": 47.53333,
    "lng": 21.9
  },
  {
    "id": 3047922,
    "name": "Mórahalom",
    "lat": 46.21806,
    "lng": 19.8851
  },
  {
    "id": 3054606,
    "name": "Bugyi",
    "lat": 47.22748,
    "lng": 19.14664
  },
  {
    "id": 721161,
    "name": "Emőd",
    "lat": 47.93333,
    "lng": 20.81667
  },
  {
    "id": 3049036,
    "name": "Lábatlan",
    "lat": 47.74735,
    "lng": 18.49623
  },
  {
    "id": 3054434,
    "name": "Csákvár",
    "lat": 47.39184,
    "lng": 18.46501
  },
  {
    "id": 7284899,
    "name": "Algyő",
    "lat": 46.33472,
    "lng": 20.20849
  },
  {
    "id": 719252,
    "name": "Kenderes",
    "lat": 47.25,
    "lng": 20.68333
  },
  {
    "id": 721789,
    "name": "Csenger",
    "lat": 47.83582,
    "lng": 22.68096
  },
  {
    "id": 3052574,
    "name": "Fonyód",
    "lat": 46.74303,
    "lng": 17.55754
  },
  {
    "id": 716204,
    "name": "Rakamaz",
    "lat": 48.12372,
    "lng": 21.46429
  },
  {
    "id": 3048326,
    "name": "Martonvásár",
    "lat": 47.31601,
    "lng": 18.79045
  },
  {
    "id": 3053712,
    "name": "Devecser",
    "lat": 47.10316,
    "lng": 17.43802
  },
  {
    "id": 3046916,
    "name": "Örkény",
    "lat": 47.12991,
    "lng": 19.43324
  },
  {
    "id": 3338787,
    "name": "Tiszaalpár",
    "lat": 46.81279,
    "lng": 19.99841
  },
  {
    "id": 719260,
    "name": "Kemecse",
    "lat": 48.07532,
    "lng": 21.80625
  },
  {
    "id": 718528,
    "name": "Körösladány",
    "lat": 46.96667,
    "lng": 21.08333
  },
  {
    "id": 3056108,
    "name": "Alsónémedi",
    "lat": 47.31524,
    "lng": 19.15843
  },
  {
    "id": 714785,
    "name": "Tiszacsege",
    "lat": 47.7,
    "lng": 21.0
  },
  {
    "id": 3047986,
    "name": "Mogyoród",
    "lat": 47.59748,
    "lng": 19.2407
  },
  {
    "id": 716968,
    "name": "Nyékládháza",
    "lat": 47.98333,
    "lng": 20.83333
  },
  {
    "id": 3055551,
    "name": "Balatonlelle",
    "lat": 46.78318,
    "lng": 17.69498
  },
  {
    "id": 3048107,
    "name": "Mezőfalva",
    "lat": 46.93184,
    "lng": 18.77177
  },
  {
    "id": 3046396,
    "name": "Pétfürdő",
    "lat": 47.16667,
    "lng": 18.11667
  },
  {
    "id": 3044567,
    "name": "Szentmártonkáta",
    "lat": 47.45419,
    "lng": 19.70143
  },
  {
    "id": 3043820,
    "name": "Tompa",
    "lat": 46.20605,
    "lng": 19.5391
  },
  {
    "id": 3042998,
    "name": "Velence",
    "lat": 47.23855,
    "lng": 18.65484
  },
  {
    "id": 3044221,
    "name": "Tab",
    "lat": 46.73135,
    "lng": 18.03201
  },
  {
    "id": 713929,
    "name": "Záhony",
    "lat": 48.40906,
    "lng": 22.17614
  },
  {
    "id": 3043317,
    "name": "Üröm",
    "lat": 47.59674,
    "lng": 19.01583
  },
  {
    "id": 716908,
    "name": "Nyírmada",
    "lat": 48.06667,
    "lng": 22.2
  },
  {
    "id": 3043758,
    "name": "Törtel",
    "lat": 47.12209,
    "lng": 19.93714
  },
  {
    "id": 3054542,
    "name": "Ceglédbercel",
    "lat": 47.2237,
    "lng": 19.66828
  },
  {
    "id": 716799,
    "name": "Onga",
    "lat": 48.11667,
    "lng": 20.91667
  },
  {
    "id": 715199,
    "name": "Szirmabesenyő",
    "lat": 48.15,
    "lng": 20.8
  },
  {
    "id": 7288071,
    "name": "Miskolctapolca",
    "lat": 48.06334,
    "lng": 20.74751
  },
  {
    "id": 3044191,
    "name": "Tahitótfalu",
    "lat": 47.75161,
    "lng": 19.07886
  },
  {
    "id": 3047619,
    "name": "Nagymaros",
    "lat": 47.7928,
    "lng": 18.95984
  },
  {
    "id": 714570,
    "name": "Tószeg",
    "lat": 47.1,
    "lng": 20.15
  },
  {
    "id": 3043033,
    "name": "Vasvár",
    "lat": 47.04928,
    "lng": 16.79954
  },
  {
    "id": 3051965,
    "name": "Győrújbarát",
    "lat": 47.60643,
    "lng": 17.64875
  },
  {
    "id": 717853,
    "name": "Mándok",
    "lat": 48.32149,
    "lng": 22.19107
  },
  {
    "id": 721923,
    "name": "Cibakháza",
    "lat": 46.95976,
    "lng": 20.19753
  },
  {
    "id": 718480,
    "name": "Kótaj",
    "lat": 48.05,
    "lng": 21.71667
  },
  {
    "id": 3056450,
    "name": "Aba",
    "lat": 47.02907,
    "lng": 18.52172
  },
  {
    "id": 3045386,
    "name": "Seregélyes",
    "lat": 47.1105,
    "lng": 18.565
  },
  {
    "id": 3045341,
    "name": "Simontornya",
    "lat": 46.75462,
    "lng": 18.5549
  },
  {
    "id": 3048820,
    "name": "Letenye",
    "lat": 46.43301,
    "lng": 16.72583
  },
  {
    "id": 3045039,
    "name": "Szabadbattyán",
    "lat": 47.11902,
    "lng": 18.36823
  },
  {
    "id": 721257,
    "name": "Ebes",
    "lat": 47.46667,
    "lng": 21.5
  },
  {
    "id": 721349,
    "name": "Doboz",
    "lat": 46.73333,
    "lng": 21.25
  },
  {
    "id": 3053132,
    "name": "Fadd",
    "lat": 46.46476,
    "lng": 18.81925
  },
  {
    "id": 3051477,
    "name": "Hévíz",
    "lat": 46.79031,
    "lng": 17.18408
  },
  {
    "id": 3048984,
    "name": "Lakitelek",
    "lat": 46.87601,
    "lng": 19.99504
  },
  {
    "id": 3054296,
    "name": "Csemő",
    "lat": 47.11799,
    "lng": 19.69092
  },
  {
    "id": 715415,
    "name": "Szegvár",
    "lat": 46.5874,
    "lng": 20.22408
  },
  {
    "id": 3053809,
    "name": "Dány",
    "lat": 47.52,
    "lng": 19.544
  },
  {
    "id": 3049574,
    "name": "Kóka",
    "lat": 47.48552,
    "lng": 19.57876
  },
  {
    "id": 3049421,
    "name": "Környe",
    "lat": 47.54668,
    "lng": 18.32081
  },
  {
    "id": 3044370,
    "name": "Sződliget",
    "lat": 47.73259,
    "lng": 19.14749
  },
  {
    "id": 720776,
    "name": "Földes",
    "lat": 47.3,
    "lng": 21.36667
  },
  {
    "id": 719126,
    "name": "Kétegyháza",
    "lat": 46.53333,
    "lng": 21.18333
  },
  {
    "id": 719232,
    "name": "Kengyel",
    "lat": 47.08333,
    "lng": 20.33333
  },
  {
    "id": 715355,
    "name": "Szendrő",
    "lat": 48.4,
    "lng": 20.73333
  },
  {
    "id": 721309,
    "name": "Dombrád",
    "lat": 48.23333,
    "lng": 21.93333
  },
  {
    "id": 3043865,
    "name": "Tokod",
    "lat": 47.72277,
    "lng": 18.65889
  },
  {
    "id": 722682,
    "name": "Baktalórántháza",
    "lat": 48.0,
    "lng": 22.08333
  },
  {
    "id": 3051133,
    "name": "Inárcs",
    "lat": 47.262,
    "lng": 19.327
  },
  {
    "id": 3048186,
    "name": "Mende",
    "lat": 47.43133,
    "lng": 19.45628
  },
  {
    "id": 721316,
    "name": "Domaszék",
    "lat": 46.24917,
    "lng": 20.01111
  },
  {
    "id": 722281,
    "name": "Biharkeresztes",
    "lat": 47.13333,
    "lng": 21.71667
  },
  {
    "id": 3046344,
    "name": "Pilisszentiván",
    "lat": 47.60964,
    "lng": 18.8994
  },
  {
    "id": 3053768,
    "name": "Decs",
    "lat": 46.28428,
    "lng": 18.76
  },
  {
    "id": 721444,
    "name": "Demecser",
    "lat": 48.11648,
    "lng": 21.92624
  },
  {
    "id": 3053432,
    "name": "Dunavecse",
    "lat": 46.91478,
    "lng": 18.97127
  },
  {
    "id": 715449,
    "name": "Szatymaz",
    "lat": 46.34306,
    "lng": 20.0402
  },
  {
    "id": 723044,
    "name": "Abádszalók",
    "lat": 47.46667,
    "lng": 20.6
  },
  {
    "id": 3046456,
    "name": "Perkáta",
    "lat": 47.04701,
    "lng": 18.78734
  },
  {
    "id": 714659,
    "name": "Tokaj",
    "lat": 48.11717,
    "lng": 21.40922
  },
  {
    "id": 3046036,
    "name": "Rácalmás",
    "lat": 47.02263,
    "lng": 18.94056
  },
  {
    "id": 3055835,
    "name": "Ásotthalom",
    "lat": 46.19875,
    "lng": 19.78334
  },
  {
    "id": 718723,
    "name": "Kiszombor",
    "lat": 46.18333,
    "lng": 20.43333
  },
  {
    "id": 722803,
    "name": "Arló",
    "lat": 48.18333,
    "lng": 20.26667
  },
  {
    "id": 717861,
    "name": "Mályi",
    "lat": 48.01667,
    "lng": 20.83333
  },
  {
    "id": 717658,
    "name": "Mezőkeresztes",
    "lat": 47.83333,
    "lng": 20.7
  },
  {
    "id": 3043946,
    "name": "Tét",
    "lat": 47.51922,
    "lng": 17.50802
  },
  {
    "id": 722431,
    "name": "Békésszentandrás",
    "lat": 46.86667,
    "lng": 20.48333
  },
  {
    "id": 3049277,
    "name": "Kozármisleny",
    "lat": 46.02967,
    "lng": 18.2921
  },
  {
    "id": 3046693,
    "name": "Pannonhalma",
    "lat": 47.54946,
    "lng": 17.75535
  },
  {
    "id": 715009,
    "name": "Taktaharkány",
    "lat": 48.08333,
    "lng": 21.13333
  },
  {
    "id": 3055721,
    "name": "Bag",
    "lat": 47.63333,
    "lng": 19.48333
  },
  {
    "id": 3054945,
    "name": "Bodajk",
    "lat": 47.32352,
    "lng": 18.23312
  },
  {
    "id": 721411,
    "name": "Deszk",
    "lat": 46.21802,
    "lng": 20.24322
  },
  {
    "id": 716952,
    "name": "Nyíracsád",
    "lat": 47.6033,
    "lng": 21.97208
  },
  {
    "id": 717741,
    "name": "Medgyesegyháza",
    "lat": 46.5,
    "lng": 21.03333
  },
  {
    "id": 3046505,
    "name": "Pécsvárad",
    "lat": 46.16033,
    "lng": 18.42321
  },
  {
    "id": 714081,
    "name": "Verpelét",
    "lat": 47.85,
    "lng": 20.23333
  },
  {
    "id": 720643,
    "name": "Gádoros",
    "lat": 46.66667,
    "lng": 20.6
  },
  {
    "id": 3051632,
    "name": "Nagyvenyim",
    "lat": 46.95764,
    "lng": 18.86353
  },
  {
    "id": 715570,
    "name": "Szajol",
    "lat": 47.18333,
    "lng": 20.3
  },
  {
    "id": 3045076,
    "name": "Sükösd",
    "lat": 46.28181,
    "lng": 18.99524
  },
  {
    "id": 722998,
    "name": "Ajak",
    "lat": 48.17664,
    "lng": 22.06273
  },
  {
    "id": 719493,
    "name": "Kállósemjén",
    "lat": 47.86081,
    "lng": 21.93929
  },
  {
    "id": 716954,
    "name": "Nyírábrány",
    "lat": 47.55311,
    "lng": 22.02401
  },
  {
    "id": 3051535,
    "name": "Helvécia",
    "lat": 46.83661,
    "lng": 19.62251
  },
  {
    "id": 3055772,
    "name": "Bábolna",
    "lat": 47.64361,
    "lng": 17.97798
  },
  {
    "id": 3052639,
    "name": "Fertőszentmiklós",
    "lat": 47.58996,
    "lng": 16.87517
  },
  {
    "id": 3044160,
    "name": "Tápiógyörgye",
    "lat": 47.33505,
    "lng": 19.95276
  },
  {
    "id": 3047229,
    "name": "Nyúl",
    "lat": 47.59047,
    "lng": 17.68904
  },
  {
    "id": 3056414,
    "name": "Adony",
    "lat": 47.1194,
    "lng": 18.86493
  },
  {
    "id": 3051324,
    "name": "Hort",
    "lat": 47.69081,
    "lng": 19.7893
  },
  {
    "id": 3053073,
    "name": "Farmos",
    "lat": 47.36067,
    "lng": 19.84619
  },
  {
    "id": 717042,
    "name": "Napkor",
    "lat": 47.93797,
    "lng": 21.86763
  },
  {
    "id": 719656,
    "name": "Jászalsószentgyörgy",
    "lat": 47.36667,
    "lng": 20.1
  },
  {
    "id": 714296,
    "name": "Vaja",
    "lat": 48.00574,
    "lng": 22.16761
  },
  {
    "id": 3047316,
    "name": "Nyáregyháza",
    "lat": 47.26175,
    "lng": 19.50146
  },
  {
    "id": 3053199,
    "name": "Érsekvadkert",
    "lat": 47.99619,
    "lng": 19.20231
  },
  {
    "id": 3051581,
    "name": "Hegyeshalom",
    "lat": 47.91338,
    "lng": 17.15388
  },
  {
    "id": 716864,
    "name": "Öcsöd",
    "lat": 46.9,
    "lng": 20.4
  },
  {
    "id": 3051657,
    "name": "Harta",
    "lat": 46.69758,
    "lng": 19.0311
  },
  {
    "id": 713932,
    "name": "Zagyvarékas",
    "lat": 47.26667,
    "lng": 20.13333
  },
  {
    "id": 3053459,
    "name": "Dunapataj",
    "lat": 46.644,
    "lng": 18.99632
  },
  {
    "id": 3051499,
    "name": "Hernád",
    "lat": 47.16238,
    "lng": 19.43295
  },
  {
    "id": 719511,
    "name": "Kál",
    "lat": 47.73333,
    "lng": 20.26667
  },
  {
    "id": 3054828,
    "name": "Bóly",
    "lat": 45.96722,
    "lng": 18.51833
  },
  {
    "id": 720026,
    "name": "Hernádnémeti",
    "lat": 48.06667,
    "lng": 20.98333
  },
  {
    "id": 3053147,
    "name": "Etyek",
    "lat": 47.44794,
    "lng": 18.75328
  },
  {
    "id": 3043048,
    "name": "Vaskút",
    "lat": 46.10782,
    "lng": 18.98514
  },
  {
    "id": 722057,
    "name": "Borsodnádasd",
    "lat": 48.11667,
    "lng": 20.25
  },
  {
    "id": 3047811,
    "name": "Nagybajom",
    "lat": 46.39232,
    "lng": 17.51147
  },
  {
    "id": 3051873,
    "name": "Hajós",
    "lat": 46.39861,
    "lng": 19.12056
  },
  {
    "id": 3044161,
    "name": "Tápióbicske",
    "lat": 47.36096,
    "lng": 19.68609
  },
  {
    "id": 3044211,
    "name": "Táborfalva",
    "lat": 47.09942,
    "lng": 19.47837
  },
  {
    "id": 3045479,
    "name": "Sásd",
    "lat": 46.2552,
    "lng": 18.10776
  },
  {
    "id": 715962,
    "name": "Sajókaza",
    "lat": 48.28333,
    "lng": 20.58333
  },
  {
    "id": 719967,
    "name": "Hodász",
    "lat": 47.91834,
    "lng": 22.20153
  },
  {
    "id": 717497,
    "name": "Múcsony",
    "lat": 48.26667,
    "lng": 20.68333
  },
  {
    "id": 3056347,
    "name": "Akasztó",
    "lat": 46.69167,
    "lng": 19.20423
  },
  {
    "id": 3045512,
    "name": "Sárosd",
    "lat": 47.04273,
    "lng": 18.64357
  },
  {
    "id": 3046940,
    "name": "Orgovány",
    "lat": 46.75087,
    "lng": 19.47259
  },
  {
    "id": 3042977,
    "name": "Vép",
    "lat": 47.23041,
    "lng": 16.72248
  },
  {
    "id": 722300,
    "name": "Besenyszög",
    "lat": 47.3,
    "lng": 20.26667
  },
  {
    "id": 3053406,
    "name": "Ecséd",
    "lat": 47.73267,
    "lng": 19.76696
  },
  {
    "id": 3051718,
    "name": "Harkány",
    "lat": 45.85002,
    "lng": 18.23668
  },
  {
    "id": 722676,
    "name": "Balástya",
    "lat": 46.42277,
    "lng": 20.00816
  },
  {
    "id": 3043887,
    "name": "Tóalmás",
    "lat": 47.50782,
    "lng": 19.66657
  },
  {
    "id": 717616,
    "name": "Mikepércs",
    "lat": 47.45,
    "lng": 21.63333
  },
  {
    "id": 722424,
    "name": "Bélapátfalva",
    "lat": 48.05,
    "lng": 20.36667
  },
  {
    "id": 3051512,
    "name": "Herend",
    "lat": 47.13333,
    "lng": 17.75
  },
  {
    "id": 3053986,
    "name": "Csolnok",
    "lat": 47.69116,
    "lng": 18.71611
  },
  {
    "id": 3048852,
    "name": "Lengyeltóti",
    "lat": 46.67013,
    "lng": 17.64398
  },
  {
    "id": 3044990,
    "name": "Szada",
    "lat": 47.63333,
    "lng": 19.31667
  },
  {
    "id": 3052645,
    "name": "Fertőd",
    "lat": 47.62173,
    "lng": 16.87088
  },
  {
    "id": 3042956,
    "name": "Verőce",
    "lat": 47.82468,
    "lng": 19.03484
  },
  {
    "id": 716945,
    "name": "Nyírbogát",
    "lat": 47.8034,
    "lng": 22.06561
  },
  {
    "id": 3053402,
    "name": "Ecser",
    "lat": 47.44389,
    "lng": 19.3245
  },
  {
    "id": 714490,
    "name": "Tuzsér",
    "lat": 48.34407,
    "lng": 22.11762
  },
  {
    "id": 3055556,
    "name": "Balatonkenese",
    "lat": 47.04019,
    "lng": 18.10671
  },
  {
    "id": 714779,
    "name": "Tiszadob",
    "lat": 48.01667,
    "lng": 21.16667
  },
  {
    "id": 722133,
    "name": "Bököny",
    "lat": 47.73333,
    "lng": 21.75
  },
  {
    "id": 3047574,
    "name": "Nagyréde",
    "lat": 47.76543,
    "lng": 19.84819
  },
  {
    "id": 3051280,
    "name": "Hosszúhetény",
    "lat": 46.16414,
    "lng": 18.35077
  },
  {
    "id": 3055414,
    "name": "Baracs",
    "lat": 46.88202,
    "lng": 18.90658
  },
  {
    "id": 3053423,
    "name": "Dusnok",
    "lat": 46.39085,
    "lng": 18.96296
  },
  {
    "id": 714973,
    "name": "Tarcal",
    "lat": 48.13333,
    "lng": 21.35
  },
  {
    "id": 3042441,
    "name": "Zsombó",
    "lat": 46.32566,
    "lng": 19.97464
  },
  {
    "id": 720780,
    "name": "Földeák",
    "lat": 46.31667,
    "lng": 20.5
  },
  {
    "id": 3048657,
    "name": "Madaras",
    "lat": 46.0587,
    "lng": 19.26121
  },
  {
    "id": 721913,
    "name": "Cigánd",
    "lat": 48.25561,
    "lng": 21.89195
  },
  {
    "id": 3054260,
    "name": "Csepreg",
    "lat": 47.40098,
    "lng": 16.70881
  },
  {
    "id": 716028,
    "name": "Röszke",
    "lat": 46.18796,
    "lng": 20.03372
  },
  {
    "id": 3050647,
    "name": "Kápolnásnyék",
    "lat": 47.24004,
    "lng": 18.67564
  },
  {
    "id": 3048835,
    "name": "Lepsény",
    "lat": 46.99036,
    "lng": 18.24357
  },
  {
    "id": 721861,
    "name": "Csanádpalota",
    "lat": 46.25,
    "lng": 20.73333
  },
  {
    "id": 720862,
    "name": "Felsőtárkány",
    "lat": 47.96667,
    "lng": 20.41667
  },
  {
    "id": 3048888,
    "name": "Lébény",
    "lat": 47.73574,
    "lng": 17.39076
  },
  {
    "id": 721119,
    "name": "Erdőtelek",
    "lat": 47.68333,
    "lng": 20.31667
  },
  {
    "id": 3042617,
    "name": "Zalalövő",
    "lat": 46.84802,
    "lng": 16.5875
  },
  {
    "id": 723041,
    "name": "Abasár",
    "lat": 47.79705,
    "lng": 20.00324
  },
  {
    "id": 3045406,
    "name": "Sellye",
    "lat": 45.87247,
    "lng": 17.84711
  },
  {
    "id": 3046354,
    "name": "Pilisborosjenő",
    "lat": 47.60744,
    "lng": 18.99322
  },
  {
    "id": 3055644,
    "name": "Bakonycsernye",
    "lat": 47.32395,
    "lng": 18.07509
  },
  {
    "id": 3054597,
    "name": "Bük",
    "lat": 47.38486,
    "lng": 16.75065
  },
  {
    "id": 720274,
    "name": "Hajdúszovát",
    "lat": 47.38333,
    "lng": 21.48333
  },
  {
    "id": 716899,
    "name": "Nyírpazony",
    "lat": 47.98333,
    "lng": 21.8
  },
  {
    "id": 3052023,
    "name": "Gyöngyössolymos",
    "lat": 47.81724,
    "lng": 19.93619
  },
  {
    "id": 3044147,
    "name": "Tápiószőlős",
    "lat": 47.30248,
    "lng": 19.85133
  },
  {
    "id": 723036,
    "name": "Abaújszántó",
    "lat": 48.28333,
    "lng": 21.2
  },
  {
    "id": 3043358,
    "name": "Üllés",
    "lat": 46.33611,
    "lng": 19.84454
  },
  {
    "id": 3047689,
    "name": "Nagyigmánd",
    "lat": 47.64093,
    "lng": 18.0813
  },
  {
    "id": 719419,
    "name": "Karácsond",
    "lat": 47.72962,
    "lng": 20.03076
  },
  {
    "id": 3054850,
    "name": "Boldog",
    "lat": 47.60285,
    "lng": 19.68839
  },
  {
    "id": 719644,
    "name": "Jászkarajenő",
    "lat": 47.05,
    "lng": 20.06667
  },
  {
    "id": 3046027,
    "name": "Ráckeresztúr",
    "lat": 47.2736,
    "lng": 18.83343
  },
  {
    "id": 715970,
    "name": "Sajóbábony",
    "lat": 48.16667,
    "lng": 20.73333
  },
  {
    "id": 3042621,
    "name": "Zalakomár",
    "lat": 46.53795,
    "lng": 17.18094
  },
  {
    "id": 3051476,
    "name": "Hévízgyörk",
    "lat": 47.63333,
    "lng": 19.51667
  },
  {
    "id": 3054795,
    "name": "Bordány",
    "lat": 46.31843,
    "lng": 19.92306
  },
  {
    "id": 3048986,
    "name": "Lakihegy",
    "lat": 47.37765,
    "lng": 19.01034
  },
  {
    "id": 719645,
    "name": "Jászjákóhalma",
    "lat": 47.52038,
    "lng": 19.99086
  },
  {
    "id": 3055757,
    "name": "Bácsbokod",
    "lat": 46.125,
    "lng": 19.15621
  },
  {
    "id": 717726,
    "name": "Megyaszó",
    "lat": 48.18333,
    "lng": 21.05
  },
  {
    "id": 3054612,
    "name": "Bugac",
    "lat": 46.68704,
    "lng": 19.68074
  },
  {
    "id": 3044380,
    "name": "Szob",
    "lat": 47.81921,
    "lng": 18.8702
  },
  {
    "id": 3046387,
    "name": "Petőfibánya",
    "lat": 47.7696,
    "lng": 19.69988
  },
  {
    "id": 3053495,
    "name": "Dunabogdány",
    "lat": 47.79052,
    "lng": 19.04125
  },
  {
    "id": 3044371,
    "name": "Sződ",
    "lat": 47.72439,
    "lng": 19.17046
  },
  {
    "id": 718699,
    "name": "Kocsord",
    "lat": 47.93912,
    "lng": 22.38333
  },
  {
    "id": 3052786,
    "name": "Felsőpakony",
    "lat": 47.34329,
    "lng": 19.23698
  },
  {
    "id": 716943,
    "name": "Nyírbogdány",
    "lat": 48.05723,
    "lng": 21.88242
  },
  {
    "id": 718911,
    "name": "Kisköre",
    "lat": 47.5,
    "lng": 20.5
  },
  {
    "id": 716793,
    "name": "Ópályi",
    "lat": 47.99771,
    "lng": 22.32617
  },
  {
    "id": 716339,
    "name": "Poroszló",
    "lat": 47.65,
    "lng": 20.66667
  },
  {
    "id": 3051415,
    "name": "Hőgyész",
    "lat": 46.49697,
    "lng": 18.41841
  },
  {
    "id": 715862,
    "name": "Sárrétudvari",
    "lat": 47.23333,
    "lng": 21.2
  },
  {
    "id": 716946,
    "name": "Nyírbéltek",
    "lat": 47.7,
    "lng": 22.13333
  },
  {
    "id": 3045846,
    "name": "Rétság",
    "lat": 47.92816,
    "lng": 19.1372
  },
  {
    "id": 716909,
    "name": "Nyírlugos",
    "lat": 47.69315,
    "lng": 22.04476
  },
  {
    "id": 715958,
    "name": "Sajólád",
    "lat": 48.04027,
    "lng": 20.90247
  },
  {
    "id": 3045144,
    "name": "Sóskút",
    "lat": 47.40665,
    "lng": 18.82247
  },
  {
    "id": 3056445,
    "name": "Abda",
    "lat": 47.69464,
    "lng": 17.54489
  },
  {
    "id": 716151,
    "name": "Recsk",
    "lat": 47.93333,
    "lng": 20.11667
  },
  {
    "id": 3050406,
    "name": "Kelebia",
    "lat": 46.1968,
    "lng": 19.61659
  },
  {
    "id": 3044941,
    "name": "Szalkszentmárton",
    "lat": 46.97565,
    "lng": 19.01178
  },
  {
    "id": 716526,
    "name": "Pátroha",
    "lat": 48.16667,
    "lng": 22.0
  },
  {
    "id": 3051969,
    "name": "Győrszemere",
    "lat": 47.55256,
    "lng": 17.56356
  },
  {
    "id": 3044093,
    "name": "Tass",
    "lat": 47.02095,
    "lng": 19.02988
  },
  {
    "id": 715614,
    "name": "Szabadkígyós",
    "lat": 46.61667,
    "lng": 21.1
  },
  {
    "id": 718334,
    "name": "Kunágota",
    "lat": 46.43333,
    "lng": 21.05
  },
  {
    "id": 3054456,
    "name": "Csabrendek",
    "lat": 47.01356,
    "lng": 17.29108
  },
  {
    "id": 718108,
    "name": "Levelek",
    "lat": 47.96282,
    "lng": 21.98537
  },
  {
    "id": 3054853,
    "name": "Bölcske",
    "lat": 46.74102,
    "lng": 18.96736
  },
  {
    "id": 715989,
    "name": "Rudabánya",
    "lat": 48.38333,
    "lng": 20.63333
  },
  {
    "id": 721856,
    "name": "Csanytelek",
    "lat": 46.59501,
    "lng": 20.12342
  },
  {
    "id": 722278,
    "name": "Biharnagybajom",
    "lat": 47.21667,
    "lng": 21.23333
  },
  {
    "id": 3055196,
    "name": "Beled",
    "lat": 47.46594,
    "lng": 17.09294
  },
  {
    "id": 716853,
    "name": "Okány",
    "lat": 46.9,
    "lng": 21.35
  },
  {
    "id": 715558,
    "name": "Szakoly",
    "lat": 47.76667,
    "lng": 21.91667
  },
  {
    "id": 722849,
    "name": "Apátfalva",
    "lat": 46.16667,
    "lng": 20.58333
  },
  {
    "id": 3045542,
    "name": "Sárisáp",
    "lat": 47.677,
    "lng": 18.67933
  },
  {
    "id": 3056424,
    "name": "Adács",
    "lat": 47.6921,
    "lng": 19.97696
  },
  {
    "id": 3054027,
    "name": "Csobánka",
    "lat": 47.64637,
    "lng": 18.96189
  },
  {
    "id": 3053203,
    "name": "Érsekcsanád",
    "lat": 46.25352,
    "lng": 18.98457
  },
  {
    "id": 3052208,
    "name": "Gomba",
    "lat": 47.37095,
    "lng": 19.53057
  },
  {
    "id": 714776,
    "name": "Tiszaeszlár",
    "lat": 48.05,
    "lng": 21.46667
  },
  {
    "id": 3043581,
    "name": "Újhartyán",
    "lat": 47.21981,
    "lng": 19.38638
  },
  {
    "id": 3051829,
    "name": "Halászi",
    "lat": 47.8893,
    "lng": 17.32615
  },
  {
    "id": 3049751,
    "name": "Kisszállás",
    "lat": 46.28009,
    "lng": 19.48954
  },
  {
    "id": 3047509,
    "name": "Nagytarcsa",
    "lat": 47.53128,
    "lng": 19.28343
  },
  {
    "id": 3050572,
    "name": "Karancslapujtő",
    "lat": 48.15,
    "lng": 19.73333
  },
  {
    "id": 3054547,
    "name": "Cece",
    "lat": 46.77056,
    "lng": 18.62826
  },
  {
    "id": 720533,
    "name": "Gesztely",
    "lat": 48.1,
    "lng": 20.96667
  },
  {
    "id": 3055539,
    "name": "Balatonszabadi",
    "lat": 46.89397,
    "lng": 18.13737
  },
  {
    "id": 3053810,
    "name": "Dánszentmiklós",
    "lat": 47.21486,
    "lng": 19.54695
  },
  {
    "id": 3044119,
    "name": "Tarján",
    "lat": 47.61042,
    "lng": 18.5107
  },
  {
    "id": 3045493,
    "name": "Sárszentmihály",
    "lat": 47.15321,
    "lng": 18.33879
  },
  {
    "id": 721864,
    "name": "Csanádapáca",
    "lat": 46.55,
    "lng": 20.88333
  },
  {
    "id": 3051035,
    "name": "Iváncsa",
    "lat": 47.1567,
    "lng": 18.8203
  },
  {
    "id": 3052069,
    "name": "Gyenesdiás",
    "lat": 46.77058,
    "lng": 17.2866
  },
  {
    "id": 3051881,
    "name": "Hajmáskér",
    "lat": 47.14513,
    "lng": 18.01964
  },
  {
    "id": 3047765,
    "name": "Nagydorog",
    "lat": 46.62749,
    "lng": 18.65565
  },
  {
    "id": 718516,
    "name": "Köröstarcsa",
    "lat": 46.88333,
    "lng": 21.03333
  },
  {
    "id": 3055108,
    "name": "Beremend",
    "lat": 45.79108,
    "lng": 18.43263
  },
  {
    "id": 3051100,
    "name": "Iregszemcse",
    "lat": 46.69286,
    "lng": 18.18581
  },
  {
    "id": 716343,
    "name": "Porcsalma",
    "lat": 47.88333,
    "lng": 22.56667
  },
  {
    "id": 3045688,
    "name": "Ruzsa",
    "lat": 46.28806,
    "lng": 19.74714
  },
  {
    "id": 3044156,
    "name": "Tápióság",
    "lat": 47.402,
    "lng": 19.63047
  },
  {
    "id": 716905,
    "name": "Nyírmeggyes",
    "lat": 47.91667,
    "lng": 22.26667
  },
  {
    "id": 3055901,
    "name": "Apc",
    "lat": 47.79419,
    "lng": 19.69429
  },
  {
    "id": 3050964,
    "name": "Jánosháza",
    "lat": 47.11937,
    "lng": 17.16503
  },
  {
    "id": 3055497,
    "name": "Ballószög",
    "lat": 46.86216,
    "lng": 19.57092
  },
  {
    "id": 3042941,
    "name": "Vértesszőlős",
    "lat": 47.62106,
    "lng": 18.3813
  },
  {
    "id": 3042652,
    "name": "Zákányszék",
    "lat": 46.27453,
    "lng": 19.88975
  },
  {
    "id": 3053682,
    "name": "Diósjenő",
    "lat": 47.93968,
    "lng": 19.04317
  },
  {
    "id": 3050785,
    "name": "Kadarkút",
    "lat": 46.23623,
    "lng": 17.62014
  },
  {
    "id": 3042871,
    "name": "Villány",
    "lat": 45.86889,
    "lng": 18.45389
  },
  {
    "id": 714787,
    "name": "Tiszabura",
    "lat": 47.45,
    "lng": 20.46667
  },
  {
    "id": 722555,
    "name": "Báránd",
    "lat": 47.3,
    "lng": 21.23333
  },
  {
    "id": 716860,
    "name": "Ófehértó",
    "lat": 47.93333,
    "lng": 22.05
  },
  {
    "id": 3046825,
    "name": "Öttevény",
    "lat": 47.71946,
    "lng": 17.48474
  },
  {
    "id": 714593,
    "name": "Tornyospálca",
    "lat": 48.26667,
    "lng": 22.18333
  },
  {
    "id": 3052026,
    "name": "Gyöngyöspata",
    "lat": 47.81505,
    "lng": 19.78925
  },
  {
    "id": 3043448,
    "name": "Újszilvás",
    "lat": 47.27477,
    "lng": 19.92477
  },
  {
    "id": 3046769,
    "name": "Pákozd",
    "lat": 47.21369,
    "lng": 18.53306
  },
  {
    "id": 3043321,
    "name": "Úri",
    "lat": 47.41429,
    "lng": 19.52762
  },
  {
    "id": 719678,
    "name": "Jánoshida",
    "lat": 47.38333,
    "lng": 20.06667
  },
  {
    "id": 716372,
    "name": "Pocsaj",
    "lat": 47.28333,
    "lng": 21.81667
  },
  {
    "id": 3050750,
    "name": "Kakucs",
    "lat": 47.242,
    "lng": 19.36467
  },
  {
    "id": 3048963,
    "name": "Lánycsók",
    "lat": 46.00543,
    "lng": 18.62526
  },
  {
    "id": 3055410,
    "name": "Baracska",
    "lat": 47.28225,
    "lng": 18.75853
  },
  {
    "id": 3055069,
    "name": "Berzence",
    "lat": 46.20907,
    "lng": 17.1481
  },
  {
    "id": 714751,
    "name": "Tiszakeszi",
    "lat": 47.78333,
    "lng": 21.0
  },
  {
    "id": 3044835,
    "name": "Szászvár",
    "lat": 46.27673,
    "lng": 18.37566
  },
  {
    "id": 722223,
    "name": "Bőcs",
    "lat": 48.05,
    "lng": 20.96667
  },
  {
    "id": 3048713,
    "name": "Lovasberény",
    "lat": 47.30997,
    "lng": 18.55177
  },
  {
    "id": 3045411,
    "name": "Segesd",
    "lat": 46.34142,
    "lng": 17.35132
  },
  {
    "id": 3055686,
    "name": "Baj",
    "lat": 47.64593,
    "lng": 18.3641
  },
  {
    "id": 3052391,
    "name": "Gara",
    "lat": 46.03194,
    "lng": 19.04278
  },
  {
    "id": 3049631,
    "name": "Kocs",
    "lat": 47.6075,
    "lng": 18.21517
  },
  {
    "id": 3048627,
    "name": "Mágocs",
    "lat": 46.34998,
    "lng": 18.2324
  },
  {
    "id": 3054352,
    "name": "Császártöltés",
    "lat": 46.42194,
    "lng": 19.18361
  },
  {
    "id": 3045884,
    "name": "Répcelak",
    "lat": 47.42105,
    "lng": 17.01795
  },
  {
    "id": 3052419,
    "name": "Galgahévíz",
    "lat": 47.61667,
    "lng": 19.56667
  },
  {
    "id": 3049860,
    "name": "Kisláng",
    "lat": 46.95744,
    "lng": 18.38813
  },
  {
    "id": 719635,
    "name": "Jászszentandrás",
    "lat": 47.58333,
    "lng": 20.18333
  },
  {
    "id": 717943,
    "name": "Magyarbánhegyes",
    "lat": 46.45,
    "lng": 20.96667
  },
  {
    "id": 715332,
    "name": "Szentistván",
    "lat": 47.76667,
    "lng": 20.66667
  },
  {
    "id": 714518,
    "name": "Tunyogmatolcs",
    "lat": 47.96667,
    "lng": 22.46667
  },
  {
    "id": 720480,
    "name": "Görbeháza",
    "lat": 47.83333,
    "lng": 21.23333
  },
  {
    "id": 3053450,
    "name": "Dunaszentgyörgy",
    "lat": 46.52852,
    "lng": 18.81771
  },
  {
    "id": 3049491,
    "name": "Kóny",
    "lat": 47.63053,
    "lng": 17.35717
  },
  {
    "id": 714734,
    "name": "Tiszanána",
    "lat": 47.56667,
    "lng": 20.53333
  },
  {
    "id": 722872,
    "name": "Andornaktálya",
    "lat": 47.85,
    "lng": 20.41667
  },
  {
    "id": 3050901,
    "name": "Jászszentlászló",
    "lat": 46.56685,
    "lng": 19.76065
  },
  {
    "id": 3045991,
    "name": "Rajka",
    "lat": 47.99643,
    "lng": 17.19821
  },
  {
    "id": 717980,
    "name": "Mád",
    "lat": 48.19442,
    "lng": 21.28208
  },
  {
    "id": 722301,
    "name": "Besenyőtelek",
    "lat": 47.7,
    "lng": 20.43333
  },
  {
    "id": 715393,
    "name": "Székkutas",
    "lat": 46.5,
    "lng": 20.53333
  },
  {
    "id": 3052035,
    "name": "Gyöngyöshalász",
    "lat": 47.74161,
    "lng": 19.92876
  },
  {
    "id": 722432,
    "name": "Békéssámson",
    "lat": 46.41667,
    "lng": 20.63333
  },
  {
    "id": 3052330,
    "name": "Gencsapáti",
    "lat": 47.28496,
    "lng": 16.59575
  },
  {
    "id": 716439,
    "name": "Pétervására",
    "lat": 48.01667,
    "lng": 20.1
  },
  {
    "id": 716317,
    "name": "Prügy",
    "lat": 48.08333,
    "lng": 21.25
  },
  {
    "id": 3048817,
    "name": "Levél",
    "lat": 47.8944,
    "lng": 17.2039
  },
  {
    "id": 3050208,
    "name": "Kesztölc",
    "lat": 47.71266,
    "lng": 18.80177
  },
  {
    "id": 3053321,
    "name": "Előszállás",
    "lat": 46.83094,
    "lng": 18.83481
  },
  {
    "id": 717632,
    "name": "Mezőzombor",
    "lat": 48.15,
    "lng": 21.26667
  },
  {
    "id": 3046336,
    "name": "Pincehely",
    "lat": 46.68095,
    "lng": 18.43935
  },
  {
    "id": 3047201,
    "name": "Őcsény",
    "lat": 46.3137,
    "lng": 18.75749
  },
  {
    "id": 3048895,
    "name": "Leányfalu",
    "lat": 47.71778,
    "lng": 19.08585
  },
  {
    "id": 3050714,
    "name": "Káloz",
    "lat": 46.95464,
    "lng": 18.48259
  },
  {
    "id": 714756,
    "name": "Tiszakarád",
    "lat": 48.2,
    "lng": 21.71667
  },
  {
    "id": 3046073,
    "name": "Pusztavám",
    "lat": 47.42948,
    "lng": 18.22648
  },
  {
    "id": 3047386,
    "name": "Nemesvámos",
    "lat": 47.05514,
    "lng": 17.87477
  },
  {
    "id": 3053760,
    "name": "Délegyháza",
    "lat": 47.24135,
    "lng": 19.09019
  },
  {
    "id": 3050627,
    "name": "Kaposmérő",
    "lat": 46.36167,
    "lng": 17.704
  },
  {
    "id": 3044916,
    "name": "Szank",
    "lat": 46.55713,
    "lng": 19.66103
  },
  {
    "id": 714782,
    "name": "Tiszadada",
    "lat": 48.03333,
    "lng": 21.25
  },
  {
    "id": 3047622,
    "name": "Nagymányok",
    "lat": 46.27911,
    "lng": 18.45489
  },
  {
    "id": 3052500,
    "name": "Fülöpszállás",
    "lat": 46.82075,
    "lng": 19.23748
  },
  {
    "id": 3046056,
    "name": "Rábapatona",
    "lat": 47.63224,
    "lng": 17.48004
  },
  {
    "id": 721986,
    "name": "Buj",
    "lat": 48.1,
    "lng": 21.65
  },
  {
    "id": 722802,
    "name": "Arnót",
    "lat": 48.13058,
    "lng": 20.85832
  },
  {
    "id": 722011,
    "name": "Bucsa",
    "lat": 47.2,
    "lng": 21.0
  },
  {
    "id": 3044800,
    "name": "Szedres",
    "lat": 46.47551,
    "lng": 18.68305
  },
  {
    "id": 3042504,
    "name": "Zsámbok",
    "lat": 47.54381,
    "lng": 19.61048
  },
  {
    "id": 3052021,
    "name": "Gyöngyöstarján",
    "lat": 47.81369,
    "lng": 19.86724
  },
  {
    "id": 3043217,
    "name": "Valkó",
    "lat": 47.56391,
    "lng": 19.51267
  },
  {
    "id": 716796,
    "name": "Ónod",
    "lat": 48.0,
    "lng": 20.91667
  },
  {
    "id": 722118,
    "name": "Boldva",
    "lat": 48.21667,
    "lng": 20.8
  },
  {
    "id": 3044492,
    "name": "Szigetcsép",
    "lat": 47.26492,
    "lng": 18.97048
  },
  {
    "id": 722448,
    "name": "Bekecs",
    "lat": 48.15,
    "lng": 21.18333
  },
  {
    "id": 3047804,
    "name": "Nagybaracska",
    "lat": 46.04248,
    "lng": 18.9059
  },
  {
    "id": 3043984,
    "name": "Tengelic",
    "lat": 46.52878,
    "lng": 18.71117
  },
  {
    "id": 3045530,
    "name": "Sárkeresztúr",
    "lat": 47.0054,
    "lng": 18.54391
  },
  {
    "id": 3054874,
    "name": "Böhönye",
    "lat": 46.41345,
    "lng": 17.38037
  },
  {
    "id": 722738,
    "name": "Bagamér",
    "lat": 47.44882,
    "lng": 21.989
  },
  {
    "id": 720846,
    "name": "Fényeslitke",
    "lat": 48.27133,
    "lng": 22.10009
  },
  {
    "id": 3045758,
    "name": "Romhány",
    "lat": 47.92618,
    "lng": 19.25723
  },
  {
    "id": 3050204,
    "name": "Kéthely",
    "lat": 46.64605,
    "lng": 17.39362
  },
  {
    "id": 719093,
    "name": "Kevermes",
    "lat": 46.41667,
    "lng": 21.18333
  },
  {
    "id": 716913,
    "name": "Nyírkarász",
    "lat": 48.09477,
    "lng": 22.10463
  },
  {
    "id": 3047309,
    "name": "Nyárlőrinc",
    "lat": 46.86017,
    "lng": 19.87836
  },
  {
    "id": 721314,
    "name": "Dombegyház",
    "lat": 46.33333,
    "lng": 21.13333
  },
  {
    "id": 717172,
    "name": "Nagyrábé",
    "lat": 47.2,
    "lng": 21.33333
  },
  {
    "id": 3050475,
    "name": "Katymár",
    "lat": 46.03398,
    "lng": 19.20935
  },
  {
    "id": 3046488,
    "name": "Pér",
    "lat": 47.61153,
    "lng": 17.80632
  },
  {
    "id": 3049377,
    "name": "Kosd",
    "lat": 47.80791,
    "lng": 19.17821
  },
  {
    "id": 3049013,
    "name": "Lajoskomárom",
    "lat": 46.84201,
    "lng": 18.33763
  },
  {
    "id": 716706,
    "name": "Ostoros",
    "lat": 47.86667,
    "lng": 20.43333
  },
  {
    "id": 3053764,
    "name": "Dég",
    "lat": 46.86807,
    "lng": 18.45042
  },
  {
    "id": 3056290,
    "name": "Almásfüzitő",
    "lat": 47.72752,
    "lng": 18.26153
  },
  {
    "id": 3054878,
    "name": "Bogyiszló",
    "lat": 46.38638,
    "lng": 18.82962
  },
  {
    "id": 3043224,
    "name": "Vál",
    "lat": 47.36264,
    "lng": 18.67931
  },
  {
    "id": 722852,
    "name": "Apagy",
    "lat": 47.96431,
    "lng": 21.93539
  },
  {
    "id": 3054600,
    "name": "Buják",
    "lat": 47.88352,
    "lng": 19.54381
  },
  {
    "id": 3044144,
    "name": "Táplánszentkereszt",
    "lat": 47.19496,
    "lng": 16.69613
  },
  {
    "id": 717904,
    "name": "Maklár",
    "lat": 47.8,
    "lng": 20.41667
  },
  {
    "id": 714714,
    "name": "Tiszaszentimre",
    "lat": 47.48333,
    "lng": 20.73333
  },
  {
    "id": 7284910,
    "name": "Mosonszentmiklós",
    "lat": 47.72778,
    "lng": 17.42784
  },
  {
    "id": 3044861,
    "name": "Szárliget",
    "lat": 47.51581,
    "lng": 18.4948
  },
  {
    "id": 717693,
    "name": "Mérk",
    "lat": 47.78824,
    "lng": 22.38038
  },
  {
    "id": 714938,
    "name": "Tarpa",
    "lat": 48.1048,
    "lng": 22.53744
  },
  {
    "id": 3050872,
    "name": "Jobbágyi",
    "lat": 47.83238,
    "lng": 19.67762
  },
  {
    "id": 715904,
    "name": "Sáránd",
    "lat": 47.4,
    "lng": 21.63333
  },
  {
    "id": 3050165,
    "name": "Kimle",
    "lat": 47.81726,
    "lng": 17.36642
  },
  {
    "id": 3051001,
    "name": "Ják",
    "lat": 47.14249,
    "lng": 16.58148
  },
  {
    "id": 3046349,
    "name": "Piliscsév",
    "lat": 47.67924,
    "lng": 18.81872
  },
  {
    "id": 3048094,
    "name": "Mezőszilas",
    "lat": 46.81109,
    "lng": 18.47789
  },
  {
    "id": 3051520,
    "name": "Hercegszántó",
    "lat": 45.95,
    "lng": 18.93917
  },
  {
    "id": 3056418,
    "name": "Ádánd",
    "lat": 46.85931,
    "lng": 18.16442
  },
  {
    "id": 3044909,
    "name": "Szany",
    "lat": 47.46423,
    "lng": 17.30402
  },
  {
    "id": 3045201,
    "name": "Somoskőújfalu",
    "lat": 48.16374,
    "lng": 19.82303
  },
  {
    "id": 3048464,
    "name": "Mány",
    "lat": 47.53352,
    "lng": 18.65627
  },
  {
    "id": 722691,
    "name": "Baks",
    "lat": 46.54297,
    "lng": 20.10213
  },
  {
    "id": 3054280,
    "name": "Csengőd",
    "lat": 46.71543,
    "lng": 19.26802
  },
  {
    "id": 715941,
    "name": "Sajószöged",
    "lat": 47.95,
    "lng": 21.0
  },
  {
    "id": 3052553,
    "name": "Forráskút",
    "lat": 46.36528,
    "lng": 19.90973
  },
  {
    "id": 3042516,
    "name": "Zomba",
    "lat": 46.41084,
    "lng": 18.56577
  },
  {
    "id": 717400,
    "name": "Nagydobos",
    "lat": 48.05759,
    "lng": 22.30423
  },
  {
    "id": 3049111,
    "name": "Kunfehértó",
    "lat": 46.36091,
    "lng": 19.41454
  },
  {
    "id": 3054400,
    "name": "Csány",
    "lat": 47.64829,
    "lng": 19.82972
  },
  {
    "id": 3051473,
    "name": "Hidas",
    "lat": 46.2568,
    "lng": 18.4954
  },
  {
    "id": 717721,
    "name": "Méhkerék",
    "lat": 46.78333,
    "lng": 21.45
  },
  {
    "id": 3055730,
    "name": "Badacsonytomaj",
    "lat": 46.80711,
    "lng": 17.51385
  },
  {
    "id": 3048005,
    "name": "Mocsa",
    "lat": 47.66999,
    "lng": 18.18505
  },
  {
    "id": 716791,
    "name": "Ópusztaszer",
    "lat": 46.48592,
    "lng": 20.08722
  },
  {
    "id": 718602,
    "name": "Konyár",
    "lat": 47.31667,
    "lng": 21.66667
  },
  {
    "id": 3055255,
    "name": "Becsehely",
    "lat": 46.44755,
    "lng": 16.7771
  },
  {
    "id": 716941,
    "name": "Nyírcsaholy",
    "lat": 47.90383,
    "lng": 22.3363
  },
  {
    "id": 3047606,
    "name": "Nagyoroszi",
    "lat": 48.00503,
    "lng": 19.0905
  },
  {
    "id": 3043111,
    "name": "Városföld",
    "lat": 46.81674,
    "lng": 19.75668
  },
  {
    "id": 3046345,
    "name": "Pilisszántó",
    "lat": 47.66909,
    "lng": 18.88762
  },
  {
    "id": 3049033,
    "name": "Lábod",
    "lat": 46.20535,
    "lng": 17.45419
  },
  {
    "id": 719466,
    "name": "Kántorjánosi",
    "lat": 47.93333,
    "lng": 22.15
  },
  {
    "id": 3053779,
    "name": "Dávod",
    "lat": 45.995,
    "lng": 18.91722
  },
  {
    "id": 3047443,
    "name": "Naszály",
    "lat": 47.70329,
    "lng": 18.25751
  },
  {
    "id": 717758,
    "name": "Mátraderecske",
    "lat": 47.95,
    "lng": 20.08333
  },
  {
    "id": 3054863,
    "name": "Bokod",
    "lat": 47.49186,
    "lng": 18.24743
  },
  {
    "id": 3054811,
    "name": "Bőny",
    "lat": 47.65,
    "lng": 17.86977
  },
  {
    "id": 719649,
    "name": "Jászdózsa",
    "lat": 47.5661,
    "lng": 20.01534
  },
  {
    "id": 3046343,
    "name": "Pilisszentkereszt",
    "lat": 47.69143,
    "lng": 18.90503
  },
  {
    "id": 717521,
    "name": "Monostorpályi",
    "lat": 47.4,
    "lng": 21.78333
  },
  {
    "id": 720494,
    "name": "Gönc",
    "lat": 48.46667,
    "lng": 21.28333
  },
  {
    "id": 719211,
    "name": "Kerecsend",
    "lat": 47.8,
    "lng": 20.35
  },
  {
    "id": 3042580,
    "name": "Zamárdi",
    "lat": 46.88488,
    "lng": 17.95366
  },
  {
    "id": 3054726,
    "name": "Bősárkány",
    "lat": 47.68821,
    "lng": 17.25
  },
  {
    "id": 715939,
    "name": "Sajóvámos",
    "lat": 48.18171,
    "lng": 20.83149
  },
  {
    "id": 3048281,
    "name": "Mátraverebély",
    "lat": 47.97421,
    "lng": 19.78049
  },
  {
    "id": 3051187,
    "name": "Iklad",
    "lat": 47.66533,
    "lng": 19.4361
  },
  {
    "id": 3042575,
    "name": "Zámoly",
    "lat": 47.31667,
    "lng": 18.4081
  },
  {
    "id": 716894,
    "name": "Nyírtass",
    "lat": 48.11667,
    "lng": 22.03333
  },
  {
    "id": 3055281,
    "name": "Bátya",
    "lat": 46.488,
    "lng": 18.95419
  },
  {
    "id": 714488,
    "name": "Tyukod",
    "lat": 47.85378,
    "lng": 22.5633
  },
  {
    "id": 721712,
    "name": "Cserkeszőlő",
    "lat": 46.8632,
    "lng": 20.18701
  },
  {
    "id": 717825,
    "name": "Máriapócs",
    "lat": 47.88303,
    "lng": 22.02501
  },
  {
    "id": 721338,
    "name": "Döge",
    "lat": 48.26246,
    "lng": 22.06339
  },
  {
    "id": 3052640,
    "name": "Fertőrákos",
    "lat": 47.72017,
    "lng": 16.6504
  },
  {
    "id": 3043318,
    "name": "Úrkút",
    "lat": 47.08505,
    "lng": 17.64393
  },
  {
    "id": 715930,
    "name": "Sály",
    "lat": 47.95,
    "lng": 20.66667
  },
  {
    "id": 721611,
    "name": "Csökmő",
    "lat": 47.03333,
    "lng": 21.3
  },
  {
    "id": 715001,
    "name": "Tállya",
    "lat": 48.23333,
    "lng": 21.23333
  },
  {
    "id": 3046487,
    "name": "Perbál",
    "lat": 47.58957,
    "lng": 18.76099
  },
  {
    "id": 718618,
    "name": "Kompolt",
    "lat": 47.74222,
    "lng": 20.24192
  },
  {
    "id": 3044470,
    "name": "Szigetújfalu",
    "lat": 47.23417,
    "lng": 18.92746
  },
  {
    "id": 717805,
    "name": "Maroslele",
    "lat": 46.26667,
    "lng": 20.35
  },
  {
    "id": 3053454,
    "name": "Dunaszekcső",
    "lat": 46.0874,
    "lng": 18.7587
  },
  {
    "id": 3056331,
    "name": "Alap",
    "lat": 46.79915,
    "lng": 18.68938
  },
  {
    "id": 3052013,
    "name": "Gyönk",
    "lat": 46.55603,
    "lng": 18.47694
  },
  {
    "id": 3046856,
    "name": "Ősi",
    "lat": 47.14722,
    "lng": 18.18833
  },
  {
    "id": 722823,
    "name": "Aranyosapáti",
    "lat": 48.20595,
    "lng": 22.25916
  },
  {
    "id": 716924,
    "name": "Nyírgyulaj",
    "lat": 47.88622,
    "lng": 22.09781
  },
  {
    "id": 716906,
    "name": "Nyírmártonfalva",
    "lat": 47.58333,
    "lng": 21.9
  },
  {
    "id": 3053623,
    "name": "Döbrököz",
    "lat": 46.42178,
    "lng": 18.23953
  },
  {
    "id": 715272,
    "name": "Szihalom",
    "lat": 47.76667,
    "lng": 20.48333
  },
  {
    "id": 722171,
    "name": "Bogács",
    "lat": 47.9,
    "lng": 20.53333
  },
  {
    "id": 716559,
    "name": "Parád",
    "lat": 47.92323,
    "lng": 20.02972
  },
  {
    "id": 3055896,
    "name": "Apostag",
    "lat": 46.88208,
    "lng": 18.9621
  },
  {
    "id": 3049630,
    "name": "Kocsér",
    "lat": 47.00165,
    "lng": 19.92067
  },
  {
    "id": 714724,
    "name": "Tiszapüspöki",
    "lat": 47.21667,
    "lng": 20.31667
  },
  {
    "id": 720574,
    "name": "Gégény",
    "lat": 48.15,
    "lng": 21.95
  },
  {
    "id": 721158,
    "name": "Encsencs",
    "lat": 47.73333,
    "lng": 22.11667
  },
  {
    "id": 719489,
    "name": "Kálmánháza",
    "lat": 47.88333,
    "lng": 21.58333
  },
  {
    "id": 3043278,
    "name": "Vácszentlászló",
    "lat": 47.574,
    "lng": 19.53771
  },
  {
    "id": 715518,
    "name": "Szamosszeg",
    "lat": 48.04561,
    "lng": 22.36582
  },
  {
    "id": 3054328,
    "name": "Csávoly",
    "lat": 46.18917,
    "lng": 19.14667
  },
  {
    "id": 3050459,
    "name": "Kazár",
    "lat": 48.04952,
    "lng": 19.86143
  },
  {
    "id": 3044004,
    "name": "Telki",
    "lat": 47.54791,
    "lng": 18.82816
  },
  {
    "id": 3055568,
    "name": "Balatonföldvár",
    "lat": 46.85255,
    "lng": 17.88123
  },
  {
    "id": 715763,
    "name": "Sirok",
    "lat": 47.93333,
    "lng": 20.2
  },
  {
    "id": 3042661,
    "name": "Zagyvaszántó",
    "lat": 47.77703,
    "lng": 19.67092
  },
  {
    "id": 715005,
    "name": "Taktaszada",
    "lat": 48.11667,
    "lng": 21.18333
  },
  {
    "id": 719346,
    "name": "Kaszaper",
    "lat": 46.46667,
    "lng": 20.83333
  },
  {
    "id": 3052417,
    "name": "Galgamácsa",
    "lat": 47.69562,
    "lng": 19.38724
  },
  {
    "id": 720330,
    "name": "Gyulaháza",
    "lat": 48.13333,
    "lng": 22.11667
  },
  {
    "id": 720149,
    "name": "Harsány",
    "lat": 47.96667,
    "lng": 20.75
  },
  {
    "id": 714791,
    "name": "Tiszabezdéd",
    "lat": 48.36667,
    "lng": 22.15
  },
  {
    "id": 3046719,
    "name": "Pálmonostora",
    "lat": 46.62417,
    "lng": 19.95156
  },
  {
    "id": 714793,
    "name": "Tiszabercel",
    "lat": 48.15,
    "lng": 21.65
  },
  {
    "id": 719280,
    "name": "Kék",
    "lat": 48.11667,
    "lng": 21.88333
  },
  {
    "id": 3044600,
    "name": "Szentkirályszabadja",
    "lat": 47.0576,
    "lng": 17.97052
  },
  {
    "id": 3047399,
    "name": "Nemesnádudvar",
    "lat": 46.34051,
    "lng": 19.05115
  },
  {
    "id": 3046700,
    "name": "Pánd",
    "lat": 47.35333,
    "lng": 19.63571
  },
  {
    "id": 3054144,
    "name": "Csetény",
    "lat": 47.31806,
    "lng": 17.99208
  },
  {
    "id": 3051516,
    "name": "Heréd",
    "lat": 47.70638,
    "lng": 19.63314
  },
  {
    "id": 716844,
    "name": "Ököritófülpös",
    "lat": 47.91862,
    "lng": 22.5081
  },
  {
    "id": 3053583,
    "name": "Domony",
    "lat": 47.65552,
    "lng": 19.43229
  },
  {
    "id": 720295,
    "name": "Hajdúbagos",
    "lat": 47.39295,
    "lng": 21.66551
  },
  {
    "id": 3045704,
    "name": "Rózsaszentmárton",
    "lat": 47.782,
    "lng": 19.7421
  },
  {
    "id": 3055674,
    "name": "Bajna",
    "lat": 47.654,
    "lng": 18.5972
  },
  {
    "id": 3045212,
    "name": "Somogyvár",
    "lat": 46.5814,
    "lng": 17.66289
  },
  {
    "id": 722876,
    "name": "Anarcs",
    "lat": 48.17642,
    "lng": 22.11167
  },
  {
    "id": 3044305,
    "name": "Szomód",
    "lat": 47.68492,
    "lng": 18.34061
  },
  {
    "id": 3043210,
    "name": "Vámosgyörk",
    "lat": 47.68429,
    "lng": 19.92924
  },
  {
    "id": 718060,
    "name": "Lőkösháza",
    "lat": 46.43333,
    "lng": 21.23333
  },
  {
    "id": 3044088,
    "name": "Taszár",
    "lat": 46.37467,
    "lng": 17.90594
  },
  {
    "id": 716186,
    "name": "Rákócziújfalu",
    "lat": 47.06667,
    "lng": 20.26667
  },
  {
    "id": 3048762,
    "name": "Litér",
    "lat": 47.10104,
    "lng": 18.00454
  },
  {
    "id": 714736,
    "name": "Tiszanagyfalu",
    "lat": 48.09208,
    "lng": 21.4728
  },
  {
    "id": 722775,
    "name": "Aszaló",
    "lat": 48.21667,
    "lng": 20.96667
  },
  {
    "id": 3044574,
    "name": "Szentlőrinckáta",
    "lat": 47.51947,
    "lng": 19.75286
  },
  {
    "id": 3054287,
    "name": "Csengele",
    "lat": 46.54234,
    "lng": 19.86358
  },
  {
    "id": 722973,
    "name": "Alattyán",
    "lat": 47.42705,
    "lng": 20.04219
  },
  {
    "id": 714789,
    "name": "Tiszabő",
    "lat": 47.3,
    "lng": 20.48333
  },
  {
    "id": 3052749,
    "name": "Felsőszentiván",
    "lat": 46.19713,
    "lng": 19.18686
  },
  {
    "id": 3045045,
    "name": "Süttő",
    "lat": 47.75887,
    "lng": 18.44873
  },
  {
    "id": 716903,
    "name": "Nyírmihálydi",
    "lat": 47.73976,
    "lng": 21.96445
  },
  {
    "id": 3045192,
    "name": "Soponya",
    "lat": 47.01485,
    "lng": 18.45343
  },
  {
    "id": 3048282,
    "name": "Mátraterenye",
    "lat": 48.03267,
    "lng": 19.94762
  },
  {
    "id": 716437,
    "name": "Petneháza",
    "lat": 48.06084,
    "lng": 22.07485
  },
  {
    "id": 3055535,
    "name": "Balatonszárszó",
    "lat": 46.82946,
    "lng": 17.82426
  },
  {
    "id": 3055130,
    "name": "Bercel",
    "lat": 47.87057,
    "lng": 19.40715
  },
  {
    "id": 3055827,
    "name": "Ásványráró",
    "lat": 47.82733,
    "lng": 17.49418
  },
  {
    "id": 3046537,
    "name": "Pázmánd",
    "lat": 47.28755,
    "lng": 18.65356
  },
  {
    "id": 3044062,
    "name": "Tázlár",
    "lat": 46.54824,
    "lng": 19.51436
  },
  {
    "id": 719396,
    "name": "Karcsa",
    "lat": 48.3113,
    "lng": 21.80537
  },
  {
    "id": 721225,
    "name": "Egerszalók",
    "lat": 47.86667,
    "lng": 20.33333
  },
  {
    "id": 3048291,
    "name": "Mátranovák",
    "lat": 48.03809,
    "lng": 19.98257
  },
  {
    "id": 3044131,
    "name": "Tar",
    "lat": 47.95371,
    "lng": 19.7461
  },
  {
    "id": 3056380,
    "name": "Ágfalva",
    "lat": 47.68991,
    "lng": 16.51658
  },
  {
    "id": 716889,
    "name": "Nyírvasvári",
    "lat": 47.81667,
    "lng": 22.18683
  },
  {
    "id": 3046409,
    "name": "Péteri",
    "lat": 47.39104,
    "lng": 19.40981
  },
  {
    "id": 721068,
    "name": "Fábiánsebestyén",
    "lat": 46.68333,
    "lng": 20.46667
  },
  {
    "id": 3047871,
    "name": "Murakeresztúr",
    "lat": 46.36422,
    "lng": 16.88177
  },
  {
    "id": 3044607,
    "name": "Szentkirály",
    "lat": 46.91892,
    "lng": 19.91846
  },
  {
    "id": 721304,
    "name": "Domoszló",
    "lat": 47.83333,
    "lng": 20.11667
  },
  {
    "id": 3046346,
    "name": "Pilismarót",
    "lat": 47.78464,
    "lng": 18.87539
  },
  {
    "id": 720061,
    "name": "Hejőbába",
    "lat": 47.9,
    "lng": 20.95
  },
  {
    "id": 3044227,
    "name": "Szurdokpüspöki",
    "lat": 47.85923,
    "lng": 19.69218
  },
  {
    "id": 8426243,
    "name": "Tiszaszőlős",
    "lat": 47.55707,
    "lng": 20.71949
  },
  {
    "id": 718897,
    "name": "Kisléta",
    "lat": 47.84244,
    "lng": 22.00393
  },
  {
    "id": 714623,
    "name": "Tömörkény",
    "lat": 46.61716,
    "lng": 20.04357
  },
  {
    "id": 3054164,
    "name": "Cserszegtomaj",
    "lat": 46.80165,
    "lng": 17.22096
  },
  {
    "id": 719668,
    "name": "Járdánháza",
    "lat": 48.15,
    "lng": 20.25
  },
  {
    "id": 3053109,
    "name": "Farád",
    "lat": 47.60633,
    "lng": 17.20024
  },
  {
    "id": 3048647,
    "name": "Madocsa",
    "lat": 46.6879,
    "lng": 18.95791
  },
  {
    "id": 3050573,
    "name": "Karancskeszi",
    "lat": 48.16353,
    "lng": 19.69686
  },
  {
    "id": 3054359,
    "name": "Császár",
    "lat": 47.498,
    "lng": 18.14272
  },
  {
    "id": 721022,
    "name": "Farkaslyuk",
    "lat": 48.18333,
    "lng": 20.31667
  },
  {
    "id": 3055623,
    "name": "Bakonyszentlászló",
    "lat": 47.38901,
    "lng": 17.80321
  },
  {
    "id": 7284903,
    "name": "Kismaros",
    "lat": 47.83742,
    "lng": 19.00463
  },
  {
    "id": 3050447,
    "name": "Kecskéd",
    "lat": 47.52298,
    "lng": 18.30939
  },
  {
    "id": 717406,
    "name": "Nagycserkesz",
    "lat": 47.96667,
    "lng": 21.53333
  },
  {
    "id": 716081,
    "name": "Ricse",
    "lat": 48.32565,
    "lng": 21.97069
  },
  {
    "id": 3043832,
    "name": "Töltéstava",
    "lat": 47.62609,
    "lng": 17.73376
  },
  {
    "id": 3042746,
    "name": "Vonyarcvashegy",
    "lat": 46.75742,
    "lng": 17.31172
  },
  {
    "id": 3047373,
    "name": "Németkér",
    "lat": 46.71637,
    "lng": 18.76311
  },
  {
    "id": 3056391,
    "name": "Ágasegyháza",
    "lat": 46.84025,
    "lng": 19.45208
  },
  {
    "id": 3055302,
    "name": "Báta",
    "lat": 46.12864,
    "lng": 18.77027
  },
  {
    "id": 3043233,
    "name": "Vajszló",
    "lat": 45.85957,
    "lng": 17.98406
  },
  {
    "id": 716282,
    "name": "Pusztaföldvár",
    "lat": 46.53333,
    "lng": 20.8
  },
  {
    "id": 3053033,
    "name": "Fehérvárcsurgó",
    "lat": 47.29349,
    "lng": 18.2646
  },
  {
    "id": 3055575,
    "name": "Balatonfenyves",
    "lat": 46.71542,
    "lng": 17.49223
  },
  {
    "id": 715217,
    "name": "Szilvásvárad",
    "lat": 48.1,
    "lng": 20.4
  },
  {
    "id": 3046499,
    "name": "Pellérd",
    "lat": 46.03438,
    "lng": 18.15403
  },
  {
    "id": 3046800,
    "name": "Pacsa",
    "lat": 46.71981,
    "lng": 17.01401
  },
  {
    "id": 3055776,
    "name": "Babócsa",
    "lat": 46.04155,
    "lng": 17.34332
  },
  {
    "id": 3045804,
    "name": "Rimóc",
    "lat": 48.03695,
    "lng": 19.5301
  },
  {
    "id": 714721,
    "name": "Tiszaroff",
    "lat": 47.4,
    "lng": 20.45
  },
  {
    "id": 719710,
    "name": "Izsófalva",
    "lat": 48.3,
    "lng": 20.66667
  },
  {
    "id": 720228,
    "name": "Halmaj",
    "lat": 48.25,
    "lng": 21.0
  },
  {
    "id": 3043671,
    "name": "Türje",
    "lat": 46.98366,
    "lng": 17.10742
  },
  {
    "id": 714642,
    "name": "Tolcsva",
    "lat": 48.28333,
    "lng": 21.45
  },
  {
    "id": 3047781,
    "name": "Nagycenk",
    "lat": 47.60435,
    "lng": 16.69732
  },
  {
    "id": 3042824,
    "name": "Visegrád",
    "lat": 47.78526,
    "lng": 18.9709
  },
  {
    "id": 714948,
    "name": "Tarnaörs",
    "lat": 47.59499,
    "lng": 20.05254
  },
  {
    "id": 3045520,
    "name": "Sármellék",
    "lat": 46.71221,
    "lng": 17.16865
  },
  {
    "id": 714951,
    "name": "Tarnalelesz",
    "lat": 48.05,
    "lng": 20.18333
  },
  {
    "id": 716828,
    "name": "Olaszliszka",
    "lat": 48.25,
    "lng": 21.43333
  },
  {
    "id": 717530,
    "name": "Monok",
    "lat": 48.21102,
    "lng": 21.15052
  },
  {
    "id": 719895,
    "name": "Hortobágy",
    "lat": 47.58278,
    "lng": 21.15108
  },
  {
    "id": 3046806,
    "name": "Ozora",
    "lat": 46.75133,
    "lng": 18.4001
  },
  {
    "id": 714718,
    "name": "Tiszasüly",
    "lat": 47.38333,
    "lng": 20.4
  },
  {
    "id": 3050588,
    "name": "Karád",
    "lat": 46.69076,
    "lng": 17.84136
  },
  {
    "id": 3055812,
    "name": "Atkár",
    "lat": 47.72079,
    "lng": 19.89126
  },
  {
    "id": 3046711,
    "name": "Palotás",
    "lat": 47.79528,
    "lng": 19.59618
  },
  {
    "id": 3048250,
    "name": "Mecseknádasd",
    "lat": 46.22468,
    "lng": 18.47076
  },
  {
    "id": 3046076,
    "name": "Pusztaszer",
    "lat": 46.55083,
    "lng": 19.98823
  },
  {
    "id": 3044122,
    "name": "Tardos",
    "lat": 47.66192,
    "lng": 18.44416
  },
  {
    "id": 717359,
    "name": "Nagyfüged",
    "lat": 47.68333,
    "lng": 20.11667
  },
  {
    "id": 3053938,
    "name": "Csopak",
    "lat": 46.97709,
    "lng": 17.91819
  },
  {
    "id": 3055671,
    "name": "Bajót",
    "lat": 47.72783,
    "lng": 18.55586
  },
  {
    "id": 3053991,
    "name": "Csokonyavisonta",
    "lat": 46.07705,
    "lng": 17.44372
  },
  {
    "id": 3050160,
    "name": "Kincsesbánya",
    "lat": 47.26444,
    "lng": 18.2779
  },
  {
    "id": 3056436,
    "name": "Acsa",
    "lat": 47.79425,
    "lng": 19.38795
  },
  {
    "id": 3047364,
    "name": "Neszmély",
    "lat": 47.73585,
    "lng": 18.35966
  },
  {
    "id": 3053497,
    "name": "Dunaalmás",
    "lat": 47.72868,
    "lng": 18.32235
  },
  {
    "id": 3043927,
    "name": "Tihany",
    "lat": 46.91369,
    "lng": 17.88918
  },
  {
    "id": 3056321,
    "name": "Alcsútdoboz",
    "lat": 47.42837,
    "lng": 18.60431
  },
  {
    "id": 3047356,
    "name": "Nógrád",
    "lat": 47.90852,
    "lng": 19.04806
  },
  {
    "id": 3047854,
    "name": "Nádasd",
    "lat": 46.96761,
    "lng": 16.61141
  },
  {
    "id": 3045333,
    "name": "Sióagárd",
    "lat": 46.39272,
    "lng": 18.65336
  },
  {
    "id": 3055586,
    "name": "Balatonberény",
    "lat": 46.70701,
    "lng": 17.32013
  },
  {
    "id": 3042557,
    "name": "Zebegény",
    "lat": 47.79977,
    "lng": 18.911
  },
  {
    "id": 715951,
    "name": "Sajóörös",
    "lat": 47.95,
    "lng": 21.03333
  },
  {
    "id": 3051038,
    "name": "Iván",
    "lat": 47.44378,
    "lng": 16.90598
  },
  {
    "id": 3050997,
    "name": "Fülöpjakab",
    "lat": 46.74221,
    "lng": 19.72132
  },
  {
    "id": 3055899,
    "name": "Áporka",
    "lat": 47.23333,
    "lng": 19.01667
  },
  {
    "id": 7284900,
    "name": "Szelevény",
    "lat": 46.80259,
    "lng": 20.20283
  },
  {
    "id": 3048080,
    "name": "Mihályi",
    "lat": 47.51384,
    "lng": 17.09507
  },
  {
    "id": 3054586,
    "name": "Bükkösd",
    "lat": 46.10751,
    "lng": 17.9882
  },
  {
    "id": 3051610,
    "name": "Hédervár",
    "lat": 47.82931,
    "lng": 17.45315
  },
  {
    "id": 3045836,
    "name": "Révfülöp",
    "lat": 46.82573,
    "lng": 17.61967
  },
  {
    "id": 3056048,
    "name": "Alsószentmárton",
    "lat": 45.78955,
    "lng": 18.30575
  },
  {
    "id": 3055182,
    "name": "Beloiannisz",
    "lat": 47.1824,
    "lng": 18.82384
  },
  {
    "id": 3053828,
    "name": "Dad",
    "lat": 47.51913,
    "lng": 18.22627
  },
  {
    "id": 7284908,
    "name": "Héhalom",
    "lat": 47.78017,
    "lng": 19.58519
  },
  {
    "id": 3054651,
    "name": "Budakalász",
    "lat": 47.61667,
    "lng": 19.05
  },
  {
    "id": 3042569,
    "name": "Zánka",
    "lat": 46.87146,
    "lng": 17.68473
  },
  {
    "id": 3045215,
    "name": "Somogyudvarhely",
    "lat": 46.17401,
    "lng": 17.18861
  },
  {
    "id": 3052230,
    "name": "Gödre",
    "lat": 46.28612,
    "lng": 17.97288
  },
  {
    "id": 3044976,
    "name": "Szakcs",
    "lat": 46.53897,
    "lng": 18.1095
  },
  {
    "id": 3055346,
    "name": "Bárna",
    "lat": 48.10038,
    "lng": 19.93552
  },
  {
    "id": 717592,
    "name": "Milota",
    "lat": 48.10372,
    "lng": 22.78438
  },
  {
    "id": 7284909,
    "name": "Ötvöskónyi",
    "lat": 46.28741,
    "lng": 17.36003
  },
  {
    "id": 3051041,
    "name": "Isztimér",
    "lat": 47.27884,
    "lng": 18.1954
  },
  {
    "id": 3044467,
    "name": "Szigliget",
    "lat": 46.80148,
    "lng": 17.43523
  },
  {
    "id": 7287750,
    "name": "Kisfalud",
    "lat": 47.52821,
    "lng": 17.09061
  },
  {
    "id": 3054835,
    "name": "Bolhó",
    "lat": 46.03859,
    "lng": 17.29732
  },
  {
    "id": 3051566,
    "name": "Hegyfalu",
    "lat": 47.35429,
    "lng": 16.88388
  },
  {
    "id": 722843,
    "name": "Bátorliget",
    "lat": 47.76218,
    "lng": 22.27255
  },
  {
    "id": 3045220,
    "name": "Somogyszil",
    "lat": 46.51881,
    "lng": 17.99818
  },
  {
    "id": 7284906,
    "name": "Tolmács",
    "lat": 47.9294,
    "lng": 19.10926
  },
  {
    "id": 3055461,
    "name": "Bánk",
    "lat": 47.92503,
    "lng": 19.17356
  },
  {
    "id": 714469,
    "name": "Újdombrád",
    "lat": 48.19527,
    "lng": 21.87035
  },
  {
    "id": 3053616,
    "name": "Nagydobsza",
    "lat": 46.03333,
    "lng": 17.66667
  },
  {
    "id": 3045502,
    "name": "Sárpilis",
    "lat": 46.24857,
    "lng": 18.74239
  },
  {
    "id": 717163,
    "name": "Kardos",
    "lat": 46.79777,
    "lng": 20.7179
  },
  {
    "id": 3055474,
    "name": "Bánd",
    "lat": 47.12213,
    "lng": 17.7812
  },
  {
    "id": 3047422,
    "name": "Nemesbük",
    "lat": 46.81667,
    "lng": 17.15
  },
  {
    "id": 3051036,
    "name": "Ivánc",
    "lat": 46.9439,
    "lng": 16.50224
  },
  {
    "id": 7284904,
    "name": "Alsóújlak",
    "lat": 47.08047,
    "lng": 16.8538
  },
  {
    "id": 7287740,
    "name": "Remeteszőlős",
    "lat": 47.56031,
    "lng": 18.92
  },
  {
    "id": 7284907,
    "name": "Rábacsécsény",
    "lat": 47.58608,
    "lng": 17.4238
  },
  {
    "id": 3045012,
    "name": "Szabás",
    "lat": 46.28924,
    "lng": 17.44823
  },
  {
    "id": 3044945,
    "name": "Szálka",
    "lat": 46.27519,
    "lng": 18.63838
  },
  {
    "id": 7284911,
    "name": "Ete",
    "lat": 47.53076,
    "lng": 18.07526
  },
  {
    "id": 721646,
    "name": "Csincse",
    "lat": 47.887,
    "lng": 20.76811
  },
  {
    "id": 3056085,
    "name": "Alsópetény",
    "lat": 47.87582,
    "lng": 19.24403
  },
  {
    "id": 3051065,
    "name": "Istvándi",
    "lat": 46.01839,
    "lng": 17.62292
  },
  {
    "id": 3046044,
    "name": "Rábaszentmihály",
    "lat": 47.57751,
    "lng": 17.43247
  },
  {
    "id": 722879,
    "name": "Ambrózfalva",
    "lat": 46.35,
    "lng": 20.73333
  },
  {
    "id": 717860,
    "name": "Mályinka",
    "lat": 48.15498,
    "lng": 20.4956
  }
]