[
  {
    "id": 281184,
    "name": "Jerusalem",
    "lat": 31.76904,
    "lng": 35.21633
  },
  {
    "id": 293397,
    "name": "Tel Aviv",
    "lat": 32.08088,
    "lng": 34.78057
  },
  {
    "id": 294801,
    "name": "Haifa",
    "lat": 32.81303,
    "lng": 34.99928
  },
  {
    "id": 293703,
    "name": "Rishon LeTsiyyon",
    "lat": 31.97102,
    "lng": 34.78939
  },
  {
    "id": 293918,
    "name": "Petaẖ Tiqva",
    "lat": 32.08707,
    "lng": 34.88747
  },
  {
    "id": 294071,
    "name": "Netanya",
    "lat": 32.33291,
    "lng": 34.85992
  },
  {
    "id": 295629,
    "name": "Ashdod",
    "lat": 31.79213,
    "lng": 34.64966
  },
  {
    "id": 295514,
    "name": "Bnei Brak",
    "lat": 32.08074,
    "lng": 34.8338
  },
  {
    "id": 294751,
    "name": "H̱olon",
    "lat": 32.01034,
    "lng": 34.77918
  },
  {
    "id": 295530,
    "name": "Beersheba",
    "lat": 31.25181,
    "lng": 34.7913
  },
  {
    "id": 293788,
    "name": "Ramat Gan",
    "lat": 32.08227,
    "lng": 34.81065
  },
  {
    "id": 293725,
    "name": "Reẖovot",
    "lat": 31.89421,
    "lng": 34.81199
  },
  {
    "id": 295620,
    "name": "Ashkelon",
    "lat": 31.66926,
    "lng": 34.57149
  },
  {
    "id": 295548,
    "name": "Bat Yam",
    "lat": 32.02379,
    "lng": 34.75185
  },
  {
    "id": 295432,
    "name": "Bet Shemesh",
    "lat": 31.73072,
    "lng": 34.99293
  },
  {
    "id": 294514,
    "name": "Kfar Saba",
    "lat": 32.175,
    "lng": 34.90694
  },
  {
    "id": 294778,
    "name": "Herzliya",
    "lat": 32.16627,
    "lng": 34.82536
  },
  {
    "id": 294946,
    "name": "Hadera",
    "lat": 32.44192,
    "lng": 34.9039
  },
  {
    "id": 282926,
    "name": "Modi‘in Makkabbim Re‘ut",
    "lat": 31.89385,
    "lng": 35.01504
  },
  {
    "id": 294098,
    "name": "Nazareth",
    "lat": 32.70087,
    "lng": 35.29719
  },
  {
    "id": 294421,
    "name": "Lod",
    "lat": 31.9467,
    "lng": 34.8903
  },
  {
    "id": 8199378,
    "name": "Modiin Ilit",
    "lat": 31.93221,
    "lng": 35.04416
  },
  {
    "id": 293768,
    "name": "Ramla",
    "lat": 31.92624,
    "lng": 34.8635
  },
  {
    "id": 293807,
    "name": "Ra'anana",
    "lat": 32.1836,
    "lng": 34.87386
  },
  {
    "id": 293690,
    "name": "Rosh Ha‘Ayin",
    "lat": 32.09556,
    "lng": 34.95664
  },
  {
    "id": 294760,
    "name": "Hod HaSharon",
    "lat": 32.15934,
    "lng": 34.8932
  },
  {
    "id": 293842,
    "name": "Kiryat Gat",
    "lat": 31.60998,
    "lng": 34.76422
  },
  {
    "id": 294999,
    "name": "Givatayim",
    "lat": 32.07225,
    "lng": 34.81253
  },
  {
    "id": 293845,
    "name": "Qiryat Ata",
    "lat": 32.81149,
    "lng": 35.11323
  },
  {
    "id": 294117,
    "name": "Nahariyya",
    "lat": 33.00892,
    "lng": 35.09814
  },
  {
    "id": 293286,
    "name": "Umm el Faḥm",
    "lat": 32.51725,
    "lng": 35.15349
  },
  {
    "id": 295277,
    "name": "Eilat",
    "lat": 29.55805,
    "lng": 34.94821
  },
  {
    "id": 295721,
    "name": "Acre",
    "lat": 32.92814,
    "lng": 35.07647
  },
  {
    "id": 294074,
    "name": "Ness Ziona",
    "lat": 31.92933,
    "lng": 34.79868
  },
  {
    "id": 8428480,
    "name": "El‘ad",
    "lat": 32.04984,
    "lng": 34.95382
  },
  {
    "id": 293222,
    "name": "Yavné",
    "lat": 31.87808,
    "lng": 34.73983
  },
  {
    "id": 293783,
    "name": "Ramat HaSharon",
    "lat": 32.14613,
    "lng": 34.8394
  },
  {
    "id": 294577,
    "name": "Karmi’el",
    "lat": 32.91708,
    "lng": 35.30501
  },
  {
    "id": 295740,
    "name": "Afula",
    "lat": 32.60907,
    "lng": 35.2892
  },
  {
    "id": 293943,
    "name": "Pardés H̱anna Karkur",
    "lat": 32.47408,
    "lng": 34.97781
  },
  {
    "id": 293322,
    "name": "Tiberias",
    "lat": 32.79221,
    "lng": 35.53124
  },
  {
    "id": 295130,
    "name": "Eṭ Ṭaiyiba",
    "lat": 32.26616,
    "lng": 35.00893
  },
  {
    "id": 293844,
    "name": "Qiryat Bialik",
    "lat": 32.8275,
    "lng": 35.08583
  },
  {
    "id": 294068,
    "name": "Netivot",
    "lat": 31.42305,
    "lng": 34.58911
  },
  {
    "id": 294097,
    "name": "Naẕerat ‘Illit",
    "lat": 32.70816,
    "lng": 35.32469
  },
  {
    "id": 293831,
    "name": "Qiryat Motsqin",
    "lat": 32.83706,
    "lng": 35.0776
  },
  {
    "id": 293539,
    "name": "Shefar‘am",
    "lat": 32.80583,
    "lng": 35.16895
  },
  {
    "id": 12031840,
    "name": "Kiryat Ono",
    "lat": 32.06124,
    "lng": 34.85618
  },
  {
    "id": 293822,
    "name": "Qiryat Yam",
    "lat": 32.84966,
    "lng": 35.06973
  },
  {
    "id": 293962,
    "name": "Or Yehuda",
    "lat": 32.02923,
    "lng": 34.85788
  },
  {
    "id": 295328,
    "name": "Dimona",
    "lat": 31.07079,
    "lng": 35.03269
  },
  {
    "id": 293100,
    "name": "Safed",
    "lat": 32.96465,
    "lng": 35.496
  },
  {
    "id": 293992,
    "name": "Ofaqim",
    "lat": 31.3141,
    "lng": 34.62025
  },
  {
    "id": 293655,
    "name": "Sakhnīn",
    "lat": 32.86422,
    "lng": 35.29707
  },
  {
    "id": 295064,
    "name": "Gedera",
    "lat": 31.81456,
    "lng": 34.77998
  },
  {
    "id": 295571,
    "name": "Bāqa el Gharbīya",
    "lat": 32.41806,
    "lng": 35.04312
  },
  {
    "id": 10227184,
    "name": "Yehud-Monosson",
    "lat": 32.0284,
    "lng": 34.8796
  },
  {
    "id": 294981,
    "name": "Giv'at Shmuel",
    "lat": 32.07817,
    "lng": 34.84858
  },
  {
    "id": 295657,
    "name": "Arad",
    "lat": 31.25882,
    "lng": 35.21282
  },
  {
    "id": 293308,
    "name": "Tirat Karmel",
    "lat": 32.76021,
    "lng": 34.97183
  },
  {
    "id": 295525,
    "name": "Be’er Ya‘aqov",
    "lat": 31.93864,
    "lng": 34.83749
  },
  {
    "id": 293619,
    "name": "Sderot",
    "lat": 31.525,
    "lng": 34.59693
  },
  {
    "id": 295127,
    "name": "Eṭ Ṭīra",
    "lat": 32.2341,
    "lng": 34.95023
  },
  {
    "id": 293426,
    "name": "Tamra",
    "lat": 32.85301,
    "lng": 35.1987
  },
  {
    "id": 294210,
    "name": "Migdal Ha‘Emeq",
    "lat": 32.67597,
    "lng": 35.23986
  },
  {
    "id": 293207,
    "name": "Yehud",
    "lat": 32.03317,
    "lng": 34.89091
  },
  {
    "id": 293835,
    "name": "Qiryat Mal’akhi",
    "lat": 31.72888,
    "lng": 34.74632
  },
  {
    "id": 295365,
    "name": "Daliyat al Karmel",
    "lat": 32.69383,
    "lng": 35.04686
  },
  {
    "id": 295655,
    "name": "‘Ar‘ara",
    "lat": 32.49553,
    "lng": 35.09411
  },
  {
    "id": 294492,
    "name": "Kfar Yona",
    "lat": 32.31669,
    "lng": 34.93507
  },
  {
    "id": 294078,
    "name": "Nesher",
    "lat": 32.76622,
    "lng": 35.04425
  },
  {
    "id": 294245,
    "name": "Mevasseret Tsiyyon",
    "lat": 31.80186,
    "lng": 35.15072
  },
  {
    "id": 295080,
    "name": "Gan Yavne",
    "lat": 31.78737,
    "lng": 34.70659
  },
  {
    "id": 294604,
    "name": "Kafr Qāsim",
    "lat": 32.11406,
    "lng": 34.97624
  },
  {
    "id": 293153,
    "name": "Yoqne‘am ‘Illit",
    "lat": 32.65385,
    "lng": 35.10382
  },
  {
    "id": 293067,
    "name": "Zikhron Ya‘aqov",
    "lat": 32.56645,
    "lng": 34.95628
  },
  {
    "id": 294387,
    "name": "Maghār",
    "lat": 32.88984,
    "lng": 35.40703
  },
  {
    "id": 294610,
    "name": "Kafr Kannā",
    "lat": 32.7466,
    "lng": 35.34242
  },
  {
    "id": 293825,
    "name": "Qiryat Shmona",
    "lat": 33.20733,
    "lng": 35.57212
  },
  {
    "id": 11524864,
    "name": "Kadima Zoran",
    "lat": 32.27782,
    "lng": 34.9194
  },
  {
    "id": 293420,
    "name": "maalot Tarshīhā",
    "lat": 33.01667,
    "lng": 35.26667
  },
  {
    "id": 8374209,
    "name": "H̱ura",
    "lat": 31.30084,
    "lng": 34.93606
  },
  {
    "id": 294622,
    "name": "Judeida Makr",
    "lat": 32.9282,
    "lng": 35.15705
  },
  {
    "id": 8374220,
    "name": "Kuseifa",
    "lat": 31.24535,
    "lng": 35.0931
  },
  {
    "id": 8428283,
    "name": "Shoham",
    "lat": 31.99866,
    "lng": 34.94559
  },
  {
    "id": 8199394,
    "name": "Ariel",
    "lat": 32.1065,
    "lng": 35.18449
  },
  {
    "id": 295089,
    "name": "Ganei Tikva",
    "lat": 32.05971,
    "lng": 34.8732
  },
  {
    "id": 8310136,
    "name": "Tel Sheva‘",
    "lat": 31.24864,
    "lng": 34.86007
  },
  {
    "id": 294608,
    "name": "Kafr Mandā",
    "lat": 32.81034,
    "lng": 35.26009
  },
  {
    "id": 8184212,
    "name": "Rahat",
    "lat": 31.39547,
    "lng": 34.75699
  },
  {
    "id": 294605,
    "name": "Kafr Qari‘",
    "lat": 32.50666,
    "lng": 35.05392
  },
  {
    "id": 293969,
    "name": "Or Akiva",
    "lat": 32.5064,
    "lng": 34.92087
  },
  {
    "id": 293254,
    "name": "Yāfā",
    "lat": 32.68923,
    "lng": 35.27832
  },
  {
    "id": 293823,
    "name": "Qiryat Tiv‘on",
    "lat": 32.71618,
    "lng": 35.12494
  },
  {
    "id": 8374203,
    "name": "‘Ar‘ara BaNegev",
    "lat": 31.16046,
    "lng": 35.02274
  },
  {
    "id": 293181,
    "name": "Yirkā",
    "lat": 32.95435,
    "lng": 35.21197
  },
  {
    "id": 293896,
    "name": "Qalansuwa",
    "lat": 32.28493,
    "lng": 34.98106
  },
  {
    "id": 295435,
    "name": "Bet She’an",
    "lat": 32.49728,
    "lng": 35.49632
  },
  {
    "id": 12156557,
    "name": "Binyamina-Giv'at Ada",
    "lat": 32.51824,
    "lng": 34.95398
  },
  {
    "id": 295410,
    "name": "Binyamina",
    "lat": 32.5232,
    "lng": 34.94499
  },
  {
    "id": 295174,
    "name": "Er Reina",
    "lat": 32.72339,
    "lng": 35.31622
  },
  {
    "id": 294373,
    "name": "Majd el Kurūm",
    "lat": 32.92186,
    "lng": 35.25568
  },
  {
    "id": 294626,
    "name": "Jisr ez Zarqā",
    "lat": 32.53684,
    "lng": 34.9127
  },
  {
    "id": 294303,
    "name": "Mazkeret Batya",
    "lat": 31.85357,
    "lng": 34.84646
  },
  {
    "id": 11979755,
    "name": "Maale Iron",
    "lat": 32.55382,
    "lng": 35.18412
  },
  {
    "id": 294658,
    "name": "Iksāl",
    "lat": 32.68164,
    "lng": 35.32365
  },
  {
    "id": 295765,
    "name": "Abū Sinān",
    "lat": 32.95891,
    "lng": 35.17152
  },
  {
    "id": 294615,
    "name": "Kābūl",
    "lat": 32.86856,
    "lng": 35.21171
  },
  {
    "id": 8184241,
    "name": "Laqiyya",
    "lat": 31.3185,
    "lng": 34.8589
  },
  {
    "id": 295122,
    "name": "Even Yehuda",
    "lat": 32.26959,
    "lng": 34.88759
  },
  {
    "id": 295285,
    "name": "‘Ein Māhil",
    "lat": 32.72304,
    "lng": 35.35303
  },
  {
    "id": 294663,
    "name": "I‘billīn",
    "lat": 32.82233,
    "lng": 35.19271
  },
  {
    "id": 295269,
    "name": "El Fureidīs",
    "lat": 32.59812,
    "lng": 34.95153
  },
  {
    "id": 293354,
    "name": "Tel Mond",
    "lat": 32.24995,
    "lng": 34.91737
  },
  {
    "id": 294114,
    "name": "Naḥf",
    "lat": 32.93444,
    "lng": 35.31679
  },
  {
    "id": 295584,
    "name": "Azor",
    "lat": 32.0243,
    "lng": 34.80632
  },
  {
    "id": 293721,
    "name": "Rekhasim",
    "lat": 32.74907,
    "lng": 35.09901
  },
  {
    "id": 295341,
    "name": "Deir el Asad",
    "lat": 32.93598,
    "lng": 35.26998
  },
  {
    "id": 294642,
    "name": "‘Isfiyā",
    "lat": 32.71836,
    "lng": 35.06509
  },
  {
    "id": 294630,
    "name": "Jatt",
    "lat": 32.39843,
    "lng": 35.03933
  },
  {
    "id": 295523,
    "name": "Beit Jann",
    "lat": 32.96464,
    "lng": 35.38152
  },
  {
    "id": 167444,
    "name": "Majdal Shams",
    "lat": 33.27029,
    "lng": 35.7716
  },
  {
    "id": 294552,
    "name": "Qiryat ‘Eqron",
    "lat": 31.86119,
    "lng": 34.82275
  },
  {
    "id": 8184332,
    "name": "Segev Shalom",
    "lat": 31.19918,
    "lng": 34.83956
  },
  {
    "id": 295339,
    "name": "Deir Ḥannā",
    "lat": 32.86196,
    "lng": 35.36365
  },
  {
    "id": 293203,
    "name": "Yeroẖam",
    "lat": 30.98822,
    "lng": 34.93176
  },
  {
    "id": 294634,
    "name": "Jaljūlya",
    "lat": 32.1547,
    "lng": 34.95372
  },
  {
    "id": 294600,
    "name": "Kfar Yasif",
    "lat": 32.95451,
    "lng": 35.1623
  },
  {
    "id": 12156812,
    "name": "Basma",
    "lat": 32.52904,
    "lng": 35.10059
  },
  {
    "id": 11979636,
    "name": "Bu'ayna-Nujaydat",
    "lat": 32.80966,
    "lng": 35.36987
  },
  {
    "id": 294809,
    "name": "H̱atsor HaGelilit",
    "lat": 32.98049,
    "lng": 35.54243
  },
  {
    "id": 295613,
    "name": "Atlit",
    "lat": 32.68889,
    "lng": 34.94236
  },
  {
    "id": 11979665,
    "name": "Kisra - Sume'a",
    "lat": 32.97262,
    "lng": 35.29877
  },
  {
    "id": 8141161,
    "name": "Kokhav Ya’ir",
    "lat": 32.22623,
    "lng": 35.00222
  },
  {
    "id": 8062538,
    "name": "Meitar",
    "lat": 31.32726,
    "lng": 34.93855
  },
  {
    "id": 295411,
    "name": "Bi’na",
    "lat": 32.93066,
    "lng": 35.27157
  },
  {
    "id": 294654,
    "name": "‘Ilūṭ",
    "lat": 32.71639,
    "lng": 35.25944
  },
  {
    "id": 295370,
    "name": "Dabbūrīya",
    "lat": 32.69256,
    "lng": 35.37123
  },
  {
    "id": 8264669,
    "name": "Zarzir",
    "lat": 32.72754,
    "lng": 35.21381
  },
  {
    "id": 295553,
    "name": "Basmat Ṭab‘ūn",
    "lat": 32.73898,
    "lng": 35.15716
  },
  {
    "id": 295380,
    "name": "Bu‘eina",
    "lat": 32.80636,
    "lng": 35.36486
  },
  {
    "id": 293773,
    "name": "Ramat Yishay",
    "lat": 32.70444,
    "lng": 35.1707
  },
  {
    "id": 293793,
    "name": "Rama",
    "lat": 32.93844,
    "lng": 35.3675
  },
  {
    "id": 295772,
    "name": "Abū Ghaush",
    "lat": 31.80592,
    "lng": 35.1093
  },
  {
    "id": 8141842,
    "name": "H̱arish",
    "lat": 32.46096,
    "lng": 35.0435
  },
  {
    "id": 293982,
    "name": "‘Omer",
    "lat": 31.26489,
    "lng": 34.84766
  },
  {
    "id": 295404,
    "name": "Bīr el Maksūr",
    "lat": 32.77732,
    "lng": 35.22069
  },
  {
    "id": 295475,
    "name": "Bet Dagan",
    "lat": 32.00191,
    "lng": 34.82977
  },
  {
    "id": 8142386,
    "name": "Zemer",
    "lat": 32.36658,
    "lng": 35.03312
  },
  {
    "id": 295515,
    "name": "Bnei Ayish",
    "lat": 31.79,
    "lng": 34.759
  },
  {
    "id": 293595,
    "name": "Sha‘av",
    "lat": 32.88943,
    "lng": 35.24093
  },
  {
    "id": 293298,
    "name": "Tūbā Zangarīya",
    "lat": 32.96606,
    "lng": 35.59304
  },
  {
    "id": 11979655,
    "name": "Yanuah Jat",
    "lat": 32.9798,
    "lng": 35.23806
  },
  {
    "id": 12156671,
    "name": "Yanuh-Jat",
    "lat": 32.98515,
    "lng": 35.2491
  },
  {
    "id": 294545,
    "name": "Kfar H̱abad",
    "lat": 31.98793,
    "lng": 34.8516
  },
  {
    "id": 293522,
    "name": "Shlomi",
    "lat": 33.07216,
    "lng": 35.14452
  },
  {
    "id": 294620,
    "name": "Jūlis",
    "lat": 32.94267,
    "lng": 35.18278
  },
  {
    "id": 6693244,
    "name": "Lehavim",
    "lat": 31.37284,
    "lng": 34.81619
  },
  {
    "id": 294666,
    "name": "Ḥurfeish",
    "lat": 33.01711,
    "lng": 35.34835
  },
  {
    "id": 293821,
    "name": "Qiryat Ye‘arim",
    "lat": 31.803,
    "lng": 35.102
  },
  {
    "id": 11979772,
    "name": "Tsur Itshak",
    "lat": 32.24047,
    "lng": 34.99788
  },
  {
    "id": 295473,
    "name": "Bet El‘azari",
    "lat": 31.84429,
    "lng": 34.80368
  },
  {
    "id": 12156807,
    "name": "Shibli–Umm al-Ghanam",
    "lat": 32.68395,
    "lng": 35.39621
  },
  {
    "id": 293942,
    "name": "Pardesiyya",
    "lat": 32.30577,
    "lng": 34.90911
  },
  {
    "id": 295379,
    "name": "Buqei‘a",
    "lat": 32.97747,
    "lng": 35.33345
  },
  {
    "id": 295291,
    "name": "‘Eilabun",
    "lat": 32.83693,
    "lng": 35.40029
  },
  {
    "id": 12156436,
    "name": "Bir Hadaj",
    "lat": 31.02416,
    "lng": 34.70857
  },
  {
    "id": 12156432,
    "name": "AlSayid Tribe",
    "lat": 31.28252,
    "lng": 34.91505
  },
  {
    "id": 8265524,
    "name": "Ka‘abiyya",
    "lat": 32.74985,
    "lng": 35.18361
  },
  {
    "id": 386445,
    "name": "Kfar Veradim",
    "lat": 32.99385,
    "lng": 35.27793
  },
  {
    "id": 7117228,
    "name": "Caesarea",
    "lat": 32.51888,
    "lng": 34.90459
  },
  {
    "id": 8141252,
    "name": "Bat H̱efer",
    "lat": 32.33307,
    "lng": 35.01272
  },
  {
    "id": 294166,
    "name": "Mitzpe Ramon",
    "lat": 30.60944,
    "lng": 34.80111
  },
  {
    "id": 386042,
    "name": "Shibli",
    "lat": 32.69464,
    "lng": 35.39252
  },
  {
    "id": 293020,
    "name": "Tsur Hadassa",
    "lat": 31.71912,
    "lng": 35.09708
  },
  {
    "id": 293126,
    "name": "Zalafa",
    "lat": 32.54805,
    "lng": 35.1852
  },
  {
    "id": 8199392,
    "name": "Talmon",
    "lat": 31.93927,
    "lng": 35.13539
  },
  {
    "id": 293220,
    "name": "Yavne’el",
    "lat": 32.70619,
    "lng": 35.50435
  },
  {
    "id": 294502,
    "name": "Kfar Tavor",
    "lat": 32.68655,
    "lng": 35.42118
  },
  {
    "id": 293657,
    "name": "Sājūr",
    "lat": 32.94266,
    "lng": 35.34136
  },
  {
    "id": 293262,
    "name": "Yad Binyamin",
    "lat": 31.7974,
    "lng": 34.82083
  },
  {
    "id": 294140,
    "name": "Muṣmuṣ",
    "lat": 32.54358,
    "lng": 35.15619
  },
  {
    "id": 12156429,
    "name": "Umm Batin",
    "lat": 31.27735,
    "lng": 34.88246
  },
  {
    "id": 294142,
    "name": "Muqeibila",
    "lat": 32.51424,
    "lng": 35.29617
  },
  {
    "id": 293633,
    "name": "Savyon",
    "lat": 32.04966,
    "lng": 34.8777
  },
  {
    "id": 295249,
    "name": "El Mazra‘a",
    "lat": 32.98338,
    "lng": 35.09837
  },
  {
    "id": 294613,
    "name": "Kafr Barā",
    "lat": 32.13136,
    "lng": 34.97079
  },
  {
    "id": 8428532,
    "name": "Matan",
    "lat": 32.15856,
    "lng": 34.97413
  },
  {
    "id": 294571,
    "name": "Kaukab Abū el Hījā",
    "lat": 32.83155,
    "lng": 35.24848
  },
  {
    "id": 8183198,
    "name": "‘Ein Naqūbā",
    "lat": 31.79366,
    "lng": 35.12064
  },
  {
    "id": 295232,
    "name": "Elyakhin",
    "lat": 32.40793,
    "lng": 34.92433
  },
  {
    "id": 294611,
    "name": "Kafr Kammā",
    "lat": 32.72129,
    "lng": 35.44122
  },
  {
    "id": 386253,
    "name": "Sallama",
    "lat": 32.89443,
    "lng": 35.36931
  },
  {
    "id": 293014,
    "name": "Tsur Moshe",
    "lat": 32.29819,
    "lng": 34.91313
  },
  {
    "id": 293273,
    "name": "‘Uzeir",
    "lat": 32.79212,
    "lng": 35.32984
  },
  {
    "id": 295104,
    "name": "Fassūta",
    "lat": 33.04895,
    "lng": 35.30893
  },
  {
    "id": 293688,
    "name": "Rosh Pinna",
    "lat": 32.96894,
    "lng": 35.54258
  },
  {
    "id": 294627,
    "name": "Jīsh",
    "lat": 33.02216,
    "lng": 35.44694
  },
  {
    "id": 295157,
    "name": "Esh Sheikh Dannūn",
    "lat": 32.9941,
    "lng": 35.14805
  },
  {
    "id": 163684,
    "name": "Tel Qatsir",
    "lat": 32.70545,
    "lng": 35.61761
  },
  {
    "id": 294661,
    "name": "Ibṭīn",
    "lat": 32.7615,
    "lng": 35.11402
  },
  {
    "id": 8199382,
    "name": "Hashmonaim",
    "lat": 31.92973,
    "lng": 35.0215
  },
  {
    "id": 294607,
    "name": "Kafr Miṣr",
    "lat": 32.64521,
    "lng": 35.42147
  },
  {
    "id": 8265522,
    "name": "Nofit",
    "lat": 32.76226,
    "lng": 35.1477
  },
  {
    "id": 294998,
    "name": "Giv‘at Brenner",
    "lat": 31.86684,
    "lng": 34.80097
  },
  {
    "id": 8340977,
    "name": "Gan Ner",
    "lat": 32.53106,
    "lng": 35.3377
  },
  {
    "id": 8199384,
    "name": "Kfar NaOranim",
    "lat": 31.91982,
    "lng": 35.03669
  },
  {
    "id": 8199422,
    "name": "Revava",
    "lat": 32.11926,
    "lng": 35.12896
  },
  {
    "id": 293449,
    "name": "Sūlam",
    "lat": 32.60606,
    "lng": 35.33408
  },
  {
    "id": 173882,
    "name": "Ghajar",
    "lat": 33.27115,
    "lng": 35.62288
  },
  {
    "id": 8264691,
    "name": "Shimshit",
    "lat": 32.73137,
    "lng": 35.24409
  },
  {
    "id": 8199383,
    "name": "Lapid",
    "lat": 31.91764,
    "lng": 35.03222
  },
  {
    "id": 294539,
    "name": "Niẕẕan",
    "lat": 31.73854,
    "lng": 34.62985
  },
  {
    "id": 294099,
    "name": "Nā‘ūra",
    "lat": 32.61403,
    "lng": 35.39168
  },
  {
    "id": 8139973,
    "name": "Aẖuzzat Baraq",
    "lat": 32.64187,
    "lng": 35.33834
  },
  {
    "id": 8072868,
    "name": "Merkaz Shapira",
    "lat": 31.69874,
    "lng": 34.70895
  },
  {
    "id": 390265,
    "name": "Bet H̱ashmonay",
    "lat": 31.88969,
    "lng": 34.91673
  },
  {
    "id": 293319,
    "name": "Tifraẖ",
    "lat": 31.32657,
    "lng": 34.67689
  },
  {
    "id": 8199389,
    "name": "Na'ale",
    "lat": 31.96236,
    "lng": 35.06553
  },
  {
    "id": 8199379,
    "name": "Nof Ayalon",
    "lat": 31.87111,
    "lng": 34.99081
  },
  {
    "id": 293508,
    "name": "Shtulim",
    "lat": 31.77354,
    "lng": 34.68388
  },
  {
    "id": 172119,
    "name": "‘Ein Qunīya",
    "lat": 33.23752,
    "lng": 35.73131
  },
  {
    "id": 295565,
    "name": "Bareqet",
    "lat": 32.01839,
    "lng": 34.94416
  },
  {
    "id": 293580,
    "name": "Bet Yitsẖaq Sha’ar H̱efer",
    "lat": 32.33462,
    "lng": 34.89052
  },
  {
    "id": 294392,
    "name": "Ma‘galim",
    "lat": 31.39688,
    "lng": 34.5995
  },
  {
    "id": 443090,
    "name": "H̱aspin",
    "lat": 32.84571,
    "lng": 35.79295
  },
  {
    "id": 386169,
    "name": "Hosha‘ya",
    "lat": 32.75809,
    "lng": 35.2948
  },
  {
    "id": 8140105,
    "name": "Giv‘at Avni",
    "lat": 32.77682,
    "lng": 35.43747
  },
  {
    "id": 386194,
    "name": "Rumat Heib",
    "lat": 32.77802,
    "lng": 35.30571
  },
  {
    "id": 294410,
    "name": "Ma‘agan Mikha’el",
    "lat": 32.55549,
    "lng": 34.91638
  },
  {
    "id": 8374146,
    "name": "Khirbat Abu Tulūl",
    "lat": 31.14229,
    "lng": 34.91424
  },
  {
    "id": 294470,
    "name": "Meisir",
    "lat": 32.44445,
    "lng": 35.04134
  },
  {
    "id": 294498,
    "name": "Kefar Vitqin",
    "lat": 32.38036,
    "lng": 34.87537
  },
  {
    "id": 6929924,
    "name": "Midreshet Ben-Gurion",
    "lat": 30.85154,
    "lng": 34.7834
  },
  {
    "id": 8264692,
    "name": "Giv‘at Ela",
    "lat": 32.72377,
    "lng": 35.24469
  },
  {
    "id": 294214,
    "name": "Migdal",
    "lat": 32.8392,
    "lng": 35.50145
  },
  {
    "id": 294003,
    "name": "Nordiyya",
    "lat": 32.3147,
    "lng": 34.89617
  },
  {
    "id": 294508,
    "name": "Kfar Shmaryahu",
    "lat": 32.18529,
    "lng": 34.82082
  },
  {
    "id": 293590,
    "name": "Sha‘alvim",
    "lat": 31.86996,
    "lng": 34.98722
  },
  {
    "id": 8265550,
    "name": "‘Adi",
    "lat": 32.78486,
    "lng": 35.17282
  },
  {
    "id": 293585,
    "name": "Sha‘ar Efrayim",
    "lat": 32.29067,
    "lng": 34.9984
  },
  {
    "id": 295730,
    "name": "Aẖi‘ezer",
    "lat": 31.98133,
    "lng": 34.87213
  },
  {
    "id": 294089,
    "name": "Nein",
    "lat": 32.63063,
    "lng": 35.34885
  },
  {
    "id": 295131,
    "name": "Taiyiba",
    "lat": 32.60415,
    "lng": 35.44483
  },
  {
    "id": 295123,
    "name": "Even Shemu’el",
    "lat": 31.57641,
    "lng": 34.76342
  },
  {
    "id": 294093,
    "name": "Neẖalim",
    "lat": 32.06012,
    "lng": 34.91069
  },
  {
    "id": 8199388,
    "name": "Nili",
    "lat": 31.96396,
    "lng": 35.04853
  },
  {
    "id": 8183071,
    "name": "Karmé Yosef",
    "lat": 31.84833,
    "lng": 34.92024
  },
  {
    "id": 293191,
    "name": "Yesud HaMa‘ala",
    "lat": 33.0592,
    "lng": 35.61033
  },
  {
    "id": 294135,
    "name": "Na‘an",
    "lat": 31.88282,
    "lng": 34.85832
  },
  {
    "id": 295421,
    "name": "Bet Zayit",
    "lat": 31.78233,
    "lng": 35.16161
  },
  {
    "id": 8066409,
    "name": "‘Aramsha",
    "lat": 33.08781,
    "lng": 35.22836
  },
  {
    "id": 295424,
    "name": "Bet Yitsẖaq",
    "lat": 32.32751,
    "lng": 34.88878
  },
  {
    "id": 293648,
    "name": "Ṣandala",
    "lat": 32.52234,
    "lng": 35.32325
  },
  {
    "id": 293248,
    "name": "Yagur",
    "lat": 32.7421,
    "lng": 35.0774
  },
  {
    "id": 294247,
    "name": "Metulla",
    "lat": 33.27918,
    "lng": 35.5795
  },
  {
    "id": 295042,
    "name": "Gesher HaZiv",
    "lat": 33.04039,
    "lng": 35.11065
  },
  {
    "id": 293852,
    "name": "Qidron",
    "lat": 31.81405,
    "lng": 34.79714
  },
  {
    "id": 295185,
    "name": "Ein Sarid",
    "lat": 32.27413,
    "lng": 34.93408
  },
  {
    "id": 294533,
    "name": "Kfar Hess",
    "lat": 32.24714,
    "lng": 34.93562
  },
  {
    "id": 293617,
    "name": "Sde ‘Uziyyahu",
    "lat": 31.75,
    "lng": 34.68333
  },
  {
    "id": 295182,
    "name": "Ein Vered",
    "lat": 32.26667,
    "lng": 34.93333
  },
  {
    "id": 295743,
    "name": "Afiqim",
    "lat": 32.68046,
    "lng": 35.57776
  },
  {
    "id": 293410,
    "name": "Tel ‘Adashim",
    "lat": 32.65627,
    "lng": 35.30216
  },
  {
    "id": 294505,
    "name": "Kfar Syrkin",
    "lat": 32.07804,
    "lng": 34.92261
  },
  {
    "id": 9618076,
    "name": "Kammana",
    "lat": 32.91366,
    "lng": 35.35991
  },
  {
    "id": 295582,
    "name": "‘Azriqam",
    "lat": 31.7507,
    "lng": 34.69933
  },
  {
    "id": 8262019,
    "name": "Moreshet",
    "lat": 32.82859,
    "lng": 35.23466
  },
  {
    "id": 294091,
    "name": "Neẖusha",
    "lat": 31.63064,
    "lng": 34.9531
  },
  {
    "id": 293616,
    "name": "Sde Warburg",
    "lat": 32.20361,
    "lng": 34.90722
  },
  {
    "id": 8309927,
    "name": "H̱amam",
    "lat": 32.82955,
    "lng": 35.49195
  },
  {
    "id": 294537,
    "name": "Kfar HaRo’e",
    "lat": 32.39245,
    "lng": 34.91163
  },
  {
    "id": 293701,
    "name": "Rishpon",
    "lat": 32.20254,
    "lng": 34.82322
  },
  {
    "id": 294980,
    "name": "Giv‘at Ye‘arim",
    "lat": 31.78653,
    "lng": 35.09182
  },
  {
    "id": 295011,
    "name": "Gilat",
    "lat": 31.3276,
    "lng": 34.65202
  },
  {
    "id": 8199393,
    "name": "Dolev",
    "lat": 31.92609,
    "lng": 35.13393
  },
  {
    "id": 295510,
    "name": "Bne Re’em",
    "lat": 31.77029,
    "lng": 34.79105
  },
  {
    "id": 294079,
    "name": "Nes Harim",
    "lat": 31.74547,
    "lng": 35.0574
  },
  {
    "id": 295439,
    "name": "Bet Qama",
    "lat": 31.44749,
    "lng": 34.76235
  },
  {
    "id": 294204,
    "name": "Mikhmoret",
    "lat": 32.40535,
    "lng": 34.87091
  },
  {
    "id": 386301,
    "name": "Kammon",
    "lat": 32.90891,
    "lng": 35.36075
  },
  {
    "id": 295224,
    "name": "‘En Boqeq",
    "lat": 31.19941,
    "lng": 35.36253
  },
  {
    "id": 11979661,
    "name": "Yoqneam",
    "lat": 32.65497,
    "lng": 35.11381
  },
  {
    "id": 294347,
    "name": "Ma’or",
    "lat": 32.42306,
    "lng": 35.00513
  },
  {
    "id": 294029,
    "name": "Nir Gallim",
    "lat": 31.82542,
    "lng": 34.68282
  },
  {
    "id": 9978429,
    "name": "Manshīyet Zabda",
    "lat": 32.70638,
    "lng": 35.19354
  },
  {
    "id": 293291,
    "name": "Udim",
    "lat": 32.26496,
    "lng": 34.84549
  },
  {
    "id": 295728,
    "name": "Aẖisamakh",
    "lat": 31.93503,
    "lng": 34.90739
  },
  {
    "id": 293431,
    "name": "Tal Shaẖar",
    "lat": 31.80466,
    "lng": 34.90271
  },
  {
    "id": 294526,
    "name": "Kfar Menaẖem",
    "lat": 31.73139,
    "lng": 34.83547
  },
  {
    "id": 294517,
    "name": "Kfar Rosh HaNiqra",
    "lat": 33.08607,
    "lng": 35.11348
  },
  {
    "id": 294302,
    "name": "Matsliaẖ",
    "lat": 31.90669,
    "lng": 34.87134
  },
  {
    "id": 294043,
    "name": "Nevve Yaraq",
    "lat": 32.13247,
    "lng": 34.92447
  },
  {
    "id": 390289,
    "name": "Mazor",
    "lat": 32.05115,
    "lng": 34.92291
  },
  {
    "id": 294286,
    "name": "Megadim",
    "lat": 32.72815,
    "lng": 34.95631
  },
  {
    "id": 294785,
    "name": "H̱emed",
    "lat": 32.0159,
    "lng": 34.84284
  },
  {
    "id": 293976,
    "name": "Ora",
    "lat": 31.75519,
    "lng": 35.15613
  },
  {
    "id": 295372,
    "name": "Bustan HaGalil",
    "lat": 32.95119,
    "lng": 35.08298
  },
  {
    "id": 293538,
    "name": "Shefayim",
    "lat": 32.21743,
    "lng": 34.82454
  },
  {
    "id": 294781,
    "name": "H̱erut",
    "lat": 32.24018,
    "lng": 34.91583
  },
  {
    "id": 12031827,
    "name": "Be'er Ganim",
    "lat": 31.69973,
    "lng": 34.60978
  },
  {
    "id": 293310,
    "name": "Timrat",
    "lat": 32.70302,
    "lng": 35.22359
  },
  {
    "id": 293009,
    "name": "Be’er Toviyya",
    "lat": 31.73501,
    "lng": 34.72389
  },
  {
    "id": 293038,
    "name": "Tsofit",
    "lat": 32.19423,
    "lng": 34.91957
  },
  {
    "id": 294021,
    "name": "Nir Tsevi",
    "lat": 31.95291,
    "lng": 34.86408
  },
  {
    "id": 295497,
    "name": "Berekhya",
    "lat": 31.66895,
    "lng": 34.6258
  },
  {
    "id": 294185,
    "name": "Mishmar Ha‘Emeq",
    "lat": 32.61045,
    "lng": 35.14227
  },
  {
    "id": 295458,
    "name": "Bet HaShitta",
    "lat": 32.55131,
    "lng": 35.43874
  },
  {
    "id": 295395,
    "name": "Biẕẕaron",
    "lat": 31.79446,
    "lng": 34.72806
  },
  {
    "id": 294558,
    "name": "Kfar Bilu",
    "lat": 31.87702,
    "lng": 34.82108
  },
  {
    "id": 295284,
    "name": "‘Ein Rāfa",
    "lat": 31.7902,
    "lng": 35.11528
  },
  {
    "id": 295212,
    "name": "‘En HaMifrats",
    "lat": 32.90308,
    "lng": 35.09619
  },
  {
    "id": 295455,
    "name": "Bet H̱ilqiyya",
    "lat": 31.79281,
    "lng": 34.81048
  },
  {
    "id": 293476,
    "name": "Shoresh",
    "lat": 31.79711,
    "lng": 35.06525
  },
  {
    "id": 295143,
    "name": "Eshta’ol",
    "lat": 31.78072,
    "lng": 35.00994
  },
  {
    "id": 294395,
    "name": "Mabbu‘im",
    "lat": 31.44965,
    "lng": 34.65477
  },
  {
    "id": 293620,
    "name": "Sde Neẖemya",
    "lat": 33.18756,
    "lng": 35.62235
  },
  {
    "id": 293906,
    "name": "Poriyya",
    "lat": 32.74311,
    "lng": 35.53816
  },
  {
    "id": 10860931,
    "name": "Giv'ot Bar",
    "lat": 31.3565,
    "lng": 34.75525
  },
  {
    "id": 294252,
    "name": "Mesillat Tsiyyon",
    "lat": 31.802,
    "lng": 35.01095
  },
  {
    "id": 295545,
    "name": "Batsra",
    "lat": 32.21412,
    "lng": 34.87676
  },
  {
    "id": 294147,
    "name": "Motsa ‘Illit",
    "lat": 31.79357,
    "lng": 35.15776
  },
  {
    "id": 293679,
    "name": "Rummāna",
    "lat": 32.78783,
    "lng": 35.31091
  },
  {
    "id": 293187,
    "name": "Yif‘at",
    "lat": 32.6775,
    "lng": 35.22333
  },
  {
    "id": 295007,
    "name": "Gimzo",
    "lat": 31.92846,
    "lng": 34.94154
  },
  {
    "id": 293543,
    "name": "Shave Tsiyyon",
    "lat": 32.98098,
    "lng": 35.08331
  },
  {
    "id": 293305,
    "name": "Tirat Yehuda",
    "lat": 32.01392,
    "lng": 34.9342
  },
  {
    "id": 295037,
    "name": "Geva‘ Karmel",
    "lat": 32.66002,
    "lng": 34.94874
  },
  {
    "id": 12156602,
    "name": "Drijat",
    "lat": 31.30069,
    "lng": 35.07632
  },
  {
    "id": 295263,
    "name": "Elishama‘",
    "lat": 32.15208,
    "lng": 34.92827
  },
  {
    "id": 293182,
    "name": "Yinnon",
    "lat": 31.74199,
    "lng": 34.78229
  },
  {
    "id": 293706,
    "name": "Riẖaniya",
    "lat": 33.04904,
    "lng": 35.48815
  },
  {
    "id": 293704,
    "name": "Rinnatya",
    "lat": 32.04428,
    "lng": 34.9276
  },
  {
    "id": 294521,
    "name": "Kfar Netter",
    "lat": 32.273,
    "lng": 34.87349
  },
  {
    "id": 294532,
    "name": "Kfar H̱ittim",
    "lat": 32.79961,
    "lng": 35.50276
  },
  {
    "id": 8261862,
    "name": "Tal El",
    "lat": 32.92825,
    "lng": 35.18128
  },
  {
    "id": 294092,
    "name": "Nehora",
    "lat": 31.62276,
    "lng": 34.70424
  },
  {
    "id": 294995,
    "name": "Giv‘at H̱ayyim Iẖud",
    "lat": 32.39775,
    "lng": 34.93213
  },
  {
    "id": 295480,
    "name": "Bet ‘Arif",
    "lat": 31.99622,
    "lng": 34.93459
  },
  {
    "id": 295511,
    "name": "Bne Dror",
    "lat": 32.2615,
    "lng": 34.90196
  },
  {
    "id": 294295,
    "name": "Matsuva",
    "lat": 33.06375,
    "lng": 35.15761
  },
  {
    "id": 294674,
    "name": "H̱ulda",
    "lat": 31.83176,
    "lng": 34.88231
  },
  {
    "id": 294928,
    "name": "H̱agor",
    "lat": 32.13932,
    "lng": 34.94695
  },
  {
    "id": 293905,
    "name": "Poria Illit",
    "lat": 32.7319,
    "lng": 35.54635
  },
  {
    "id": 293755,
    "name": "Ramot Menashe",
    "lat": 32.59784,
    "lng": 35.05656
  },
  {
    "id": 294044,
    "name": "Nevve Yamin",
    "lat": 32.17217,
    "lng": 34.9393
  },
  {
    "id": 295225,
    "name": "‘En Ayyala",
    "lat": 32.62899,
    "lng": 34.94483
  },
  {
    "id": 295635,
    "name": "‘Arugot",
    "lat": 31.73503,
    "lng": 34.77016
  },
  {
    "id": 295535,
    "name": "Be’erotayim",
    "lat": 32.32111,
    "lng": 34.98324
  },
  {
    "id": 294497,
    "name": "Kfar Warburg",
    "lat": 31.71945,
    "lng": 34.72405
  },
  {
    "id": 12156768,
    "name": "Tirabin al-Sana",
    "lat": 31.34479,
    "lng": 34.73867
  },
  {
    "id": 294388,
    "name": "Maggal",
    "lat": 32.38506,
    "lng": 35.0368
  },
  {
    "id": 295181,
    "name": "‘En Ya‘aqov",
    "lat": 33.00977,
    "lng": 35.22982
  },
  {
    "id": 295375,
    "name": "Burgata",
    "lat": 32.32635,
    "lng": 34.96236
  },
  {
    "id": 294680,
    "name": "H̱osen",
    "lat": 32.99824,
    "lng": 35.29807
  },
  {
    "id": 295587,
    "name": "Ayyelet HaShaẖar",
    "lat": 33.02224,
    "lng": 35.57716
  },
  {
    "id": 295504,
    "name": "Ben Zakkay",
    "lat": 31.85612,
    "lng": 34.72747
  },
  {
    "id": 293985,
    "name": "‘Olesh",
    "lat": 32.33199,
    "lng": 34.98558
  },
  {
    "id": 293785,
    "name": "Ramat HaKovésh",
    "lat": 32.21768,
    "lng": 34.93815
  },
  {
    "id": 293256,
    "name": "Yad Rambam",
    "lat": 31.89997,
    "lng": 34.90027
  },
  {
    "id": 293094,
    "name": "Zekharya",
    "lat": 31.70927,
    "lng": 34.94488
  },
  {
    "id": 293605,
    "name": "Segev",
    "lat": 32.86602,
    "lng": 35.25189
  },
  {
    "id": 8265539,
    "name": "Allon HaGalil",
    "lat": 32.75742,
    "lng": 35.22089
  },
  {
    "id": 293284,
    "name": "Umm el Quṭūf",
    "lat": 32.46718,
    "lng": 35.05811
  },
  {
    "id": 295471,
    "name": "Bet ‘Ezra",
    "lat": 31.73606,
    "lng": 34.65594
  },
  {
    "id": 8199387,
    "name": "Beit Horon",
    "lat": 31.87581,
    "lng": 35.12999
  },
  {
    "id": 294012,
    "name": "Niẕẕané ‘Oz",
    "lat": 32.306,
    "lng": 35.00374
  },
  {
    "id": 293615,
    "name": "Sde Ya‘aqov",
    "lat": 32.69,
    "lng": 35.13861
  },
  {
    "id": 293455,
    "name": "Sitriyya",
    "lat": 31.89238,
    "lng": 34.8438
  },
  {
    "id": 293781,
    "name": "Ramat HaShofet",
    "lat": 32.61102,
    "lng": 35.09472
  },
  {
    "id": 293080,
    "name": "Tsrufa",
    "lat": 32.64824,
    "lng": 34.94991
  },
  {
    "id": 293729,
    "name": "Regba",
    "lat": 32.97721,
    "lng": 35.09864
  },
  {
    "id": 293608,
    "name": "Sdot Yam",
    "lat": 32.49213,
    "lng": 34.89224
  },
  {
    "id": 8265537,
    "name": "Harduf",
    "lat": 32.76342,
    "lng": 35.17469
  },
  {
    "id": 386266,
    "name": "Yuvallim",
    "lat": 32.87756,
    "lng": 35.27031
  },
  {
    "id": 295727,
    "name": "Aẖituv",
    "lat": 32.38873,
    "lng": 34.99072
  },
  {
    "id": 8310823,
    "name": "Gilon",
    "lat": 32.90261,
    "lng": 35.23452
  },
  {
    "id": 293718,
    "name": "Reshafim",
    "lat": 32.48126,
    "lng": 35.4762
  },
  {
    "id": 295696,
    "name": "‘Amminadav",
    "lat": 31.75212,
    "lng": 35.14733
  },
  {
    "id": 295576,
    "name": "Baẖan",
    "lat": 32.35082,
    "lng": 35.01862
  },
  {
    "id": 294422,
    "name": "Li On",
    "lat": 31.67744,
    "lng": 34.93464
  },
  {
    "id": 293231,
    "name": "Yarẖiv",
    "lat": 32.15239,
    "lng": 34.9679
  },
  {
    "id": 295484,
    "name": "Bet Alfa",
    "lat": 32.51609,
    "lng": 35.43068
  },
  {
    "id": 293711,
    "name": "Revivim",
    "lat": 31.04395,
    "lng": 34.72183
  },
  {
    "id": 8309435,
    "name": "Bar Yuẖay",
    "lat": 32.99848,
    "lng": 35.44419
  },
  {
    "id": 8262022,
    "name": "Mitspe Aviv",
    "lat": 32.83907,
    "lng": 35.19921
  },
  {
    "id": 295513,
    "name": "Moledet",
    "lat": 32.58613,
    "lng": 35.44201
  },
  {
    "id": 8199390,
    "name": "Giv'on HaHadasha",
    "lat": 31.84927,
    "lng": 35.16106
  },
  {
    "id": 294322,
    "name": "Mash‘én",
    "lat": 31.65791,
    "lng": 34.62309
  },
  {
    "id": 293078,
    "name": "Zetan",
    "lat": 31.97534,
    "lng": 34.88928
  },
  {
    "id": 294805,
    "name": "HaZore‘im",
    "lat": 32.74707,
    "lng": 35.50274
  },
  {
    "id": 294177,
    "name": "Mishmeret",
    "lat": 32.22818,
    "lng": 34.91835
  },
  {
    "id": 386234,
    "name": "Raqqefet",
    "lat": 32.85744,
    "lng": 35.26142
  },
  {
    "id": 294616,
    "name": "Kabri",
    "lat": 33.0209,
    "lng": 35.14835
  },
  {
    "id": 294449,
    "name": "Kokhav Michael Sobell",
    "lat": 31.62804,
    "lng": 34.66904
  },
  {
    "id": 295538,
    "name": "Be’eri",
    "lat": 31.42426,
    "lng": 34.49163
  },
  {
    "id": 294992,
    "name": "Giv‘ati",
    "lat": 31.733,
    "lng": 34.67995
  },
  {
    "id": 295425,
    "name": "Bet Yehoshua‘",
    "lat": 32.25942,
    "lng": 34.86414
  },
  {
    "id": 293092,
    "name": "Tselafon",
    "lat": 31.80462,
    "lng": 34.9321
  },
  {
    "id": 294520,
    "name": "Kfar Pines",
    "lat": 32.48372,
    "lng": 35.00294
  },
  {
    "id": 295536,
    "name": "Be’er Ora",
    "lat": 29.71053,
    "lng": 34.98019
  },
  {
    "id": 294273,
    "name": "Menaẖemya",
    "lat": 32.66662,
    "lng": 35.555
  },
  {
    "id": 295241,
    "name": "Elon",
    "lat": 33.06365,
    "lng": 35.22009
  },
  {
    "id": 8140106,
    "name": "Mitspe Netofa",
    "lat": 32.80287,
    "lng": 35.38291
  },
  {
    "id": 295223,
    "name": "‘En Dor",
    "lat": 32.65614,
    "lng": 35.41703
  },
  {
    "id": 294288,
    "name": "Mefallesim",
    "lat": 31.50125,
    "lng": 34.5637
  },
  {
    "id": 294178,
    "name": "Mishmarot",
    "lat": 32.48718,
    "lng": 34.98324
  },
  {
    "id": 294435,
    "name": "Lahavot H̱aviva",
    "lat": 32.39517,
    "lng": 35.00977
  },
  {
    "id": 293336,
    "name": "Tel Yitsẖaq",
    "lat": 32.25327,
    "lng": 34.87034
  },
  {
    "id": 295470,
    "name": "Bet Gamli’él",
    "lat": 31.85555,
    "lng": 34.76249
  },
  {
    "id": 293624,
    "name": "Sde H̱emed",
    "lat": 32.16043,
    "lng": 34.94347
  },
  {
    "id": 295437,
    "name": "Bet Rabban",
    "lat": 31.81677,
    "lng": 34.72937
  },
  {
    "id": 295467,
    "name": "Bet Guvrin",
    "lat": 31.61294,
    "lng": 34.89571
  },
  {
    "id": 293774,
    "name": "Ramat Yoẖanan",
    "lat": 32.79308,
    "lng": 35.12226
  },
  {
    "id": 295331,
    "name": "Dvira",
    "lat": 31.41222,
    "lng": 34.8254
  },
  {
    "id": 10247989,
    "name": "Giv‘at H̱ayyim Me’uẖad",
    "lat": 32.39171,
    "lng": 34.93115
  },
  {
    "id": 294184,
    "name": "Mishmar HaNegev",
    "lat": 31.36416,
    "lng": 34.7187
  },
  {
    "id": 295625,
    "name": "Ashdot Ya‘aqov Iẖud",
    "lat": 32.65843,
    "lng": 35.58117
  },
  {
    "id": 293228,
    "name": "Yashresh",
    "lat": 31.91481,
    "lng": 34.84911
  },
  {
    "id": 295632,
    "name": "‘Aseret",
    "lat": 31.82508,
    "lng": 34.74739
  },
  {
    "id": 293434,
    "name": "Talmé Yeẖi’él",
    "lat": 31.7521,
    "lng": 34.76316
  },
  {
    "id": 294063,
    "name": "Nevatim",
    "lat": 31.22417,
    "lng": 34.88098
  },
  {
    "id": 295716,
    "name": "Allone Abba",
    "lat": 32.73016,
    "lng": 35.17138
  },
  {
    "id": 295079,
    "name": "Gan Yoshiyya",
    "lat": 32.34928,
    "lng": 34.99398
  },
  {
    "id": 295065,
    "name": "Ge’alya",
    "lat": 31.88419,
    "lng": 34.76568
  },
  {
    "id": 294258,
    "name": "Meron",
    "lat": 32.9878,
    "lng": 35.44087
  },
  {
    "id": 294030,
    "name": "Nir ‘Etsyon",
    "lat": 32.69861,
    "lng": 34.99448
  },
  {
    "id": 295228,
    "name": "Emunim",
    "lat": 31.74391,
    "lng": 34.6754
  },
  {
    "id": 293766,
    "name": "Ram On",
    "lat": 32.52787,
    "lng": 35.25774
  },
  {
    "id": 294782,
    "name": "H̱erev Le’et",
    "lat": 32.40136,
    "lng": 34.91616
  },
  {
    "id": 293057,
    "name": "Tsippori",
    "lat": 32.74535,
    "lng": 35.28003
  },
  {
    "id": 293133,
    "name": "Tsafriyya",
    "lat": 32.00354,
    "lng": 34.85588
  },
  {
    "id": 295066,
    "name": "Ge’a",
    "lat": 31.62696,
    "lng": 34.60334
  },
  {
    "id": 294095,
    "name": "Negba",
    "lat": 31.66237,
    "lng": 34.68324
  },
  {
    "id": 295402,
    "name": "Biriyya",
    "lat": 32.97832,
    "lng": 35.49973
  },
  {
    "id": 295040,
    "name": "Ge’ullim",
    "lat": 32.29962,
    "lng": 34.94514
  },
  {
    "id": 293259,
    "name": "Yad H̱anna",
    "lat": 32.32561,
    "lng": 35.00745
  },
  {
    "id": 443088,
    "name": "Nov",
    "lat": 32.83283,
    "lng": 35.7836
  },
  {
    "id": 386272,
    "name": "Eshẖar",
    "lat": 32.8864,
    "lng": 35.30059
  },
  {
    "id": 295367,
    "name": "Dafna",
    "lat": 33.23013,
    "lng": 35.63867
  },
  {
    "id": 294244,
    "name": "Mevo Betar",
    "lat": 31.72177,
    "lng": 35.10669
  },
  {
    "id": 295516,
    "name": "Bne ‘Atarot",
    "lat": 32.02364,
    "lng": 34.91288
  },
  {
    "id": 293857,
    "name": "Qvutsat Yavne",
    "lat": 31.81555,
    "lng": 34.7208
  },
  {
    "id": 8312758,
    "name": "H̱annaton",
    "lat": 32.78366,
    "lng": 35.2446
  },
  {
    "id": 294263,
    "name": "Me‘ona",
    "lat": 33.01685,
    "lng": 35.2595
  },
  {
    "id": 295085,
    "name": "Gannot Hadar",
    "lat": 32.32244,
    "lng": 34.90178
  },
  {
    "id": 294053,
    "name": "Neve Ilan",
    "lat": 31.80858,
    "lng": 35.08029
  },
  {
    "id": 282163,
    "name": "Kiryat Netafim",
    "lat": 32.11689,
    "lng": 35.11222
  },
  {
    "id": 294507,
    "name": "Kfar Shmu’el",
    "lat": 31.89032,
    "lng": 34.93152
  },
  {
    "id": 293293,
    "name": "Tushiyya",
    "lat": 31.43327,
    "lng": 34.54109
  },
  {
    "id": 295492,
    "name": "Beror H̱ayil",
    "lat": 31.55764,
    "lng": 34.64664
  },
  {
    "id": 9194273,
    "name": "Nevve Ziv",
    "lat": 33.02677,
    "lng": 35.18448
  },
  {
    "id": 294186,
    "name": "Mishmar David",
    "lat": 31.8228,
    "lng": 34.90051
  },
  {
    "id": 293936,
    "name": "Pattish",
    "lat": 31.32794,
    "lng": 34.55906
  },
  {
    "id": 293437,
    "name": "Talmé El‘azar",
    "lat": 32.44566,
    "lng": 34.97717
  },
  {
    "id": 293419,
    "name": "Tarum",
    "lat": 31.78289,
    "lng": 34.98096
  },
  {
    "id": 294525,
    "name": "Kfar Monash",
    "lat": 32.3471,
    "lng": 34.91628
  },
  {
    "id": 293235,
    "name": "Yanuv",
    "lat": 32.30627,
    "lng": 34.9503
  },
  {
    "id": 295083,
    "name": "Gan Shmu’el",
    "lat": 32.4492,
    "lng": 34.95234
  },
  {
    "id": 295035,
    "name": "Gvat",
    "lat": 32.67547,
    "lng": 35.21247
  },
  {
    "id": 294844,
    "name": "HaSolelim",
    "lat": 32.7513,
    "lng": 35.23727
  },
  {
    "id": 294127,
    "name": "Nahalal",
    "lat": 32.6904,
    "lng": 35.19648
  },
  {
    "id": 293406,
    "name": "Telamim",
    "lat": 31.56471,
    "lng": 34.67177
  },
  {
    "id": 386233,
    "name": "Qoranit",
    "lat": 32.84388,
    "lng": 35.25179
  },
  {
    "id": 8199421,
    "name": "Nirit",
    "lat": 32.14677,
    "lng": 34.98622
  },
  {
    "id": 294881,
    "name": "H̱anni’el",
    "lat": 32.33306,
    "lng": 34.95051
  },
  {
    "id": 295203,
    "name": "‘En Karmel",
    "lat": 32.67697,
    "lng": 34.95304
  },
  {
    "id": 294878,
    "name": "Ha‘Ogen",
    "lat": 32.3621,
    "lng": 34.92392
  },
  {
    "id": 293558,
    "name": "Shamir",
    "lat": 33.16587,
    "lng": 35.66035
  },
  {
    "id": 293576,
    "name": "Shafir",
    "lat": 31.69686,
    "lng": 34.72971
  },
  {
    "id": 293249,
    "name": "Yagel",
    "lat": 31.98775,
    "lng": 34.88026
  },
  {
    "id": 295457,
    "name": "Beit H̱erut",
    "lat": 32.37623,
    "lng": 34.87357
  },
  {
    "id": 294806,
    "name": "HaZorea‘",
    "lat": 32.64572,
    "lng": 35.11883
  },
  {
    "id": 293464,
    "name": "Kfar H̱oshen",
    "lat": 33.01209,
    "lng": 35.44049
  },
  {
    "id": 295459,
    "name": "Bet H̱ananya",
    "lat": 32.52913,
    "lng": 34.92596
  },
  {
    "id": 295512,
    "name": "Bne Darom",
    "lat": 31.82034,
    "lng": 34.69235
  },
  {
    "id": 294991,
    "name": "Giv‘at Koaẖ",
    "lat": 32.03117,
    "lng": 34.93657
  },
  {
    "id": 295729,
    "name": "Aẖihud",
    "lat": 32.90836,
    "lng": 35.17137
  },
  {
    "id": 8071775,
    "name": "Netiv Ha‘Asara",
    "lat": 31.57201,
    "lng": 34.53955
  },
  {
    "id": 295290,
    "name": "‘Ein el Asad",
    "lat": 32.94137,
    "lng": 35.39639
  },
  {
    "id": 295754,
    "name": "Adderet",
    "lat": 31.66071,
    "lng": 34.99564
  },
  {
    "id": 293640,
    "name": "Sarid",
    "lat": 32.66345,
    "lng": 35.22556
  },
  {
    "id": 293571,
    "name": "Shaẖar",
    "lat": 31.61923,
    "lng": 34.72416
  },
  {
    "id": 295449,
    "name": "Bet Me’ir",
    "lat": 31.79393,
    "lng": 35.03689
  },
  {
    "id": 294567,
    "name": "Kfar Ahim",
    "lat": 31.7448,
    "lng": 34.75681
  },
  {
    "id": 294023,
    "name": "Nir Yisra’el",
    "lat": 31.6881,
    "lng": 34.6378
  },
  {
    "id": 386195,
    "name": "Bet Rimmon",
    "lat": 32.77995,
    "lng": 35.32766
  },
  {
    "id": 295606,
    "name": "Avi‘ezer",
    "lat": 31.68161,
    "lng": 35.01767
  },
  {
    "id": 294942,
    "name": "H̱adid",
    "lat": 31.96846,
    "lng": 34.93373
  },
  {
    "id": 295508,
    "name": "Ben Shemen",
    "lat": 31.95281,
    "lng": 34.922
  },
  {
    "id": 294997,
    "name": "Giv‘at HaShlosha",
    "lat": 32.09854,
    "lng": 34.92159
  },
  {
    "id": 294910,
    "name": "HaMa‘pil",
    "lat": 32.37802,
    "lng": 34.98337
  },
  {
    "id": 294528,
    "name": "Kfar Masaryk",
    "lat": 32.89019,
    "lng": 35.09889
  },
  {
    "id": 293227,
    "name": "Yas‘ur",
    "lat": 32.90038,
    "lng": 35.16578
  },
  {
    "id": 294754,
    "name": "H̱ogla",
    "lat": 32.38767,
    "lng": 34.92759
  },
  {
    "id": 295430,
    "name": "Bet Shiqma",
    "lat": 31.63589,
    "lng": 34.60636
  },
  {
    "id": 295178,
    "name": "‘En Ẕurim",
    "lat": 31.69464,
    "lng": 34.7194
  },
  {
    "id": 8261970,
    "name": "Manof",
    "lat": 32.85399,
    "lng": 35.23684
  },
  {
    "id": 295360,
    "name": "Dalton",
    "lat": 33.01635,
    "lng": 35.48902
  },
  {
    "id": 295206,
    "name": "‘En HaShofet",
    "lat": 32.59472,
    "lng": 35.09917
  },
  {
    "id": 294318,
    "name": "Maslul",
    "lat": 31.32485,
    "lng": 34.59056
  },
  {
    "id": 294924,
    "name": "HaH̱oterim",
    "lat": 32.75179,
    "lng": 34.95694
  },
  {
    "id": 293669,
    "name": "Sa‘ar",
    "lat": 33.02852,
    "lng": 35.10951
  },
  {
    "id": 294559,
    "name": "Kfar Bialik",
    "lat": 32.82126,
    "lng": 35.08756
  },
  {
    "id": 293672,
    "name": "Sa‘ad",
    "lat": 31.47142,
    "lng": 34.53465
  },
  {
    "id": 293050,
    "name": "Ziqim",
    "lat": 31.60681,
    "lng": 34.52154
  },
  {
    "id": 294051,
    "name": "Nevve Mikha’el",
    "lat": 31.67298,
    "lng": 35.00876
  },
  {
    "id": 295464,
    "name": "Bet HaGaddi",
    "lat": 31.42516,
    "lng": 34.60601
  },
  {
    "id": 295119,
    "name": "‘Evron",
    "lat": 32.99556,
    "lng": 35.10092
  },
  {
    "id": 294854,
    "name": "H̱arutsim",
    "lat": 32.22759,
    "lng": 34.86486
  },
  {
    "id": 295314,
    "name": "Dorot",
    "lat": 31.50646,
    "lng": 34.6456
  },
  {
    "id": 295213,
    "name": "‘En HaH̱oresh",
    "lat": 32.38629,
    "lng": 34.93967
  },
  {
    "id": 295226,
    "name": "‘Enat",
    "lat": 32.08318,
    "lng": 34.93866
  },
  {
    "id": 295461,
    "name": "Bet HaLevi",
    "lat": 32.35285,
    "lng": 34.93012
  },
  {
    "id": 295605,
    "name": "Avigdor",
    "lat": 31.71083,
    "lng": 34.7444
  },
  {
    "id": 294979,
    "name": "Giv‘at Yesha‘yahu",
    "lat": 31.67119,
    "lng": 34.94472
  },
  {
    "id": 293215,
    "name": "Yatsits",
    "lat": 31.86396,
    "lng": 34.8614
  },
  {
    "id": 295607,
    "name": "Avi’el",
    "lat": 32.53195,
    "lng": 34.9936
  },
  {
    "id": 294926,
    "name": "HaGosherim",
    "lat": 33.22061,
    "lng": 35.62331
  },
  {
    "id": 293475,
    "name": "Shoval",
    "lat": 31.41337,
    "lng": 34.74378
  },
  {
    "id": 295102,
    "name": "Ga‘ash",
    "lat": 32.22854,
    "lng": 34.82388
  },
  {
    "id": 293435,
    "name": "Talmé Yafe",
    "lat": 31.61734,
    "lng": 34.61273
  },
  {
    "id": 8072917,
    "name": "‘Ézer",
    "lat": 31.737,
    "lng": 34.6714
  },
  {
    "id": 295363,
    "name": "Daliyya",
    "lat": 32.58982,
    "lng": 35.07514
  },
  {
    "id": 386232,
    "name": "Shekhanya",
    "lat": 32.84851,
    "lng": 35.24682
  },
  {
    "id": 293712,
    "name": "Revadim",
    "lat": 31.77342,
    "lng": 34.81661
  },
  {
    "id": 294404,
    "name": "Ma‘anit",
    "lat": 32.45617,
    "lng": 35.02889
  },
  {
    "id": 443092,
    "name": "H̱ad Nes",
    "lat": 32.92686,
    "lng": 35.64228
  },
  {
    "id": 294179,
    "name": "Mishmar HaYarden",
    "lat": 33.00333,
    "lng": 35.59806
  },
  {
    "id": 293626,
    "name": "Sde Eli‘ezer",
    "lat": 33.04606,
    "lng": 35.56466
  },
  {
    "id": 293621,
    "name": "Sde Naẖum",
    "lat": 32.52562,
    "lng": 35.48094
  },
  {
    "id": 295214,
    "name": "‘En Ha‘Emeq",
    "lat": 32.62995,
    "lng": 35.08412
  },
  {
    "id": 294256,
    "name": "Meshar",
    "lat": 31.81613,
    "lng": 34.75293
  },
  {
    "id": 294399,
    "name": "Midrakh ‘Oz",
    "lat": 32.59517,
    "lng": 35.15912
  },
  {
    "id": 294406,
    "name": "Ma‘alé HaH̱amisha",
    "lat": 31.81812,
    "lng": 35.11109
  },
  {
    "id": 295501,
    "name": "Beqoa‘",
    "lat": 31.82902,
    "lng": 34.92579
  },
  {
    "id": 386251,
    "name": "Lotem",
    "lat": 32.88179,
    "lng": 35.35882
  },
  {
    "id": 295398,
    "name": "Bitẖa",
    "lat": 31.33431,
    "lng": 34.63371
  },
  {
    "id": 293317,
    "name": "Timmorim",
    "lat": 31.71534,
    "lng": 34.76127
  },
  {
    "id": 295456,
    "name": "Bet Hillel",
    "lat": 33.20855,
    "lng": 35.60697
  },
  {
    "id": 294757,
    "name": "H̱ofit",
    "lat": 32.38565,
    "lng": 34.87425
  },
  {
    "id": 9618071,
    "name": "Ḥuseinīya",
    "lat": 32.903,
    "lng": 35.31417
  },
  {
    "id": 8199381,
    "name": "Shilat",
    "lat": 31.91931,
    "lng": 35.01763
  },
  {
    "id": 293177,
    "name": "Yish‘i",
    "lat": 31.75064,
    "lng": 34.96653
  },
  {
    "id": 293233,
    "name": "Yaqum",
    "lat": 32.24895,
    "lng": 34.84323
  },
  {
    "id": 293965,
    "name": "Or HaNer",
    "lat": 31.55701,
    "lng": 34.60202
  },
  {
    "id": 294307,
    "name": "Ma‘yan Barukh",
    "lat": 33.24032,
    "lng": 35.609
  },
  {
    "id": 295518,
    "name": "Ben ‘Ammi",
    "lat": 33.00697,
    "lng": 35.12562
  },
  {
    "id": 294555,
    "name": "Kfar Blum",
    "lat": 33.17172,
    "lng": 35.60982
  },
  {
    "id": 8071778,
    "name": "Bat Hadar",
    "lat": 31.64773,
    "lng": 34.59661
  },
  {
    "id": 293622,
    "name": "Sde Moshe",
    "lat": 31.61148,
    "lng": 34.80174
  },
  {
    "id": 294164,
    "name": "Mizra‘",
    "lat": 32.65029,
    "lng": 35.28563
  },
  {
    "id": 294884,
    "name": "H̱anita",
    "lat": 33.08746,
    "lng": 35.17364
  },
  {
    "id": 293264,
    "name": "Ya‘ara",
    "lat": 33.06755,
    "lng": 35.18704
  },
  {
    "id": 294557,
    "name": "Kfar Bin Nun",
    "lat": 31.86205,
    "lng": 34.94762
  },
  {
    "id": 294306,
    "name": "Ma‘yan Tsvi",
    "lat": 32.5686,
    "lng": 34.94063
  },
  {
    "id": 8066329,
    "name": "Kelil",
    "lat": 32.98151,
    "lng": 35.20335
  },
  {
    "id": 295357,
    "name": "Dan",
    "lat": 33.23979,
    "lng": 35.65335
  },
  {
    "id": 295447,
    "name": "Bet Neqofa",
    "lat": 31.80452,
    "lng": 35.12595
  },
  {
    "id": 295180,
    "name": "‘En Yahav",
    "lat": 30.65817,
    "lng": 35.23746
  },
  {
    "id": 293583,
    "name": "Sha‘ar Ha‘Amaqim",
    "lat": 32.7231,
    "lng": 35.11136
  },
  {
    "id": 293258,
    "name": "Yad Mordekhay",
    "lat": 31.58902,
    "lng": 34.55815
  },
  {
    "id": 293242,
    "name": "Yakhini",
    "lat": 31.48274,
    "lng": 34.59911
  },
  {
    "id": 294794,
    "name": "H̱eftsi Bah",
    "lat": 32.51784,
    "lng": 35.42611
  },
  {
    "id": 295124,
    "name": "Even Sappir",
    "lat": 31.76319,
    "lng": 35.13422
  },
  {
    "id": 294989,
    "name": "Giv‘at Nili",
    "lat": 32.54864,
    "lng": 35.04026
  },
  {
    "id": 294032,
    "name": "Nir David",
    "lat": 32.50406,
    "lng": 35.45708
  },
  {
    "id": 293209,
    "name": "Yeẖi‘am",
    "lat": 32.99663,
    "lng": 35.22078
  },
  {
    "id": 294771,
    "name": "H̱ibbat Tsiyyon",
    "lat": 32.39731,
    "lng": 34.91249
  },
  {
    "id": 294033,
    "name": "Nir Banim",
    "lat": 31.67178,
    "lng": 34.75482
  },
  {
    "id": 8199391,
    "name": "Nahliel",
    "lat": 31.97415,
    "lng": 35.13994
  },
  {
    "id": 294024,
    "name": "Nir Yafe",
    "lat": 32.56905,
    "lng": 35.245
  },
  {
    "id": 9887822,
    "name": "Merav",
    "lat": 32.45182,
    "lng": 35.42354
  },
  {
    "id": 293327,
    "name": "Tequma",
    "lat": 31.44984,
    "lng": 34.57816
  },
  {
    "id": 293093,
    "name": "Misgav Dov",
    "lat": 31.81897,
    "lng": 34.74012
  },
  {
    "id": 294563,
    "name": "Kfar ‘Azza",
    "lat": 31.48406,
    "lng": 34.53306
  },
  {
    "id": 294128,
    "name": "Naẖala",
    "lat": 31.65883,
    "lng": 34.79382
  },
  {
    "id": 293604,
    "name": "Segula",
    "lat": 31.6709,
    "lng": 34.77975
  },
  {
    "id": 293148,
    "name": "Yotvata",
    "lat": 29.89549,
    "lng": 35.06127
  },
  {
    "id": 295230,
    "name": "Elyashiv",
    "lat": 32.38108,
    "lng": 34.90883
  },
  {
    "id": 295745,
    "name": "Afeq",
    "lat": 32.83889,
    "lng": 35.12781
  },
  {
    "id": 295438,
    "name": "Bet Qeshet",
    "lat": 32.71869,
    "lng": 35.39516
  },
  {
    "id": 294826,
    "name": "HaYogev",
    "lat": 32.61093,
    "lng": 35.20358
  },
  {
    "id": 293772,
    "name": "Ramat Tsvi",
    "lat": 32.59078,
    "lng": 35.41533
  },
  {
    "id": 443091,
    "name": "Ramat Magshimim",
    "lat": 32.84473,
    "lng": 35.80822
  },
  {
    "id": 295306,
    "name": "Ed Dahī",
    "lat": 32.62094,
    "lng": 35.34454
  },
  {
    "id": 293751,
    "name": "Rannen",
    "lat": 31.33773,
    "lng": 34.60069
  },
  {
    "id": 295004,
    "name": "Ginnegar",
    "lat": 32.66364,
    "lng": 35.25764
  },
  {
    "id": 294675,
    "name": "H̱ulata",
    "lat": 33.05152,
    "lng": 35.60981
  },
  {
    "id": 294312,
    "name": "Massu’ot Yitsẖaq",
    "lat": 31.70297,
    "lng": 34.69129
  },
  {
    "id": 293625,
    "name": "Sde Eliyyahu",
    "lat": 32.43946,
    "lng": 35.5127
  },
  {
    "id": 293467,
    "name": "Shuva",
    "lat": 31.45094,
    "lng": 34.54404
  },
  {
    "id": 8261948,
    "name": "Ya‘ad",
    "lat": 32.87953,
    "lng": 35.24166
  },
  {
    "id": 294462,
    "name": "Kinneret",
    "lat": 32.7138,
    "lng": 35.56301
  },
  {
    "id": 293682,
    "name": "Ruẖama",
    "lat": 31.49743,
    "lng": 34.70611
  },
  {
    "id": 294112,
    "name": "Naẖsholim",
    "lat": 32.61347,
    "lng": 34.92022
  },
  {
    "id": 293614,
    "name": "Sde Yiẕẖaq",
    "lat": 32.4,
    "lng": 35.0
  },
  {
    "id": 294461,
    "name": "Kinneret",
    "lat": 32.72264,
    "lng": 35.5662
  },
  {
    "id": 294034,
    "name": "Nir ‘Aqiva",
    "lat": 31.46994,
    "lng": 34.64634
  },
  {
    "id": 293577,
    "name": "Shadmot Dvora",
    "lat": 32.69706,
    "lng": 35.4367
  },
  {
    "id": 294052,
    "name": "Neve Mivtaẖ",
    "lat": 31.80591,
    "lng": 34.73961
  },
  {
    "id": 385959,
    "name": "Magén Sha’ul",
    "lat": 32.52174,
    "lng": 35.30776
  },
  {
    "id": 295218,
    "name": "‘En Gev",
    "lat": 32.78269,
    "lng": 35.63841
  },
  {
    "id": 294954,
    "name": "Hadar ‘Am",
    "lat": 32.35037,
    "lng": 34.89992
  },
  {
    "id": 295562,
    "name": "Bar Giyyora",
    "lat": 31.72973,
    "lng": 35.07296
  },
  {
    "id": 295344,
    "name": "Deganya Bet",
    "lat": 32.69987,
    "lng": 35.57596
  },
  {
    "id": 294547,
    "name": "Kfar Gil‘adi",
    "lat": 33.24228,
    "lng": 35.57515
  },
  {
    "id": 295612,
    "name": "‘Avdon",
    "lat": 33.04789,
    "lng": 35.17995
  },
  {
    "id": 293542,
    "name": "She’ar Yashuv",
    "lat": 33.22957,
    "lng": 35.6484
  },
  {
    "id": 293612,
    "name": "Sde Ẕevi",
    "lat": 31.44861,
    "lng": 34.71298
  },
  {
    "id": 294260,
    "name": "Merẖavya",
    "lat": 32.60432,
    "lng": 35.30782
  },
  {
    "id": 293483,
    "name": "Sho’eva",
    "lat": 31.79867,
    "lng": 35.07764
  },
  {
    "id": 294070,
    "name": "Netiv HaLamed He",
    "lat": 31.68755,
    "lng": 34.98272
  },
  {
    "id": 294807,
    "name": "H̱atsor Ashdod",
    "lat": 31.77227,
    "lng": 34.72051
  },
  {
    "id": 293957,
    "name": "Otsem",
    "lat": 31.63685,
    "lng": 34.70395
  },
  {
    "id": 293320,
    "name": "Tidhar",
    "lat": 31.37899,
    "lng": 34.62961
  },
  {
    "id": 295171,
    "name": "Eshbol",
    "lat": 31.44677,
    "lng": 34.6672
  },
  {
    "id": 295265,
    "name": "Elifelet",
    "lat": 32.94722,
    "lng": 35.54791
  },
  {
    "id": 294524,
    "name": "Kfar Mordekhay",
    "lat": 31.82997,
    "lng": 34.75713
  },
  {
    "id": 8265835,
    "name": "Ras ‘Ali",
    "lat": 32.77274,
    "lng": 35.15521
  },
  {
    "id": 295205,
    "name": "‘En Hod",
    "lat": 32.70096,
    "lng": 34.98362
  },
  {
    "id": 293144,
    "name": "Yuval",
    "lat": 33.24748,
    "lng": 35.59811
  },
  {
    "id": 294022,
    "name": "Nir Yitsẖaq",
    "lat": 31.23739,
    "lng": 34.35743
  },
  {
    "id": 295427,
    "name": "Bet ‘Uzi’él",
    "lat": 31.87039,
    "lng": 34.90483
  },
  {
    "id": 293023,
    "name": "Tzova",
    "lat": 31.78377,
    "lng": 35.11926
  },
  {
    "id": 293066,
    "name": "Zimrat",
    "lat": 31.44784,
    "lng": 34.55401
  },
  {
    "id": 295031,
    "name": "Gevim",
    "lat": 31.50756,
    "lng": 34.59869
  },
  {
    "id": 294814,
    "name": "H̱atseva",
    "lat": 30.76873,
    "lng": 35.28025
  },
  {
    "id": 294086,
    "name": "Ne’ot Mordekhay",
    "lat": 33.16034,
    "lng": 35.59663
  },
  {
    "id": 294518,
    "name": "Kfar Kisch",
    "lat": 32.66686,
    "lng": 35.44893
  },
  {
    "id": 295038,
    "name": "Geva‘",
    "lat": 32.5664,
    "lng": 35.37158
  },
  {
    "id": 294268,
    "name": "Menuẖa",
    "lat": 31.6569,
    "lng": 34.77693
  },
  {
    "id": 294183,
    "name": "Mishmar HaSharon",
    "lat": 32.35689,
    "lng": 34.90359
  },
  {
    "id": 294670,
    "name": "Hukok",
    "lat": 32.87918,
    "lng": 35.49555
  },
  {
    "id": 294035,
    "name": "Nir‘am",
    "lat": 31.51959,
    "lng": 34.58006
  },
  {
    "id": 295220,
    "name": "‘En Gedi",
    "lat": 31.45238,
    "lng": 35.38443
  },
  {
    "id": 293243,
    "name": "Yājur",
    "lat": 32.75,
    "lng": 35.05
  },
  {
    "id": 295442,
    "name": "Bet Nir",
    "lat": 31.64747,
    "lng": 34.87382
  },
  {
    "id": 295211,
    "name": "‘En HaNaẕiv",
    "lat": 32.47037,
    "lng": 35.50242
  },
  {
    "id": 293940,
    "name": "Parod",
    "lat": 32.93269,
    "lng": 35.43379
  },
  {
    "id": 293627,
    "name": "Sde Dawid",
    "lat": 31.57638,
    "lng": 34.68429
  },
  {
    "id": 293541,
    "name": "Shdema",
    "lat": 31.83439,
    "lng": 34.74366
  },
  {
    "id": 294026,
    "name": "Nir Moshe",
    "lat": 31.47812,
    "lng": 34.63204
  },
  {
    "id": 293623,
    "name": "Sde Ilan",
    "lat": 32.74888,
    "lng": 35.42185
  },
  {
    "id": 294007,
    "name": "Nofekh",
    "lat": 32.04372,
    "lng": 34.92066
  },
  {
    "id": 443105,
    "name": "Snir",
    "lat": 33.24073,
    "lng": 35.6773
  },
  {
    "id": 295002,
    "name": "Ginnosar",
    "lat": 32.84713,
    "lng": 35.52335
  },
  {
    "id": 294005,
    "name": "Nogah",
    "lat": 31.62485,
    "lng": 34.6949
  },
  {
    "id": 293613,
    "name": "Sde Yo‘av",
    "lat": 31.646,
    "lng": 34.67697
  },
  {
    "id": 293559,
    "name": "Shomrat",
    "lat": 32.95155,
    "lng": 35.09497
  },
  {
    "id": 295419,
    "name": "Bet Zera‘",
    "lat": 32.6886,
    "lng": 35.57281
  },
  {
    "id": 295084,
    "name": "Gan Shlomo",
    "lat": 31.87864,
    "lng": 34.79961
  },
  {
    "id": 8134533,
    "name": "Or HaGanuz",
    "lat": 33.00514,
    "lng": 35.44691
  },
  {
    "id": 293579,
    "name": "Sha‘ar Menashe",
    "lat": 32.4498,
    "lng": 35.01561
  },
  {
    "id": 293548,
    "name": "Sharona",
    "lat": 32.72533,
    "lng": 35.46692
  },
  {
    "id": 293186,
    "name": "Yiftaẖ",
    "lat": 33.12884,
    "lng": 35.55231
  },
  {
    "id": 6413457,
    "name": "Ashalim",
    "lat": 30.96409,
    "lng": 34.69934
  },
  {
    "id": 293480,
    "name": "Shoqeda",
    "lat": 31.42218,
    "lng": 34.52392
  },
  {
    "id": 295491,
    "name": "Berosh",
    "lat": 31.37121,
    "lng": 34.63395
  },
  {
    "id": 293956,
    "name": "Pa‘amé Tashaz",
    "lat": 31.43928,
    "lng": 34.69478
  },
  {
    "id": 293334,
    "name": "Tel Yosef",
    "lat": 32.55646,
    "lng": 35.39919
  },
  {
    "id": 293112,
    "name": "Zavdi’él",
    "lat": 31.65837,
    "lng": 34.7612
  },
  {
    "id": 295177,
    "name": "Erez",
    "lat": 31.56024,
    "lng": 34.56661
  },
  {
    "id": 294938,
    "name": "H̱afets H̱ayyim",
    "lat": 31.78832,
    "lng": 34.80011
  },
  {
    "id": 386309,
    "name": "Mikhmannim",
    "lat": 32.90591,
    "lng": 35.32815
  },
  {
    "id": 294187,
    "name": "Mishmar Ayyalon",
    "lat": 31.8706,
    "lng": 34.94112
  },
  {
    "id": 294031,
    "name": "Nir Eliyyahu",
    "lat": 32.19672,
    "lng": 34.94921
  },
  {
    "id": 295558,
    "name": "Barqay",
    "lat": 32.4751,
    "lng": 35.02966
  },
  {
    "id": 293166,
    "name": "Yizre‘el",
    "lat": 32.56289,
    "lng": 35.32045
  },
  {
    "id": 443084,
    "name": "Ramot",
    "lat": 32.85084,
    "lng": 35.66668
  },
  {
    "id": 293709,
    "name": "Revaẖa",
    "lat": 31.65,
    "lng": 34.73333
  },
  {
    "id": 294028,
    "name": "Nir H̱en",
    "lat": 31.60901,
    "lng": 34.71462
  },
  {
    "id": 295726,
    "name": "Aẖuzzam",
    "lat": 31.55385,
    "lng": 34.77009
  },
  {
    "id": 295204,
    "name": "‘En ‘Iron",
    "lat": 32.48324,
    "lng": 35.00902
  },
  {
    "id": 295624,
    "name": "Ashdot Ya‘aqov Me’uẖad",
    "lat": 32.66363,
    "lng": 35.58282
  },
  {
    "id": 6413459,
    "name": "Telalim",
    "lat": 30.99268,
    "lng": 34.77035
  },
  {
    "id": 293581,
    "name": "Sha‘ar HaGolan",
    "lat": 32.68669,
    "lng": 35.60402
  },
  {
    "id": 386222,
    "name": "Hararit",
    "lat": 32.84572,
    "lng": 35.36823
  },
  {
    "id": 295460,
    "name": "Bet H̱anan",
    "lat": 31.93432,
    "lng": 34.77304
  },
  {
    "id": 8367614,
    "name": "Retamim",
    "lat": 31.05464,
    "lng": 34.68969
  },
  {
    "id": 8072853,
    "name": "Alumma",
    "lat": 31.65177,
    "lng": 34.74338
  },
  {
    "id": 295117,
    "name": "Eyal",
    "lat": 32.21156,
    "lng": 34.97946
  },
  {
    "id": 295055,
    "name": "Gelil Yam",
    "lat": 32.15733,
    "lng": 34.83141
  },
  {
    "id": 293278,
    "name": "Usha",
    "lat": 32.79509,
    "lng": 35.11511
  },
  {
    "id": 294516,
    "name": "Kfar Ruppin",
    "lat": 32.45856,
    "lng": 35.55708
  },
  {
    "id": 293438,
    "name": "Talmé Bilu",
    "lat": 31.43807,
    "lng": 34.64487
  },
  {
    "id": 8309930,
    "name": "Karkom",
    "lat": 32.92862,
    "lng": 35.60774
  },
  {
    "id": 295733,
    "name": "‘Agur",
    "lat": 31.69772,
    "lng": 34.91235
  },
  {
    "id": 295573,
    "name": "Balfouriyya",
    "lat": 32.63035,
    "lng": 35.29651
  },
  {
    "id": 295345,
    "name": "Deganya Alef",
    "lat": 32.70798,
    "lng": 35.57487
  },
  {
    "id": 294483,
    "name": "Kerem Ben Zimra",
    "lat": 33.03833,
    "lng": 35.46872
  },
  {
    "id": 293117,
    "name": "Zanoaẖ",
    "lat": 31.73236,
    "lng": 34.99967
  },
  {
    "id": 293791,
    "name": "Ramat David",
    "lat": 32.67845,
    "lng": 35.20325
  },
  {
    "id": 293933,
    "name": "Peduyim",
    "lat": 31.32714,
    "lng": 34.61189
  },
  {
    "id": 386264,
    "name": "Shorashim",
    "lat": 32.89306,
    "lng": 35.25972
  },
  {
    "id": 9997391,
    "name": "Ed Dumeidā",
    "lat": 32.81519,
    "lng": 35.22724
  },
  {
    "id": 295758,
    "name": "‘Adanim",
    "lat": 32.13902,
    "lng": 34.90798
  },
  {
    "id": 295714,
    "name": "Allonim",
    "lat": 32.72082,
    "lng": 35.1445
  },
  {
    "id": 8068328,
    "name": "Yated",
    "lat": 31.20648,
    "lng": 34.32757
  },
  {
    "id": 8141247,
    "name": "Shoshannat Ha‘Amaqim",
    "lat": 32.35409,
    "lng": 34.85688
  },
  {
    "id": 293560,
    "name": "Shalva",
    "lat": 31.56468,
    "lng": 34.76855
  },
  {
    "id": 293279,
    "name": "Urim",
    "lat": 31.30433,
    "lng": 34.52328
  },
  {
    "id": 8183896,
    "name": "Sheqef",
    "lat": 31.51656,
    "lng": 34.93783
  }
]