[
  {
    "id": 281184,
    "name": "Jerusalem",
    "lat": 31.76904,
    "lng": 35.21633
  },
  {
    "id": 293397,
    "name": "Tel Aviv",
    "lat": 32.08088,
    "lng": 34.78057
  },
  {
    "id": 294801,
    "name": "Haifa",
    "lat": 32.81303,
    "lng": 34.99928
  },
  {
    "id": 293703,
    "name": "Rishon LeTsiyyon",
    "lat": 31.97102,
    "lng": 34.78939
  },
  {
    "id": 293918,
    "name": "Petaẖ Tiqva",
    "lat": 32.08707,
    "lng": 34.88747
  },
  {
    "id": 294071,
    "name": "Netanya",
    "lat": 32.33291,
    "lng": 34.85992
  },
  {
    "id": 295629,
    "name": "Ashdod",
    "lat": 31.79213,
    "lng": 34.64966
  },
  {
    "id": 295514,
    "name": "Bnei Brak",
    "lat": 32.08074,
    "lng": 34.8338
  },
  {
    "id": 294751,
    "name": "H̱olon",
    "lat": 32.01034,
    "lng": 34.77918
  },
  {
    "id": 295530,
    "name": "Beersheba",
    "lat": 31.25181,
    "lng": 34.7913
  },
  {
    "id": 293788,
    "name": "Ramat Gan",
    "lat": 32.08227,
    "lng": 34.81065
  },
  {
    "id": 293725,
    "name": "Reẖovot",
    "lat": 31.89421,
    "lng": 34.81199
  },
  {
    "id": 295620,
    "name": "Ashkelon",
    "lat": 31.66926,
    "lng": 34.57149
  },
  {
    "id": 295548,
    "name": "Bat Yam",
    "lat": 32.02379,
    "lng": 34.75185
  },
  {
    "id": 295432,
    "name": "Bet Shemesh",
    "lat": 31.73072,
    "lng": 34.99293
  },
  {
    "id": 294514,
    "name": "Kfar Saba",
    "lat": 32.175,
    "lng": 34.90694
  },
  {
    "id": 294778,
    "name": "Herzliya",
    "lat": 32.16627,
    "lng": 34.82536
  },
  {
    "id": 294946,
    "name": "Hadera",
    "lat": 32.44192,
    "lng": 34.9039
  },
  {
    "id": 282926,
    "name": "Modi‘in Makkabbim Re‘ut",
    "lat": 31.89385,
    "lng": 35.01504
  },
  {
    "id": 294098,
    "name": "Nazareth",
    "lat": 32.70087,
    "lng": 35.29719
  },
  {
    "id": 294421,
    "name": "Lod",
    "lat": 31.9467,
    "lng": 34.8903
  },
  {
    "id": 8199378,
    "name": "Modiin Ilit",
    "lat": 31.93221,
    "lng": 35.04416
  },
  {
    "id": 293768,
    "name": "Ramla",
    "lat": 31.92624,
    "lng": 34.8635
  },
  {
    "id": 293807,
    "name": "Ra'anana",
    "lat": 32.1836,
    "lng": 34.87386
  },
  {
    "id": 293690,
    "name": "Rosh Ha‘Ayin",
    "lat": 32.09556,
    "lng": 34.95664
  },
  {
    "id": 294760,
    "name": "Hod HaSharon",
    "lat": 32.15934,
    "lng": 34.8932
  },
  {
    "id": 293842,
    "name": "Kiryat Gat",
    "lat": 31.60998,
    "lng": 34.76422
  },
  {
    "id": 294999,
    "name": "Givatayim",
    "lat": 32.07225,
    "lng": 34.81253
  },
  {
    "id": 293845,
    "name": "Qiryat Ata",
    "lat": 32.81149,
    "lng": 35.11323
  },
  {
    "id": 294117,
    "name": "Nahariyya",
    "lat": 33.00892,
    "lng": 35.09814
  },
  {
    "id": 293286,
    "name": "Umm el Faḥm",
    "lat": 32.51725,
    "lng": 35.15349
  },
  {
    "id": 295277,
    "name": "Eilat",
    "lat": 29.55805,
    "lng": 34.94821
  },
  {
    "id": 295721,
    "name": "Acre",
    "lat": 32.92814,
    "lng": 35.07647
  },
  {
    "id": 294074,
    "name": "Ness Ziona",
    "lat": 31.92933,
    "lng": 34.79868
  },
  {
    "id": 8428480,
    "name": "El‘ad",
    "lat": 32.04984,
    "lng": 34.95382
  },
  {
    "id": 293222,
    "name": "Yavné",
    "lat": 31.87808,
    "lng": 34.73983
  },
  {
    "id": 293783,
    "name": "Ramat HaSharon",
    "lat": 32.14613,
    "lng": 34.8394
  },
  {
    "id": 294577,
    "name": "Karmi’el",
    "lat": 32.91708,
    "lng": 35.30501
  },
  {
    "id": 295740,
    "name": "Afula",
    "lat": 32.60907,
    "lng": 35.2892
  },
  {
    "id": 293943,
    "name": "Pardés H̱anna Karkur",
    "lat": 32.47408,
    "lng": 34.97781
  },
  {
    "id": 293322,
    "name": "Tiberias",
    "lat": 32.79221,
    "lng": 35.53124
  },
  {
    "id": 295130,
    "name": "Eṭ Ṭaiyiba",
    "lat": 32.26616,
    "lng": 35.00893
  },
  {
    "id": 293844,
    "name": "Qiryat Bialik",
    "lat": 32.8275,
    "lng": 35.08583
  },
  {
    "id": 294068,
    "name": "Netivot",
    "lat": 31.42305,
    "lng": 34.58911
  },
  {
    "id": 294097,
    "name": "Naẕerat ‘Illit",
    "lat": 32.70816,
    "lng": 35.32469
  },
  {
    "id": 293831,
    "name": "Qiryat Motsqin",
    "lat": 32.83706,
    "lng": 35.0776
  },
  {
    "id": 293539,
    "name": "Shefar‘am",
    "lat": 32.80583,
    "lng": 35.16895
  },
  {
    "id": 12031840,
    "name": "Kiryat Ono",
    "lat": 32.06124,
    "lng": 34.85618
  },
  {
    "id": 293822,
    "name": "Qiryat Yam",
    "lat": 32.84966,
    "lng": 35.06973
  },
  {
    "id": 293962,
    "name": "Or Yehuda",
    "lat": 32.02923,
    "lng": 34.85788
  },
  {
    "id": 295328,
    "name": "Dimona",
    "lat": 31.07079,
    "lng": 35.03269
  },
  {
    "id": 293100,
    "name": "Safed",
    "lat": 32.96465,
    "lng": 35.496
  },
  {
    "id": 293992,
    "name": "Ofaqim",
    "lat": 31.3141,
    "lng": 34.62025
  },
  {
    "id": 293655,
    "name": "Sakhnīn",
    "lat": 32.86422,
    "lng": 35.29707
  },
  {
    "id": 295064,
    "name": "Gedera",
    "lat": 31.81456,
    "lng": 34.77998
  },
  {
    "id": 295571,
    "name": "Bāqa el Gharbīya",
    "lat": 32.41806,
    "lng": 35.04312
  },
  {
    "id": 10227184,
    "name": "Yehud-Monosson",
    "lat": 32.0284,
    "lng": 34.8796
  },
  {
    "id": 294981,
    "name": "Giv'at Shmuel",
    "lat": 32.07817,
    "lng": 34.84858
  },
  {
    "id": 295657,
    "name": "Arad",
    "lat": 31.25882,
    "lng": 35.21282
  },
  {
    "id": 293308,
    "name": "Tirat Karmel",
    "lat": 32.76021,
    "lng": 34.97183
  },
  {
    "id": 295525,
    "name": "Be’er Ya‘aqov",
    "lat": 31.93864,
    "lng": 34.83749
  },
  {
    "id": 293619,
    "name": "Sderot",
    "lat": 31.525,
    "lng": 34.59693
  },
  {
    "id": 295127,
    "name": "Eṭ Ṭīra",
    "lat": 32.2341,
    "lng": 34.95023
  },
  {
    "id": 293426,
    "name": "Tamra",
    "lat": 32.85301,
    "lng": 35.1987
  },
  {
    "id": 294210,
    "name": "Migdal Ha‘Emeq",
    "lat": 32.67597,
    "lng": 35.23986
  },
  {
    "id": 293207,
    "name": "Yehud",
    "lat": 32.03317,
    "lng": 34.89091
  },
  {
    "id": 293835,
    "name": "Qiryat Mal’akhi",
    "lat": 31.72888,
    "lng": 34.74632
  },
  {
    "id": 295365,
    "name": "Daliyat al Karmel",
    "lat": 32.69383,
    "lng": 35.04686
  },
  {
    "id": 295655,
    "name": "‘Ar‘ara",
    "lat": 32.49553,
    "lng": 35.09411
  },
  {
    "id": 294492,
    "name": "Kfar Yona",
    "lat": 32.31669,
    "lng": 34.93507
  },
  {
    "id": 294078,
    "name": "Nesher",
    "lat": 32.76622,
    "lng": 35.04425
  },
  {
    "id": 294245,
    "name": "Mevasseret Tsiyyon",
    "lat": 31.80186,
    "lng": 35.15072
  },
  {
    "id": 295080,
    "name": "Gan Yavne",
    "lat": 31.78737,
    "lng": 34.70659
  },
  {
    "id": 294604,
    "name": "Kafr Qāsim",
    "lat": 32.11406,
    "lng": 34.97624
  },
  {
    "id": 293153,
    "name": "Yoqne‘am ‘Illit",
    "lat": 32.65385,
    "lng": 35.10382
  },
  {
    "id": 293067,
    "name": "Zikhron Ya‘aqov",
    "lat": 32.56645,
    "lng": 34.95628
  },
  {
    "id": 294387,
    "name": "Maghār",
    "lat": 32.88984,
    "lng": 35.40703
  },
  {
    "id": 294610,
    "name": "Kafr Kannā",
    "lat": 32.7466,
    "lng": 35.34242
  },
  {
    "id": 293825,
    "name": "Qiryat Shmona",
    "lat": 33.20733,
    "lng": 35.57212
  },
  {
    "id": 11524864,
    "name": "Kadima Zoran",
    "lat": 32.27782,
    "lng": 34.9194
  },
  {
    "id": 293420,
    "name": "maalot Tarshīhā",
    "lat": 33.01667,
    "lng": 35.26667
  },
  {
    "id": 8374209,
    "name": "H̱ura",
    "lat": 31.30084,
    "lng": 34.93606
  },
  {
    "id": 294622,
    "name": "Judeida Makr",
    "lat": 32.9282,
    "lng": 35.15705
  },
  {
    "id": 8374220,
    "name": "Kuseifa",
    "lat": 31.24535,
    "lng": 35.0931
  },
  {
    "id": 8428283,
    "name": "Shoham",
    "lat": 31.99866,
    "lng": 34.94559
  },
  {
    "id": 8199394,
    "name": "Ariel",
    "lat": 32.1065,
    "lng": 35.18449
  },
  {
    "id": 295089,
    "name": "Ganei Tikva",
    "lat": 32.05971,
    "lng": 34.8732
  },
  {
    "id": 8310136,
    "name": "Tel Sheva‘",
    "lat": 31.24864,
    "lng": 34.86007
  },
  {
    "id": 294608,
    "name": "Kafr Mandā",
    "lat": 32.81034,
    "lng": 35.26009
  },
  {
    "id": 8184212,
    "name": "Rahat",
    "lat": 31.39547,
    "lng": 34.75699
  },
  {
    "id": 294605,
    "name": "Kafr Qari‘",
    "lat": 32.50666,
    "lng": 35.05392
  },
  {
    "id": 293969,
    "name": "Or Akiva",
    "lat": 32.5064,
    "lng": 34.92087
  },
  {
    "id": 293254,
    "name": "Yāfā",
    "lat": 32.68923,
    "lng": 35.27832
  },
  {
    "id": 293823,
    "name": "Qiryat Tiv‘on",
    "lat": 32.71618,
    "lng": 35.12494
  },
  {
    "id": 8374203,
    "name": "‘Ar‘ara BaNegev",
    "lat": 31.16046,
    "lng": 35.02274
  },
  {
    "id": 293181,
    "name": "Yirkā",
    "lat": 32.95435,
    "lng": 35.21197
  },
  {
    "id": 293896,
    "name": "Qalansuwa",
    "lat": 32.28493,
    "lng": 34.98106
  },
  {
    "id": 295435,
    "name": "Bet She’an",
    "lat": 32.49728,
    "lng": 35.49632
  },
  {
    "id": 12156557,
    "name": "Binyamina-Giv'at Ada",
    "lat": 32.51824,
    "lng": 34.95398
  },
  {
    "id": 295410,
    "name": "Binyamina",
    "lat": 32.5232,
    "lng": 34.94499
  },
  {
    "id": 295174,
    "name": "Er Reina",
    "lat": 32.72339,
    "lng": 35.31622
  },
  {
    "id": 294373,
    "name": "Majd el Kurūm",
    "lat": 32.92186,
    "lng": 35.25568
  }
]