[
  {
    "id": 1275339,
    "name": "Mumbai",
    "lat": 19.07283,
    "lng": 72.88261
  },
  {
    "id": 1273294,
    "name": "Delhi",
    "lat": 28.65195,
    "lng": 77.23149
  },
  {
    "id": 1277333,
    "name": "Bengaluru",
    "lat": 12.97194,
    "lng": 77.59369
  },
  {
    "id": 1269843,
    "name": "Hyderabad",
    "lat": 17.38405,
    "lng": 78.45636
  },
  {
    "id": 1279233,
    "name": "Ahmedabad",
    "lat": 23.02579,
    "lng": 72.58727
  },
  {
    "id": 1264527,
    "name": "Chennai",
    "lat": 13.08784,
    "lng": 80.27847
  },
  {
    "id": 1275004,
    "name": "Kolkata",
    "lat": 22.56263,
    "lng": 88.36304
  },
  {
    "id": 1255364,
    "name": "Surat",
    "lat": 21.19594,
    "lng": 72.83023
  },
  {
    "id": 1259229,
    "name": "Pune",
    "lat": 18.51957,
    "lng": 73.85535
  },
  {
    "id": 1269515,
    "name": "Jaipur",
    "lat": 26.91962,
    "lng": 75.78781
  },
  {
    "id": 1267995,
    "name": "Kanpur",
    "lat": 26.46523,
    "lng": 80.34975
  },
  {
    "id": 1264733,
    "name": "Lucknow",
    "lat": 26.83928,
    "lng": 80.92313
  },
  {
    "id": 1262180,
    "name": "Nagpur",
    "lat": 21.14631,
    "lng": 79.08491
  },
  {
    "id": 1273865,
    "name": "Coimbatore",
    "lat": 11.00555,
    "lng": 76.96612
  },
  {
    "id": 1269743,
    "name": "Indore",
    "lat": 22.71792,
    "lng": 75.8333
  },
  {
    "id": 1254661,
    "name": "Thāne",
    "lat": 19.19704,
    "lng": 72.96355
  },
  {
    "id": 1253573,
    "name": "Vadodara",
    "lat": 22.29941,
    "lng": 73.20812
  },
  {
    "id": 1275841,
    "name": "Bhopal",
    "lat": 23.25469,
    "lng": 77.40289
  },
  {
    "id": 1258393,
    "name": "Rasapūdipalem",
    "lat": 17.73308,
    "lng": 83.31622
  },
  {
    "id": 7626690,
    "name": "Pimpri-Chinchwad",
    "lat": 18.61867,
    "lng": 73.80375
  },
  {
    "id": 1260086,
    "name": "Patna",
    "lat": 25.59408,
    "lng": 85.13563
  },
  {
    "id": 12165956,
    "name": "Kallakurichi",
    "lat": 11.73379,
    "lng": 78.95925
  },
  {
    "id": 1264728,
    "name": "Ludhiana",
    "lat": 30.91204,
    "lng": 75.85379
  },
  {
    "id": 1261731,
    "name": "Nashik",
    "lat": 19.99727,
    "lng": 73.79096
  },
  {
    "id": 1264521,
    "name": "Madurai",
    "lat": 9.919,
    "lng": 78.11953
  },
  {
    "id": 1254361,
    "name": "Tirunelveli",
    "lat": 8.72742,
    "lng": 77.6838
  },
  {
    "id": 1279259,
    "name": "Agra",
    "lat": 27.18333,
    "lng": 78.01667
  },
  {
    "id": 1271951,
    "name": "Faridabad",
    "lat": 28.41124,
    "lng": 77.31316
  },
  {
    "id": 1258847,
    "name": "Rājkot",
    "lat": 22.29161,
    "lng": 70.79322
  },
  {
    "id": 1262111,
    "name": "Najafgarh",
    "lat": 28.60922,
    "lng": 76.97982
  },
  {
    "id": 1269300,
    "name": "Jamshedpur",
    "lat": 22.80278,
    "lng": 86.18545
  },
  {
    "id": 1270926,
    "name": "Gorakhpur",
    "lat": 29.44768,
    "lng": 75.67206
  },
  {
    "id": 1259652,
    "name": "Pimpri",
    "lat": 18.62292,
    "lng": 73.80696
  },
  {
    "id": 1268295,
    "name": "Kalyān",
    "lat": 19.2437,
    "lng": 73.13554
  },
  {
    "id": 1272423,
    "name": "Dombivali",
    "lat": 19.21667,
    "lng": 73.08333
  },
  {
    "id": 1263214,
    "name": "Meerut",
    "lat": 28.98002,
    "lng": 77.70636
  },
  {
    "id": 1253133,
    "name": "Virār",
    "lat": 19.45591,
    "lng": 72.81136
  },
  {
    "id": 1261162,
    "name": "Nowrangapur",
    "lat": 19.23114,
    "lng": 82.54826
  },
  {
    "id": 1255634,
    "name": "Srinagar",
    "lat": 34.08565,
    "lng": 74.80555
  },
  {
    "id": 1271308,
    "name": "Ghāziābād",
    "lat": 28.66535,
    "lng": 77.43915
  },
  {
    "id": 1272979,
    "name": "Dhanbad",
    "lat": 23.79759,
    "lng": 86.42992
  },
  {
    "id": 1278149,
    "name": "Aurangabad",
    "lat": 19.87757,
    "lng": 75.34226
  },
  {
    "id": 1253405,
    "name": "Varanasi",
    "lat": 25.31668,
    "lng": 83.01041
  },
  {
    "id": 1278710,
    "name": "Amritsar",
    "lat": 31.62234,
    "lng": 74.87534
  },
  {
    "id": 1253184,
    "name": "Vijayawada",
    "lat": 16.50745,
    "lng": 80.6466
  },
  {
    "id": 1258526,
    "name": "Ranchi",
    "lat": 23.34316,
    "lng": 85.3094
  },
  {
    "id": 1269633,
    "name": "Jabalpur",
    "lat": 23.16697,
    "lng": 79.95006
  },
  {
    "id": 1278994,
    "name": "Prayagraj",
    "lat": 25.44478,
    "lng": 81.84322
  },
  {
    "id": 1253102,
    "name": "Visakhapatnam",
    "lat": 17.68009,
    "lng": 83.20161
  },
  {
    "id": 1268865,
    "name": "Jodhpur",
    "lat": 26.26841,
    "lng": 73.00594
  },
  {
    "id": 1270583,
    "name": "Gwalior",
    "lat": 26.22983,
    "lng": 78.17337
  },
  {
    "id": 1270396,
    "name": "Howrah",
    "lat": 22.57688,
    "lng": 88.31857
  },
  {
    "id": 1258980,
    "name": "Raipur",
    "lat": 21.23333,
    "lng": 81.63333
  },
  {
    "id": 1254388,
    "name": "Tiruchirappalli",
    "lat": 10.8155,
    "lng": 78.69651
  },
  {
    "id": 1266049,
    "name": "Kota",
    "lat": 25.18254,
    "lng": 75.83907
  },
  {
    "id": 1256436,
    "name": "Sholapur",
    "lat": 17.67152,
    "lng": 75.91044
  },
  {
    "id": 1274746,
    "name": "Chandigarh",
    "lat": 30.73629,
    "lng": 76.7884
  },
  {
    "id": 1254348,
    "name": "Tiruppur",
    "lat": 11.11541,
    "lng": 77.35456
  },
  {
    "id": 1271476,
    "name": "Guwahati",
    "lat": 26.1844,
    "lng": 91.7458
  },
  {
    "id": 1269920,
    "name": "Hubballi",
    "lat": 15.34776,
    "lng": 75.13378
  },
  {
    "id": 1262321,
    "name": "Mysuru",
    "lat": 12.29791,
    "lng": 76.63925
  },
  {
    "id": 1257629,
    "name": "Salem",
    "lat": 11.65376,
    "lng": 78.15538
  },
  {
    "id": 1270642,
    "name": "Gurugram",
    "lat": 28.4601,
    "lng": 77.02635
  },
  {
    "id": 1275817,
    "name": "Bhubaneswar",
    "lat": 20.27241,
    "lng": 85.83385
  },
  {
    "id": 1275901,
    "name": "Bhiwandi",
    "lat": 19.30023,
    "lng": 73.05881
  },
  {
    "id": 1268782,
    "name": "Jalandhar",
    "lat": 31.32556,
    "lng": 75.57917
  },
  {
    "id": 12501153,
    "name": "Kanayannur",
    "lat": 9.96667,
    "lng": 76.26667
  },
  {
    "id": 1276014,
    "name": "Bhayandar",
    "lat": 19.30157,
    "lng": 72.85107
  },
  {
    "id": 1261809,
    "name": "Narela",
    "lat": 28.85267,
    "lng": 77.09288
  },
  {
    "id": 1254163,
    "name": "Thiruvananthapuram",
    "lat": 8.4855,
    "lng": 76.94924
  },
  {
    "id": 1279017,
    "name": "Alīgarh",
    "lat": 27.88145,
    "lng": 78.07464
  },
  {
    "id": 1277013,
    "name": "Bareilly",
    "lat": 28.36678,
    "lng": 79.43167
  },
  {
    "id": 1262801,
    "name": "Morādābād",
    "lat": 28.83893,
    "lng": 78.77684
  },
  {
    "id": 1252948,
    "name": "Warangal",
    "lat": 18.0,
    "lng": 79.58333
  },
  {
    "id": 1270927,
    "name": "Gorakhpur",
    "lat": 26.76628,
    "lng": 83.36889
  },
  {
    "id": 1270668,
    "name": "Guntur",
    "lat": 16.29974,
    "lng": 80.45729
  },
  {
    "id": 1259425,
    "name": "Puducherry",
    "lat": 11.93381,
    "lng": 79.82979
  },
  {
    "id": 1278718,
    "name": "Amravati",
    "lat": 20.93333,
    "lng": 77.75
  },
  {
    "id": 1275665,
    "name": "Bikaner",
    "lat": 28.01762,
    "lng": 73.31495
  },
  {
    "id": 1273874,
    "name": "Kochi",
    "lat": 9.93988,
    "lng": 76.26022
  },
  {
    "id": 1275971,
    "name": "Bhilai",
    "lat": 21.20919,
    "lng": 81.4285
  },
  {
    "id": 1273780,
    "name": "Cuttack",
    "lat": 20.46497,
    "lng": 85.87927
  },
  {
    "id": 1275248,
    "name": "Borivli",
    "lat": 19.23496,
    "lng": 72.85976
  },
  {
    "id": 1276032,
    "name": "Bhavnagar",
    "lat": 21.76287,
    "lng": 72.15331
  },
  {
    "id": 1257416,
    "name": "Sāngli",
    "lat": 16.85438,
    "lng": 74.56417
  },
  {
    "id": 1269317,
    "name": "Jamnagar",
    "lat": 22.47292,
    "lng": 70.06673
  },
  {
    "id": 1269321,
    "name": "Jammu",
    "lat": 32.73528,
    "lng": 74.86167
  },
  {
    "id": 1275362,
    "name": "Bokāro",
    "lat": 23.66934,
    "lng": 86.15161
  },
  {
    "id": 1261977,
    "name": "Nanded",
    "lat": 19.16023,
    "lng": 77.31497
  },
  {
    "id": 1265873,
    "name": "Kozhikode",
    "lat": 11.24802,
    "lng": 75.7804
  },
  {
    "id": 1266285,
    "name": "Kolhāpur",
    "lat": 16.69563,
    "lng": 74.23167
  },
  {
    "id": 1261529,
    "name": "Nellore",
    "lat": 14.44992,
    "lng": 79.98697
  },
  {
    "id": 1270752,
    "name": "Kalaburagi",
    "lat": 17.33583,
    "lng": 76.83757
  },
  {
    "id": 1279159,
    "name": "Ajmer",
    "lat": 26.4521,
    "lng": 74.63867
  },
  {
    "id": 1273313,
    "name": "Dehra Dūn",
    "lat": 30.32443,
    "lng": 78.03392
  },
  {
    "id": 1272013,
    "name": "Erode",
    "lat": 11.3428,
    "lng": 77.72741
  },
  {
    "id": 1272175,
    "name": "Durgapur",
    "lat": 23.51583,
    "lng": 87.30801
  },
  {
    "id": 1253894,
    "name": "Ulhasnagar",
    "lat": 19.21667,
    "lng": 73.15
  },
  {
    "id": 1264773,
    "name": "Loni",
    "lat": 28.75143,
    "lng": 77.29023
  },
  {
    "id": 1256525,
    "name": "Siliguri",
    "lat": 26.71004,
    "lng": 88.42851
  },
  {
    "id": 1253914,
    "name": "Ujjain",
    "lat": 23.18239,
    "lng": 75.77643
  },
  {
    "id": 1275610,
    "name": "Bilimora",
    "lat": 20.76957,
    "lng": 72.96134
  },
  {
    "id": 1278314,
    "name": "Āsansol",
    "lat": 23.68333,
    "lng": 86.98333
  },
  {
    "id": 1263780,
    "name": "Mangaluru",
    "lat": 12.91723,
    "lng": 74.85603
  },
  {
    "id": 1276533,
    "name": "Belagavi",
    "lat": 15.85212,
    "lng": 74.50447
  },
  {
    "id": 1257806,
    "name": "Sahāranpur",
    "lat": 29.9679,
    "lng": 77.54522
  },
  {
    "id": 1253286,
    "name": "Vellore",
    "lat": 12.9184,
    "lng": 79.13255
  },
  {
    "id": 1276058,
    "name": "Bhātpāra",
    "lat": 22.86643,
    "lng": 88.40113
  },
  {
    "id": 1264115,
    "name": "Malegaon",
    "lat": 20.54966,
    "lng": 74.53462
  },
  {
    "id": 1271439,
    "name": "Gaya",
    "lat": 24.79686,
    "lng": 85.00385
  },
  {
    "id": 1278840,
    "name": "Ambattur",
    "lat": 13.09818,
    "lng": 80.16152
  },
  {
    "id": 1269407,
    "name": "Jalgaon",
    "lat": 21.00292,
    "lng": 75.56602
  },
  {
    "id": 1265491,
    "name": "Kurnool",
    "lat": 15.82887,
    "lng": 78.03602
  },
  {
    "id": 1258662,
    "name": "Rāmgundam",
    "lat": 18.80084,
    "lng": 79.45206
  },
  {
    "id": 1253986,
    "name": "Udaipur",
    "lat": 24.58584,
    "lng": 73.71346
  },
  {
    "id": 1348843,
    "name": "Maheshtala",
    "lat": 22.50862,
    "lng": 88.25322
  },
  {
    "id": 1260107,
    "name": "Patiāla",
    "lat": 30.33625,
    "lng": 76.3922
  },
  {
    "id": 1256409,
    "name": "Shyamnagar",
    "lat": 22.83333,
    "lng": 88.36667
  },
  {
    "id": 1273368,
    "name": "Davangere",
    "lat": 14.46693,
    "lng": 75.92694
  },
  {
    "id": 1279105,
    "name": "Akola",
    "lat": 20.70957,
    "lng": 76.9981
  },
  {
    "id": 1255783,
    "name": "Rajpur Sonarpur",
    "lat": 22.4382,
    "lng": 88.43205
  },
  {
    "id": 1266122,
    "name": "Korba",
    "lat": 22.3458,
    "lng": 82.69633
  },
  {
    "id": 1269006,
    "name": "Jhānsi",
    "lat": 25.45887,
    "lng": 78.57994
  },
  {
    "id": 8629640,
    "name": "Thoothukudi",
    "lat": 8.76735,
    "lng": 78.13425
  },
  {
    "id": 1276509,
    "name": "Ballari",
    "lat": 15.14205,
    "lng": 76.92398
  },
  {
    "id": 1276300,
    "name": "Bhāgalpur",
    "lat": 25.24446,
    "lng": 86.97183
  },
  {
    "id": 1279290,
    "name": "Agartala",
    "lat": 23.83605,
    "lng": 91.27939
  },
  {
    "id": 1268561,
    "name": "Kākināda",
    "lat": 16.96036,
    "lng": 82.23809
  },
  {
    "id": 1265014,
    "name": "Latur",
    "lat": 18.39721,
    "lng": 76.56784
  },
  {
    "id": 1260482,
    "name": "Pānihāti",
    "lat": 22.69089,
    "lng": 88.37404
  },
  {
    "id": 1258932,
    "name": "Rajamahendravaram",
    "lat": 17.00517,
    "lng": 81.77784
  },
  {
    "id": 1272691,
    "name": "Dhule",
    "lat": 20.9013,
    "lng": 74.77737
  },
  {
    "id": 1258076,
    "name": "Rohtak",
    "lat": 28.89447,
    "lng": 76.58917
  },
  {
    "id": 1279228,
    "name": "Ahilyanagar",
    "lat": 19.09457,
    "lng": 74.73843
  },
  {
    "id": 1259091,
    "name": "Kollam",
    "lat": 8.88113,
    "lng": 76.58469
  },
  {
    "id": 1275637,
    "name": "Bilāspur",
    "lat": 22.08005,
    "lng": 82.15543
  },
  {
    "id": 1275960,
    "name": "Bhilwara",
    "lat": 25.34707,
    "lng": 74.64081
  },
  {
    "id": 1275198,
    "name": "Brahmapur",
    "lat": 19.31151,
    "lng": 84.7929
  },
  {
    "id": 1262330,
    "name": "Muzaffarpur",
    "lat": 26.12259,
    "lng": 85.39055
  },
  {
    "id": 1259239,
    "name": "Punāsa",
    "lat": 22.23507,
    "lng": 76.39335
  },
  {
    "id": 1262332,
    "name": "Muzaffarnagar",
    "lat": 29.47091,
    "lng": 77.70332
  },
  {
    "id": 1278130,
    "name": "Avadi",
    "lat": 13.1147,
    "lng": 80.10981
  },
  {
    "id": 1273800,
    "name": "Kadapa",
    "lat": 14.47995,
    "lng": 78.82346
  },
  {
    "id": 1265767,
    "name": "Kukatpally",
    "lat": 17.48486,
    "lng": 78.41376
  },
  {
    "id": 1268257,
    "name": "Kāmārhāti",
    "lat": 22.67111,
    "lng": 88.37472
  },
  {
    "id": 1263364,
    "name": "Mathura",
    "lat": 27.5035,
    "lng": 77.67215
  },
  {
    "id": 1274693,
    "name": "Chānda",
    "lat": 19.95076,
    "lng": 79.29523
  },
  {
    "id": 1275701,
    "name": "Vijayapura",
    "lat": 16.82442,
    "lng": 75.71537
  },
  {
    "id": 1256515,
    "name": "Shivamogga",
    "lat": 13.93157,
    "lng": 75.56791
  },
  {
    "id": 1278946,
    "name": "Alwar",
    "lat": 27.56246,
    "lng": 76.625
  },
  {
    "id": 1256728,
    "name": "Shāhjānpur",
    "lat": 27.88165,
    "lng": 79.90918
  },
  {
    "id": 1268773,
    "name": "Jūnāgadh",
    "lat": 21.51966,
    "lng": 70.45981
  },
  {
    "id": 1261481,
    "name": "New Delhi",
    "lat": 28.62137,
    "lng": 77.2148
  },
  {
    "id": 1254187,
    "name": "Thrissur",
    "lat": 10.51667,
    "lng": 76.21667
  },
  {
    "id": 1261258,
    "name": "Nizāmābād",
    "lat": 18.67154,
    "lng": 78.0988
  },
  {
    "id": 1254089,
    "name": "Tumkūr",
    "lat": 13.34136,
    "lng": 77.1022
  },
  {
    "id": 1260341,
    "name": "Parbhani",
    "lat": 19.26855,
    "lng": 76.77081
  },
  {
    "id": 1270022,
    "name": "Hisar",
    "lat": 29.15394,
    "lng": 75.72294
  },
  {
    "id": 1271885,
    "name": "Fīrozābād",
    "lat": 27.15092,
    "lng": 78.39781
  },
  {
    "id": 1265711,
    "name": "Kulti",
    "lat": 23.73166,
    "lng": 86.84372
  },
  {
    "id": 1267708,
    "name": "Karnāl",
    "lat": 29.69197,
    "lng": 76.98448
  },
  {
    "id": 1277029,
    "name": "Barddhamān",
    "lat": 23.25572,
    "lng": 87.85691
  },
  {
    "id": 11679708,
    "name": "Gundupālaiyam",
    "lat": 11.94096,
    "lng": 79.80294
  },
  {
    "id": 1277065,
    "name": "Bārāsat",
    "lat": 22.72154,
    "lng": 88.48198
  },
  {
    "id": 12165955,
    "name": "Mulugu",
    "lat": 18.191,
    "lng": 79.943
  },
  {
    "id": 1275716,
    "name": "Bihār Sharīf",
    "lat": 25.20084,
    "lng": 85.52389
  },
  {
    "id": 1277539,
    "name": "Bāli",
    "lat": 22.64859,
    "lng": 88.34115
  },
  {
    "id": 1258599,
    "name": "Rāmpur",
    "lat": 28.81014,
    "lng": 79.02699
  },
  {
    "id": 1273491,
    "name": "Darbhanga",
    "lat": 26.15216,
    "lng": 85.89707
  },
  {
    "id": 1260476,
    "name": "Panipat",
    "lat": 29.38747,
    "lng": 76.96825
  },
  {
    "id": 1254360,
    "name": "Tirupati",
    "lat": 13.63551,
    "lng": 79.41989
  },
  {
    "id": 7279746,
    "name": "Noida",
    "lat": 28.58,
    "lng": 77.33
  },
  {
    "id": 6954929,
    "name": "Greater Noida",
    "lat": 28.49615,
    "lng": 77.53601
  },
  {
    "id": 1279186,
    "name": "Aizawl",
    "lat": 23.72894,
    "lng": 92.71791
  },
  {
    "id": 1271715,
    "name": "Gandhinagar",
    "lat": 23.21667,
    "lng": 72.68333
  },
  {
    "id": 1272543,
    "name": "Dindigul",
    "lat": 10.36896,
    "lng": 77.98036
  },
  {
    "id": 1254649,
    "name": "Thanjavur",
    "lat": 10.78523,
    "lng": 79.13909
  },
  {
    "id": 1267755,
    "name": "Karīmnagar",
    "lat": 18.43915,
    "lng": 79.12856
  },
  {
    "id": 1273066,
    "name": "Dewas",
    "lat": 22.96585,
    "lng": 76.05526
  },
  {
    "id": 1255744,
    "name": "Sonīpat",
    "lat": 28.99478,
    "lng": 77.01937
  },
  {
    "id": 1269834,
    "name": "Ichalkaranji",
    "lat": 16.69117,
    "lng": 74.46054
  },
  {
    "id": 1276070,
    "name": "Bathinda",
    "lat": 30.20747,
    "lng": 74.93893
  },
  {
    "id": 1269395,
    "name": "Jālna",
    "lat": 19.84102,
    "lng": 75.88636
  },
  {
    "id": 10263153,
    "name": "Kirāri Sulemānnagar",
    "lat": 28.69736,
    "lng": 77.0648
  },
  {
    "id": 1257022,
    "name": "Satna",
    "lat": 24.57726,
    "lng": 80.82719
  },
  {
    "id": 1259166,
    "name": "Purnia",
    "lat": 25.77895,
    "lng": 87.47422
  },
  {
    "id": 1269771,
    "name": "Imphal",
    "lat": 24.80805,
    "lng": 93.9442
  },
  {
    "id": 1257845,
    "name": "Saugor",
    "lat": 23.83877,
    "lng": 78.73874
  },
  {
    "id": 12032137,
    "name": "Kushinagar",
    "lat": 26.74134,
    "lng": 83.88689
  },
  {
    "id": 1258315,
    "name": "Rourkela",
    "lat": 22.22496,
    "lng": 84.86414
  },
  {
    "id": 1272181,
    "name": "Durg",
    "lat": 21.19147,
    "lng": 81.27619
  },
  {
    "id": 1278672,
    "name": "Anantapur",
    "lat": 14.67784,
    "lng": 77.60813
  },
  {
    "id": 1258342,
    "name": "Ratlām",
    "lat": 23.33033,
    "lng": 75.04032
  },
  {
    "id": 1258451,
    "name": "Rānipet",
    "lat": 12.92471,
    "lng": 79.33331
  },
  {
    "id": 7302826,
    "name": "Lal Bahadur Nagar",
    "lat": 17.34769,
    "lng": 78.55757
  },
  {
    "id": 1278483,
    "name": "Arrah",
    "lat": 25.55629,
    "lng": 84.66335
  },
  {
    "id": 7302833,
    "name": "Gajuwaka",
    "lat": 17.7,
    "lng": 83.21667
  },
  {
    "id": 1271987,
    "name": "Etāwah",
    "lat": 26.77615,
    "lng": 79.02133
  },
  {
    "id": 1278903,
    "name": "Ambarnath",
    "lat": 19.2,
    "lng": 73.16667
  },
  {
    "id": 1262131,
    "name": "Naihāti",
    "lat": 22.89396,
    "lng": 88.41521
  },
  {
    "id": 1276128,
    "name": "Bharatpur",
    "lat": 27.21731,
    "lng": 77.49009
  },
  {
    "id": 1276609,
    "name": "Begusarai",
    "lat": 25.41853,
    "lng": 86.13389
  },
  {
    "id": 1254320,
    "name": "Tiruvottiyūr",
    "lat": 13.15823,
    "lng": 80.30181
  },
  {
    "id": 1271717,
    "name": "Gāndhīdhām",
    "lat": 23.08333,
    "lng": 70.13333
  },
  {
    "id": 1263311,
    "name": "Mau",
    "lat": 25.94167,
    "lng": 83.56111
  },
  {
    "id": 1256320,
    "name": "Sīkar",
    "lat": 27.61206,
    "lng": 75.13996
  },
  {
    "id": 8347656,
    "name": "Ramagundam",
    "lat": 18.755,
    "lng": 79.474
  },
  {
    "id": 1270393,
    "name": "Hāpur",
    "lat": 28.72985,
    "lng": 77.78068
  },
  {
    "id": 1271942,
    "name": "Farrukhābād",
    "lat": 27.39134,
    "lng": 79.5793
  },
  {
    "id": 1278985,
    "name": "Alappuzha",
    "lat": 9.49004,
    "lng": 76.3264
  },
  {
    "id": 1267480,
    "name": "Katihar",
    "lat": 25.53852,
    "lng": 87.57044
  },
  {
    "id": 1271685,
    "name": "Sri Ganganagar",
    "lat": 29.92009,
    "lng": 73.87496
  },
  {
    "id": 1258182,
    "name": "Rewa",
    "lat": 24.53256,
    "lng": 81.29234
  },
  {
    "id": 1253880,
    "name": "Uluberiya",
    "lat": 22.4756,
    "lng": 88.09898
  },
  {
    "id": 1255947,
    "name": "Sivakasi",
    "lat": 9.44999,
    "lng": 77.79797
  },
  {
    "id": 1267648,
    "name": "Karur",
    "lat": 10.95771,
    "lng": 78.08095
  },
  {
    "id": 1259012,
    "name": "Rāichūr",
    "lat": 16.20546,
    "lng": 77.35567
  },
  {
    "id": 1260692,
    "name": "Pallāvaram",
    "lat": 12.96796,
    "lng": 80.15025
  },
  {
    "id": 1253993,
    "name": "Ooty",
    "lat": 11.4134,
    "lng": 76.69521
  },
  {
    "id": 1260716,
    "name": "Pāli",
    "lat": 25.77276,
    "lng": 73.32335
  },
  {
    "id": 1269934,
    "name": "Hosūr",
    "lat": 12.73647,
    "lng": 77.83264
  },
  {
    "id": 1253084,
    "name": "Vizianagaram",
    "lat": 18.11692,
    "lng": 83.41148
  },
  {
    "id": 1256422,
    "name": "Shrīrāmpur",
    "lat": 22.75278,
    "lng": 88.34222
  },
  {
    "id": 7302845,
    "name": "Quthbullapur",
    "lat": 17.50107,
    "lng": 78.45818
  },
  {
    "id": 1262292,
    "name": "Nadiād",
    "lat": 22.69385,
    "lng": 72.86157
  },
  {
    "id": 1262204,
    "name": "Nāgercoil",
    "lat": 8.17899,
    "lng": 77.43227
  },
  {
    "id": 13353441,
    "name": "Mango",
    "lat": 22.8275,
    "lng": 86.21639
  },
  {
    "id": 1270896,
    "name": "Gosāba",
    "lat": 22.16547,
    "lng": 88.8007
  },
  {
    "id": 1262395,
    "name": "Murwāra",
    "lat": 23.83776,
    "lng": 80.39405
  },
  {
    "id": 1268159,
    "name": "Kanchipuram",
    "lat": 12.83515,
    "lng": 79.70006
  },
  {
    "id": 7279754,
    "name": "Singrauli",
    "lat": 24.19973,
    "lng": 82.67535
  },
  {
    "id": 1262995,
    "name": "Mirzāpur",
    "lat": 25.1449,
    "lng": 82.56534
  },
  {
    "id": 1266976,
    "name": "Kharagpur",
    "lat": 22.33971,
    "lng": 87.32501
  },
  {
    "id": 1272051,
    "name": "Eluru",
    "lat": 16.71311,
    "lng": 81.10437
  },
  {
    "id": 1252797,
    "name": "Yamuna Nagar",
    "lat": 30.12796,
    "lng": 77.28371
  },
  {
    "id": 13308246,
    "name": "Raurkela Industrial Township",
    "lat": 22.19994,
    "lng": 84.86176
  },
  {
    "id": 1275738,
    "name": "Bidar",
    "lat": 17.90802,
    "lng": 77.51524
  },
  {
    "id": 1262482,
    "name": "Munger",
    "lat": 25.37459,
    "lng": 86.47455
  },
  {
    "id": 1261927,
    "name": "Nandyāl",
    "lat": 15.47799,
    "lng": 78.4836
  },
  {
    "id": 6690108,
    "name": "Panchkula",
    "lat": 30.69461,
    "lng": 76.8504
  },
  {
    "id": 1275068,
    "name": "Burhānpur",
    "lat": 21.30868,
    "lng": 76.23026
  },
  {
    "id": 1262775,
    "name": "Morvi",
    "lat": 22.81731,
    "lng": 70.8377
  },
  {
    "id": 1278685,
    "name": "Anand",
    "lat": 22.55251,
    "lng": 72.9552
  },
  {
    "id": 1261045,
    "name": "Ongole",
    "lat": 15.50357,
    "lng": 80.04454
  },
  {
    "id": 1269935,
    "name": "Hosapete",
    "lat": 15.26954,
    "lng": 76.3871
  },
  {
    "id": 1261913,
    "name": "Nāngloi Jāt",
    "lat": 28.67957,
    "lng": 77.06799
  },
  {
    "id": 1256922,
    "name": "Secunderabad",
    "lat": 17.50427,
    "lng": 78.54263
  },
  {
    "id": 1273241,
    "name": "Deoghar",
    "lat": 24.48983,
    "lng": 86.69902
  },
  {
    "id": 1274353,
    "name": "Chāpra",
    "lat": 25.78031,
    "lng": 84.74709
  },
  {
    "id": 1267031,
    "name": "Khandwa",
    "lat": 21.82427,
    "lng": 76.35086
  },
  {
    "id": 1259184,
    "name": "Puri",
    "lat": 19.79825,
    "lng": 85.82494
  },
  {
    "id": 1262771,
    "name": "Morena",
    "lat": 26.49892,
    "lng": 77.99534
  },
  {
    "id": 1270576,
    "name": "Gyānpur",
    "lat": 25.33268,
    "lng": 82.46637
  },
  {
    "id": 1275120,
    "name": "Bulandshahr",
    "lat": 28.40392,
    "lng": 77.85773
  },
  {
    "id": 1275926,
    "name": "Bhind",
    "lat": 26.56671,
    "lng": 78.78728
  },
  {
    "id": 10263167,
    "name": "Bhālswa Jahangirpur",
    "lat": 28.73558,
    "lng": 77.16682
  },
  {
    "id": 1267076,
    "name": "Khammam",
    "lat": 17.24767,
    "lng": 80.14368
  },
  {
    "id": 1257540,
    "name": "Sambhal",
    "lat": 28.58498,
    "lng": 78.56959
  },
  {
    "id": 1275899,
    "name": "Bhiwāni",
    "lat": 28.79304,
    "lng": 76.13968
  },
  {
    "id": 1260434,
    "name": "Panvel",
    "lat": 18.98878,
    "lng": 73.11013
  },
  {
    "id": 1278860,
    "name": "Ambāla",
    "lat": 30.36099,
    "lng": 76.79782
  },
  {
    "id": 8223943,
    "name": "Kumarapalayam",
    "lat": 11.44495,
    "lng": 77.71102
  },
  {
    "id": 1264637,
    "name": "Machilīpatnam",
    "lat": 16.18747,
    "lng": 81.13888
  },
  {
    "id": 1264389,
    "name": "Mahesāna",
    "lat": 23.59864,
    "lng": 72.38472
  },
  {
    "id": 1264407,
    "name": "Mahbūbnagar",
    "lat": 16.74385,
    "lng": 77.98597
  },
  {
    "id": 1257542,
    "name": "Sambalpur",
    "lat": 21.46527,
    "lng": 83.97573
  },
  {
    "id": 1275778,
    "name": "Bhusawal",
    "lat": 21.04365,
    "lng": 75.78506
  },
  {
    "id": 1259064,
    "name": "Raebareli",
    "lat": 26.2309,
    "lng": 81.23315
  },
  {
    "id": 1270351,
    "name": "Haridwar",
    "lat": 29.94791,
    "lng": 78.16025
  },
  {
    "id": 11127930,
    "name": "Phusro",
    "lat": 23.75644,
    "lng": 86.0051
  },
  {
    "id": 1279335,
    "name": "Adoni",
    "lat": 15.62788,
    "lng": 77.27495
  },
  {
    "id": 1255560,
    "name": "Sūjāngarh",
    "lat": 27.7,
    "lng": 74.46667
  },
  {
    "id": 1256052,
    "name": "Sirsa",
    "lat": 29.53489,
    "lng": 75.02898
  },
  {
    "id": 13156932,
    "name": "Dinapur Nizamat",
    "lat": 25.63847,
    "lng": 85.05118
  },
  {
    "id": 1277799,
    "name": "Bahraigh",
    "lat": 27.57429,
    "lng": 81.59474
  },
  {
    "id": 1267885,
    "name": "Kāraikkudi",
    "lat": 10.06615,
    "lng": 78.76784
  },
  {
    "id": 13157013,
    "name": "Sultan Pur Majra",
    "lat": 28.68966,
    "lng": 77.07648
  },
  {
    "id": 1270711,
    "name": "Guna",
    "lat": 24.64691,
    "lng": 77.3113
  },
  {
    "id": 1274784,
    "name": "Chandannagar",
    "lat": 22.86225,
    "lng": 88.36796
  },
  {
    "id": 1277820,
    "name": "Baharampur",
    "lat": 24.10473,
    "lng": 88.25155
  },
  {
    "id": 12501195,
    "name": "Shahuwadi",
    "lat": 16.90993,
    "lng": 73.94654
  },
  {
    "id": 1264621,
    "name": "Madanapalle",
    "lat": 13.5503,
    "lng": 78.50288
  },
  {
    "id": 1256451,
    "name": "Shivpuri",
    "lat": 25.42378,
    "lng": 77.66223
  },
  {
    "id": 1255349,
    "name": "Surendranagar",
    "lat": 22.72706,
    "lng": 71.64856
  },
  {
    "id": 1261473,
    "name": "Neyveli",
    "lat": 11.60877,
    "lng": 79.4994
  },
  {
    "id": 1256287,
    "name": "Silchar",
    "lat": 24.82733,
    "lng": 92.79787
  },
  {
    "id": 1259312,
    "name": "Proddatūr",
    "lat": 14.7502,
    "lng": 78.54813
  },
  {
    "id": 1269910,
    "name": "Hugli",
    "lat": 22.90877,
    "lng": 88.39674
  },
  {
    "id": 10263066,
    "name": "Hashtsāl",
    "lat": 28.63406,
    "lng": 77.05771
  },
  {
    "id": 1278708,
    "name": "Amroha",
    "lat": 28.90314,
    "lng": 78.46984
  },
  {
    "id": 1274304,
    "name": "Chhindwāra",
    "lat": 22.05697,
    "lng": 78.93958
  },
  {
    "id": 1255062,
    "name": "Tambaram",
    "lat": 12.9246,
    "lng": 80.12707
  },
  {
    "id": 1275984,
    "name": "Bhetia",
    "lat": 22.79321,
    "lng": 86.14098
  },
  {
    "id": 1260137,
    "name": "Pathānkot",
    "lat": 32.27484,
    "lng": 75.65287
  },
  {
    "id": 1277976,
    "name": "Badlapur",
    "lat": 19.15516,
    "lng": 73.26553
  },
  {
    "id": 1273802,
    "name": "Cuddalore",
    "lat": 11.75617,
    "lng": 79.76693
  },
  {
    "id": 1256237,
    "name": "Shimla",
    "lat": 31.10442,
    "lng": 77.16662
  },
  {
    "id": 8740017,
    "name": "Gadag-Betageri",
    "lat": 15.4167,
    "lng": 75.6167
  },
  {
    "id": 1271850,
    "name": "Gadag",
    "lat": 15.42977,
    "lng": 75.62971
  },
  {
    "id": 1253237,
    "name": "Verāval",
    "lat": 20.9077,
    "lng": 70.36786
  },
  {
    "id": 1261653,
    "name": "Navsari",
    "lat": 20.94237,
    "lng": 72.92467
  },
  {
    "id": 1277835,
    "name": "Bahadurgarh",
    "lat": 28.69287,
    "lng": 76.93555
  },
  {
    "id": 1344377,
    "name": "Haldia",
    "lat": 22.06046,
    "lng": 88.10975
  },
  {
    "id": 1259009,
    "name": "Rāiganj",
    "lat": 25.61281,
    "lng": 88.12449
  },
  {
    "id": 1269723,
    "name": "Malda",
    "lat": 25.00447,
    "lng": 88.14573
  },
  {
    "id": 1269135,
    "name": "Jaunpur",
    "lat": 25.75356,
    "lng": 82.68689
  },
  {
    "id": 10263232,
    "name": "Deoli",
    "lat": 28.50254,
    "lng": 77.23117
  },
  {
    "id": 1276100,
    "name": "Bharūch",
    "lat": 21.69482,
    "lng": 72.9805
  },
  {
    "id": 1269937,
    "name": "Hoshiārpur",
    "lat": 31.53723,
    "lng": 75.91269
  },
  {
    "id": 1268907,
    "name": "Jīnd",
    "lat": 29.31577,
    "lng": 76.31502
  },
  {
    "id": 1265683,
    "name": "Kumbakonam",
    "lat": 10.96209,
    "lng": 79.39124
  },
  {
    "id": 6992326,
    "name": "Mohali",
    "lat": 30.67995,
    "lng": 76.72211
  },
  {
    "id": 1271912,
    "name": "Fatehpur",
    "lat": 25.92774,
    "lng": 80.81266
  },
  {
    "id": 1254241,
    "name": "Tonk",
    "lat": 26.16638,
    "lng": 75.78824
  },
  {
    "id": 1253952,
    "name": "Udupi",
    "lat": 13.33467,
    "lng": 74.74617
  },
  {
    "id": 1254757,
    "name": "Thenali",
    "lat": 16.24253,
    "lng": 80.63982
  },
  {
    "id": 1255969,
    "name": "Sītāpur",
    "lat": 27.56192,
    "lng": 80.68265
  },
  {
    "id": 1276321,
    "name": "Bhadrāvati",
    "lat": 13.84846,
    "lng": 75.70502
  },
  {
    "id": 7279741,
    "name": "Vapi",
    "lat": 20.37175,
    "lng": 72.90493
  },
  {
    "id": 1262951,
    "name": "Moga",
    "lat": 30.81383,
    "lng": 75.16878
  },
  {
    "id": 1258831,
    "name": "Rāj-Nāndgaon",
    "lat": 21.09687,
    "lng": 81.0289
  },
  {
    "id": 1258109,
    "name": "Robertsonpet",
    "lat": 12.95629,
    "lng": 78.27539
  },
  {
    "id": 1253747,
    "name": "Unnāo",
    "lat": 26.54706,
    "lng": 80.48781
  },
  {
    "id": 1275163,
    "name": "Budaun",
    "lat": 28.03811,
    "lng": 79.12668
  },
  {
    "id": 1264543,
    "name": "Madhyamgram",
    "lat": 22.68944,
    "lng": 88.44594
  },
  {
    "id": 1274033,
    "name": "Chittoor",
    "lat": 13.21055,
    "lng": 79.0956
  },
  {
    "id": 1269280,
    "name": "Jāmuria",
    "lat": 23.70468,
    "lng": 87.07872
  },
  {
    "id": 7284820,
    "name": "Jaigaon",
    "lat": 26.84766,
    "lng": 89.37558
  },
  {
    "id": 1276720,
    "name": "Batāla",
    "lat": 31.80921,
    "lng": 75.20294
  },
  {
    "id": 1261039,
    "name": "Orai",
    "lat": 25.99023,
    "lng": 79.45334
  },
  {
    "id": 1257804,
    "name": "Saharsa",
    "lat": 25.87498,
    "lng": 86.59611
  },
  {
    "id": 1253200,
    "name": "Vidisha",
    "lat": 23.52604,
    "lng": 77.81092
  },
  {
    "id": 1270407,
    "name": "Hanumāngarh",
    "lat": 29.58182,
    "lng": 74.32938
  },
  {
    "id": 1254657,
    "name": "Thānesar",
    "lat": 29.97323,
    "lng": 76.83214
  },
  {
    "id": 1270239,
    "name": "Hassan",
    "lat": 13.00715,
    "lng": 76.0962
  },
  {
    "id": 1266486,
    "name": "Kishangarh",
    "lat": 26.59006,
    "lng": 74.85397
  },
  {
    "id": 10265162,
    "name": "Dalūpura",
    "lat": 28.6057,
    "lng": 77.31901
  },
  {
    "id": 8740322,
    "name": "Rudrapur",
    "lat": 28.98,
    "lng": 79.4
  },
  {
    "id": 1262067,
    "name": "Nalgonda",
    "lat": 17.05439,
    "lng": 79.26707
  },
  {
    "id": 1270164,
    "name": "Hazāribāgh",
    "lat": 23.99241,
    "lng": 85.36162
  },
  {
    "id": 1263220,
    "name": "Medinīpur",
    "lat": 22.42114,
    "lng": 87.32257
  },
  {
    "id": 1277508,
    "name": "Bālurghāt",
    "lat": 25.22099,
    "lng": 88.77732
  },
  {
    "id": 1271976,
    "name": "Fyzābād",
    "lat": 26.77549,
    "lng": 82.15018
  },
  {
    "id": 1273581,
    "name": "Dinapore",
    "lat": 25.63705,
    "lng": 85.04794
  },
  {
    "id": 1259395,
    "name": "Porbandar",
    "lat": 21.64219,
    "lng": 69.60929
  },
  {
    "id": 1277397,
    "name": "Bānda",
    "lat": 25.47758,
    "lng": 80.33491
  },
  {
    "id": 1270079,
    "name": "Hindupur",
    "lat": 13.82807,
    "lng": 77.49143
  },
  {
    "id": 1276634,
    "name": "Beāwar",
    "lat": 26.10119,
    "lng": 74.32028
  },
  {
    "id": 1278667,
    "name": "Anantnag",
    "lat": 33.73068,
    "lng": 75.15418
  },
  {
    "id": 7302856,
    "name": "Serilingampalle",
    "lat": 17.49313,
    "lng": 78.30196
  },
  {
    "id": 1259005,
    "name": "Raigarh",
    "lat": 21.89764,
    "lng": 83.3966
  },
  {
    "id": 7302828,
    "name": "Malkajgiri",
    "lat": 17.44781,
    "lng": 78.52633
  },
  {
    "id": 1256639,
    "name": "Shāntipur",
    "lat": 23.24723,
    "lng": 88.43302
  },
  {
    "id": 1275812,
    "name": "Bhuj",
    "lat": 23.25397,
    "lng": 69.66928
  },
  {
    "id": 1277100,
    "name": "Bārākpur",
    "lat": 22.76602,
    "lng": 88.36336
  },
  {
    "id": 1270525,
    "name": "Hājīpur",
    "lat": 25.68544,
    "lng": 85.20981
  },
  {
    "id": 1257086,
    "name": "Sasarām",
    "lat": 24.94942,
    "lng": 84.01645
  },
  {
    "id": 1275947,
    "name": "Bhimavaram",
    "lat": 16.54078,
    "lng": 81.52322
  },
  {
    "id": 1275539,
    "name": "Beed",
    "lat": 18.98921,
    "lng": 75.75634
  },
  {
    "id": 10261509,
    "name": "Burāri",
    "lat": 28.7557,
    "lng": 77.19941
  },
  {
    "id": 1265859,
    "name": "Krishnanagar",
    "lat": 23.40576,
    "lng": 88.49073
  },
  {
    "id": 1274056,
    "name": "Chitradurga",
    "lat": 14.22262,
    "lng": 76.40038
  },
  {
    "id": 1272648,
    "name": "Dibrugarh",
    "lat": 27.47989,
    "lng": 94.90837
  },
  {
    "id": 1279403,
    "name": "Abohar",
    "lat": 30.14453,
    "lng": 74.19552
  },
  {
    "id": 1254327,
    "name": "Tiruvannamalai",
    "lat": 12.22662,
    "lng": 79.07461
  },
  {
    "id": 1268593,
    "name": "Kaithal",
    "lat": 29.80153,
    "lng": 76.39959
  },
  {
    "id": 1277599,
    "name": "Balasore",
    "lat": 21.49266,
    "lng": 86.93348
  },
  {
    "id": 1271107,
    "name": "Godhra",
    "lat": 22.77547,
    "lng": 73.61488
  },
  {
    "id": 1256523,
    "name": "Shillong",
    "lat": 25.56892,
    "lng": 91.88313
  },
  {
    "id": 1258178,
    "name": "Rewāri",
    "lat": 28.199,
    "lng": 76.6183
  },
  {
    "id": 1274337,
    "name": "Chhatarpur",
    "lat": 24.9177,
    "lng": 79.58871
  },
  {
    "id": 1263834,
    "name": "Mandsaur",
    "lat": 24.07184,
    "lng": 75.06986
  },
  {
    "id": 1274553,
    "name": "Chas",
    "lat": 23.63556,
    "lng": 86.16712
  },
  {
    "id": 1260777,
    "name": "Pālanpur",
    "lat": 24.17128,
    "lng": 72.43827
  },
  {
    "id": 1265242,
    "name": "Lakhīmpur",
    "lat": 27.94822,
    "lng": 80.77935
  },
  {
    "id": 1253468,
    "name": "Valsād",
    "lat": 20.61013,
    "lng": 72.93428
  },
  {
    "id": 1273587,
    "name": "Damoh",
    "lat": 23.83312,
    "lng": 79.4419
  },
  {
    "id": 1270498,
    "name": "Haldwani",
    "lat": 29.22254,
    "lng": 79.5286
  },
  {
    "id": 1270568,
    "name": "Hābra",
    "lat": 22.84202,
    "lng": 88.65606
  },
  {
    "id": 1266305,
    "name": "Kolār",
    "lat": 13.13768,
    "lng": 78.12999
  },
  {
    "id": 1255647,
    "name": "Srikakulam",
    "lat": 18.2989,
    "lng": 83.89751
  },
  {
    "id": 1263814,
    "name": "Mandya",
    "lat": 12.5223,
    "lng": 76.89746
  },
  {
    "id": 10834495,
    "name": "Madhurampur Dehri",
    "lat": 24.96899,
    "lng": 84.1964
  },
  {
    "id": 1268715,
    "name": "Kānchrāpāra",
    "lat": 22.95998,
    "lng": 88.42849
  },
  {
    "id": 1272552,
    "name": "Dimāpur",
    "lat": 25.91174,
    "lng": 93.7217
  },
  {
    "id": 1264111,
    "name": "Māler Kotla",
    "lat": 30.5309,
    "lng": 75.87949
  },
  {
    "id": 1255927,
    "name": "Siwān",
    "lat": 26.22096,
    "lng": 84.35609
  },
  {
    "id": 1268338,
    "name": "Kalol",
    "lat": 23.24656,
    "lng": 72.49508
  },
  {
    "id": 1277264,
    "name": "Bānkura",
    "lat": 23.23241,
    "lng": 87.0716
  },
  {
    "id": 1260173,
    "name": "Pātan",
    "lat": 23.8507,
    "lng": 72.12963
  },
  {
    "id": 1270996,
    "name": "Gondā City",
    "lat": 27.13181,
    "lng": 81.95332
  },
  {
    "id": 1272805,
    "name": "Dhaulpur",
    "lat": 26.69286,
    "lng": 77.87968
  },
  {
    "id": 1270990,
    "name": "Gondiā",
    "lat": 21.46026,
    "lng": 80.19205
  },
  {
    "id": 1260728,
    "name": "Palakkad",
    "lat": 10.77319,
    "lng": 76.65366
  },
  {
    "id": 1276393,
    "name": "Bettiah",
    "lat": 26.80229,
    "lng": 84.50311
  },
  {
    "id": 1260637,
    "name": "Palwal",
    "lat": 28.14469,
    "lng": 77.32546
  },
  {
    "id": 1258470,
    "name": "Rānīganj",
    "lat": 23.6164,
    "lng": 87.13061
  },
  {
    "id": 1259686,
    "name": "Pīlibhīt",
    "lat": 28.63124,
    "lng": 79.80436
  },
  {
    "id": 1258916,
    "name": "Rajapalayam",
    "lat": 9.45296,
    "lng": 77.55335
  },
  {
    "id": 1275218,
    "name": "Botad",
    "lat": 22.16917,
    "lng": 71.66671
  },
  {
    "id": 1273193,
    "name": "Deoria",
    "lat": 26.50167,
    "lng": 83.77936
  },
  {
    "id": 8441115,
    "name": "Nimach",
    "lat": 24.45949,
    "lng": 74.86625
  },
  {
    "id": 1266945,
    "name": "Khardah",
    "lat": 22.71861,
    "lng": 88.37806
  },
  {
    "id": 1252770,
    "name": "Yavatmāl",
    "lat": 20.39324,
    "lng": 78.13201
  },
  {
    "id": 1270484,
    "name": "Hālīsahar",
    "lat": 22.93218,
    "lng": 88.41859
  },
  {
    "id": 1267016,
    "name": "Khanna",
    "lat": 30.70547,
    "lng": 76.22196
  },
  {
    "id": 1254309,
    "name": "Titāgarh",
    "lat": 22.74252,
    "lng": 88.37326
  },
  {
    "id": 1270216,
    "name": "Hāthras",
    "lat": 27.59551,
    "lng": 78.05201
  },
  {
    "id": 1268820,
    "name": "Jorhat",
    "lat": 26.75751,
    "lng": 94.20306
  },
  {
    "id": 1265157,
    "name": "Lalitpur",
    "lat": 24.69007,
    "lng": 78.41915
  },
  {
    "id": 1270670,
    "name": "Guntakal",
    "lat": 15.17112,
    "lng": 77.36244
  },
  {
    "id": 7279595,
    "name": "Pithampur",
    "lat": 22.60197,
    "lng": 75.69649
  },
  {
    "id": 1262710,
    "name": "Mothīhāri",
    "lat": 26.64862,
    "lng": 84.91656
  },
  {
    "id": 1268015,
    "name": "Kanhangad",
    "lat": 12.30814,
    "lng": 75.10632
  },
  {
    "id": 1269578,
    "name": "Jagdalpur",
    "lat": 19.08136,
    "lng": 82.02131
  },
  {
    "id": 1269605,
    "name": "Jagādhri",
    "lat": 30.16719,
    "lng": 77.30367
  },
  {
    "id": 1273467,
    "name": "Dārjiling",
    "lat": 27.03333,
    "lng": 88.26667
  },
  {
    "id": 11500546,
    "name": "Kurichchi",
    "lat": 10.96085,
    "lng": 76.97379
  },
  {
    "id": 1272243,
    "name": "Dam Dam",
    "lat": 22.63341,
    "lng": 88.42286
  },
  {
    "id": 1270370,
    "name": "Hardoī",
    "lat": 27.39491,
    "lng": 80.13165
  },
  {
    "id": 1259163,
    "name": "Puruliya",
    "lat": 23.33062,
    "lng": 86.36303
  },
  {
    "id": 1272842,
    "name": "Dharmavaram",
    "lat": 14.41435,
    "lng": 77.72035
  },
  {
    "id": 1276320,
    "name": "Bhadreswar",
    "lat": 22.82449,
    "lng": 88.33841
  },
  {
    "id": 1261163,
    "name": "Nagaon",
    "lat": 26.35,
    "lng": 92.66667
  },
  {
    "id": 1253315,
    "name": "Vejalpur",
    "lat": 22.69021,
    "lng": 73.56299
  },
  {
    "id": 1274220,
    "name": "Chikmagalūr",
    "lat": 13.32231,
    "lng": 75.774
  },
  {
    "id": 1276325,
    "name": "Bhadrak",
    "lat": 21.05447,
    "lng": 86.5156
  },
  {
    "id": 1256949,
    "name": "Sawai Madhopur",
    "lat": 26.02301,
    "lng": 76.34408
  },
  {
    "id": 1278827,
    "name": "Ambikāpur",
    "lat": 23.11892,
    "lng": 83.19537
  },
  {
    "id": 10265071,
    "name": "Mandoli",
    "lat": 28.70275,
    "lng": 77.30995
  },
  {
    "id": 1257055,
    "name": "Satara",
    "lat": 17.68589,
    "lng": 73.99333
  },
  {
    "id": 1273892,
    "name": "Chūru",
    "lat": 28.30415,
    "lng": 74.96718
  },
  {
    "id": 1271675,
    "name": "Gangāpur",
    "lat": 26.47249,
    "lng": 76.71744
  },
  {
    "id": 1465594,
    "name": "Madhavaram",
    "lat": 13.14819,
    "lng": 80.2314
  },
  {
    "id": 1273687,
    "name": "Dohad",
    "lat": 22.83283,
    "lng": 74.25986
  },
  {
    "id": 1276856,
    "name": "Barshi",
    "lat": 18.23454,
    "lng": 75.69275
  },
  {
    "id": 1279344,
    "name": "Ādilābād",
    "lat": 19.67203,
    "lng": 78.5359
  },
  {
    "id": 1268936,
    "name": "Jhunjhunūn",
    "lat": 28.12559,
    "lng": 75.39797
  },
  {
    "id": 1269065,
    "name": "Jetpur",
    "lat": 21.75482,
    "lng": 70.62347
  },
  {
    "id": 1253744,
    "name": "Uppal Kalan",
    "lat": 17.40577,
    "lng": 78.55911
  },
  {
    "id": 1270801,
    "name": "Gudivāda",
    "lat": 16.43547,
    "lng": 80.99555
  },
  {
    "id": 1277084,
    "name": "Bārān",
    "lat": 25.1,
    "lng": 76.51667
  },
  {
    "id": 1269939,
    "name": "Narmadapuram",
    "lat": 22.74747,
    "lng": 77.72736
  },
  {
    "id": 1278715,
    "name": "Amreli",
    "lat": 21.59983,
    "lng": 71.21169
  },
  {
    "id": 1259297,
    "name": "Pudukkottai",
    "lat": 10.38128,
    "lng": 78.82141
  },
  {
    "id": 1261848,
    "name": "Narasaraopet",
    "lat": 16.23488,
    "lng": 80.04927
  },
  {
    "id": 1258126,
    "name": "Rishra",
    "lat": 22.72394,
    "lng": 88.34563
  },
  {
    "id": 1276942,
    "name": "Baripāda",
    "lat": 21.93458,
    "lng": 86.72852
  },
  {
    "id": 1262578,
    "name": "Muktsar",
    "lat": 30.47426,
    "lng": 74.5166
  },
  {
    "id": 1278083,
    "name": "Azamgarh",
    "lat": 26.06832,
    "lng": 83.18358
  },
  {
    "id": 1276895,
    "name": "Barnāla",
    "lat": 30.37451,
    "lng": 75.5487
  },
  {
    "id": 1252758,
    "name": "Yelahanka",
    "lat": 13.10073,
    "lng": 77.59632
  },
  {
    "id": 1274040,
    "name": "Chittorgarh",
    "lat": 24.88963,
    "lng": 74.62403
  },
  {
    "id": 1254432,
    "name": "Tinsukia",
    "lat": 27.48905,
    "lng": 95.35992
  },
  {
    "id": 1266928,
    "name": "Khargone",
    "lat": 21.82292,
    "lng": 75.61394
  },
  {
    "id": 1277780,
    "name": "Baidyabāti",
    "lat": 22.78498,
    "lng": 88.32586
  },
  {
    "id": 1276736,
    "name": "Bastī",
    "lat": 26.78817,
    "lng": 82.71617
  },
  {
    "id": 1271662,
    "name": "Gangavati",
    "lat": 15.4313,
    "lng": 76.52933
  },
  {
    "id": 1278815,
    "name": "Ambur",
    "lat": 12.79163,
    "lng": 78.71644
  },
  {
    "id": 1271175,
    "name": "Giridih",
    "lat": 24.18622,
    "lng": 86.30875
  },
  {
    "id": 1252942,
    "name": "Wardha",
    "lat": 20.73933,
    "lng": 78.59784
  },
  {
    "id": 1274767,
    "name": "Chanduasi",
    "lat": 28.45178,
    "lng": 78.78277
  },
  {
    "id": 1277939,
    "name": "Bagaha",
    "lat": 27.09918,
    "lng": 84.09003
  },
  {
    "id": 1279390,
    "name": "Achalpur",
    "lat": 21.25665,
    "lng": 77.51006
  },
  {
    "id": 1270994,
    "name": "Gondal",
    "lat": 21.96074,
    "lng": 70.80255
  },
  {
    "id": 1261012,
    "name": "Dharashiv",
    "lat": 18.18158,
    "lng": 76.03889
  },
  {
    "id": 1259385,
    "name": "Port Blair",
    "lat": 11.66613,
    "lng": 92.74635
  },
  {
    "id": 1277936,
    "name": "Bagalkot",
    "lat": 16.18673,
    "lng": 75.69614
  },
  {
    "id": 1255344,
    "name": "Suriāpet",
    "lat": 17.14054,
    "lng": 79.62045
  },
  {
    "id": 1277324,
    "name": "Bangaon",
    "lat": 23.04553,
    "lng": 88.83084
  },
  {
    "id": 7302861,
    "name": "Ashoknagar Kalyangarh",
    "lat": 22.86416,
    "lng": 88.63701
  },
  {
    "id": 1272513,
    "name": "Deesa",
    "lat": 24.25612,
    "lng": 72.17928
  },
  {
    "id": 1261669,
    "name": "Navadwīp",
    "lat": 23.4067,
    "lng": 88.36861
  },
  {
    "id": 1261931,
    "name": "Nandurbar",
    "lat": 21.36671,
    "lng": 74.24051
  },
  {
    "id": 1255491,
    "name": "Sultānpur",
    "lat": 26.25788,
    "lng": 82.07269
  },
  {
    "id": 1273292,
    "name": "Delhi Cantonment",
    "lat": 28.6,
    "lng": 77.13333
  },
  {
    "id": 1271883,
    "name": "Firozpur",
    "lat": 30.92574,
    "lng": 74.61311
  },
  {
    "id": 1256913,
    "name": "Sehore",
    "lat": 23.2,
    "lng": 77.08333
  },
  {
    "id": 1277240,
    "name": "Bānsbāria",
    "lat": 22.95387,
    "lng": 88.40098
  },
  {
    "id": 1255254,
    "name": "Tadpatri",
    "lat": 14.90832,
    "lng": 78.01031
  },
  {
    "id": 1255264,
    "name": "Tādepallegūdem",
    "lat": 16.81467,
    "lng": 81.52717
  },
  {
    "id": 1269388,
    "name": "Jalpāiguri",
    "lat": 26.51667,
    "lng": 88.73333
  },
  {
    "id": 1263797,
    "name": "Mangalagiri",
    "lat": 16.43083,
    "lng": 80.56815
  },
  {
    "id": 1258474,
    "name": "Ranebennur",
    "lat": 14.62239,
    "lng": 75.62951
  },
  {
    "id": 1266607,
    "name": "Khurja",
    "lat": 28.25382,
    "lng": 77.85535
  },
  {
    "id": 1266489,
    "name": "Kishanganj",
    "lat": 26.10224,
    "lng": 87.95534
  },
  {
    "id": 1259411,
    "name": "Ponnāni",
    "lat": 10.76695,
    "lng": 75.92523
  },
  {
    "id": 1270090,
    "name": "Hindaun",
    "lat": 26.73411,
    "lng": 77.03519
  },
  {
    "id": 1269374,
    "name": "Jamālpur",
    "lat": 25.31258,
    "lng": 86.48888
  },
  {
    "id": 1262216,
    "name": "Nāgaur",
    "lat": 27.20201,
    "lng": 73.73394
  },
  {
    "id": 13157160,
    "name": "Ambala Sadar",
    "lat": 30.33544,
    "lng": 76.86265
  },
  {
    "id": 7279747,
    "name": "Bhiwadi",
    "lat": 28.21024,
    "lng": 76.86056
  },
  {
    "id": 1275103,
    "name": "Būndi",
    "lat": 25.43855,
    "lng": 75.63735
  },
  {
    "id": 1263012,
    "name": "Miryalaguda",
    "lat": 16.8722,
    "lng": 79.56247
  },
  {
    "id": 1430991,
    "name": "Soyībug",
    "lat": 34.07677,
    "lng": 74.7057
  },
  {
    "id": 1269562,
    "name": "Jagtiāl",
    "lat": 18.79473,
    "lng": 78.91661
  },
  {
    "id": 1258044,
    "name": "Roorkee",
    "lat": 29.86632,
    "lng": 77.89118
  },
  {
    "id": 1253958,
    "name": "Udgīr",
    "lat": 18.39258,
    "lng": 77.11756
  },
  {
    "id": 1262209,
    "name": "Nagda",
    "lat": 23.45834,
    "lng": 75.41759
  },
  {
    "id": 1276389,
    "name": "Betūl",
    "lat": 21.90056,
    "lng": 77.90229
  },
  {
    "id": 1269557,
    "name": "Jahānābād",
    "lat": 25.21368,
    "lng": 84.9871
  },
  {
    "id": 1267579,
    "name": "Kashipur",
    "lat": 29.21399,
    "lng": 78.95693
  },
  {
    "id": 1271306,
    "name": "Ghazīpur",
    "lat": 25.58333,
    "lng": 83.58526
  },
  {
    "id": 12261477,
    "name": "Amaravati",
    "lat": 16.514,
    "lng": 80.516
  },
  {
    "id": 1262260,
    "name": "Nagapattinam",
    "lat": 10.76377,
    "lng": 79.84313
  },
  {
    "id": 1275019,
    "name": "Buxar",
    "lat": 25.57548,
    "lng": 83.98043
  },
  {
    "id": 1263494,
    "name": "Mormugao",
    "lat": 15.38914,
    "lng": 73.81491
  },
  {
    "id": 1256826,
    "name": "Seoni",
    "lat": 22.08503,
    "lng": 79.55037
  },
  {
    "id": 1278148,
    "name": "Aurangābād",
    "lat": 24.75204,
    "lng": 84.3742
  },
  {
    "id": 1270077,
    "name": "Hinganghāt",
    "lat": 20.54875,
    "lng": 78.83978
  },
  {
    "id": 1272997,
    "name": "Dhamtari",
    "lat": 20.70718,
    "lng": 81.54874
  },
  {
    "id": 1274213,
    "name": "Chilakalūrupet",
    "lat": 16.08987,
    "lng": 80.16705
  },
  {
    "id": 1264154,
    "name": "Malappuram",
    "lat": 11.04199,
    "lng": 76.08154
  },
  {
    "id": 1277214,
    "name": "Bānswāra",
    "lat": 23.54109,
    "lng": 74.4425
  },
  {
    "id": 12495083,
    "name": "Chirmiri",
    "lat": 23.19073,
    "lng": 82.35314
  },
  {
    "id": 1269653,
    "name": "Itārsi",
    "lat": 22.61477,
    "lng": 77.76222
  },
  {
    "id": 1253367,
    "name": "Vasco da Gama",
    "lat": 15.39585,
    "lng": 73.81568
  },
  {
    "id": 1271631,
    "name": "Gangtok",
    "lat": 27.32574,
    "lng": 88.61216
  },
  {
    "id": 1273403,
    "name": "Datia",
    "lat": 25.67312,
    "lng": 78.45908
  },
  {
    "id": 1259827,
    "name": "Phagwāra",
    "lat": 31.22452,
    "lng": 75.77387
  },
  {
    "id": 7279599,
    "name": "Airoli",
    "lat": 19.15096,
    "lng": 72.99625
  },
  {
    "id": 1264735,
    "name": "Luckeesarai",
    "lat": 25.1765,
    "lng": 86.0947
  },
  {
    "id": 1256529,
    "name": "Shikohābād",
    "lat": 27.108,
    "lng": 78.58661
  },
  {
    "id": 1267588,
    "name": "Kāsganj",
    "lat": 27.80882,
    "lng": 78.64579
  },
  {
    "id": 1267090,
    "name": "Khambhāt",
    "lat": 22.31744,
    "lng": 72.61916
  },
  {
    "id": 1266366,
    "name": "Kohima",
    "lat": 25.67467,
    "lng": 94.11099
  },
  {
    "id": 1260546,
    "name": "Pandharpur",
    "lat": 17.67924,
    "lng": 75.33098
  },
  {
    "id": 1267911,
    "name": "Kapurthala Town",
    "lat": 31.38011,
    "lng": 75.38105
  },
  {
    "id": 1264326,
    "name": "Mahuva",
    "lat": 21.09007,
    "lng": 71.76904
  },
  {
    "id": 1256259,
    "name": "Silvassa",
    "lat": 20.27386,
    "lng": 72.99673
  },
  {
    "id": 1277643,
    "name": "Balāngīr",
    "lat": 20.70419,
    "lng": 83.49029
  },
  {
    "id": 1262634,
    "name": "Mughal Sarāi",
    "lat": 25.28307,
    "lng": 83.11968
  },
  {
    "id": 1261631,
    "name": "Nawāda",
    "lat": 24.8867,
    "lng": 85.54364
  },
  {
    "id": 13156961,
    "name": "Bhilai Charoda",
    "lat": 21.22305,
    "lng": 81.45609
  },
  {
    "id": 1256671,
    "name": "Shāmli",
    "lat": 29.4497,
    "lng": 77.30959
  },
  {
    "id": 1268977,
    "name": "Jharsuguda",
    "lat": 21.85531,
    "lng": 84.00698
  },
  {
    "id": 10263300,
    "name": "Sādatpur Gujran",
    "lat": 28.72834,
    "lng": 77.24817
  },
  {
    "id": 1274868,
    "name": "Chalisgaon",
    "lat": 20.45781,
    "lng": 75.01596
  },
  {
    "id": 1253166,
    "name": "Villupuram",
    "lat": 11.93975,
    "lng": 79.49244
  },
  {
    "id": 1278931,
    "name": "Amalner",
    "lat": 21.03983,
    "lng": 75.05887
  },
  {
    "id": 1254780,
    "name": "Tellicherry",
    "lat": 11.74811,
    "lng": 75.4929
  },
  {
    "id": 1263694,
    "name": "Manjeri",
    "lat": 11.12018,
    "lng": 76.11996
  },
  {
    "id": 1276901,
    "name": "Bārmer",
    "lat": 25.74572,
    "lng": 71.39211
  },
  {
    "id": 10263050,
    "name": "Pūth Kalān",
    "lat": 28.7116,
    "lng": 77.07887
  },
  {
    "id": 11500547,
    "name": "Kuniyamuttūr",
    "lat": 10.96376,
    "lng": 76.95254
  },
  {
    "id": 1257198,
    "name": "Sardārshahr",
    "lat": 28.44062,
    "lng": 74.491
  },
  {
    "id": 1257794,
    "name": "Sāhibganj",
    "lat": 25.24425,
    "lng": 87.63481
  },
  {
    "id": 1257486,
    "name": "Sānand",
    "lat": 22.99227,
    "lng": 72.38177
  },
  {
    "id": 1260387,
    "name": "Paramagudi",
    "lat": 9.54633,
    "lng": 78.5907
  },
  {
    "id": 6989891,
    "name": "Zerakpur",
    "lat": 30.65622,
    "lng": 76.82093
  },
  {
    "id": 1254385,
    "name": "Tiruchengode",
    "lat": 11.38016,
    "lng": 77.89444
  },
  {
    "id": 1258744,
    "name": "Closepet",
    "lat": 12.72181,
    "lng": 77.28149
  },
  {
    "id": 1272045,
    "name": "Emmiganūr",
    "lat": 15.77203,
    "lng": 77.48345
  },
  {
    "id": 1253437,
    "name": "Vaniyambadi",
    "lat": 12.68162,
    "lng": 78.62014
  },
  {
    "id": 1265891,
    "name": "Kovilpatti",
    "lat": 9.17167,
    "lng": 77.86989
  },
  {
    "id": 1260290,
    "name": "Parli Vaijnāth",
    "lat": 18.85057,
    "lng": 76.53163
  },
  {
    "id": 1264292,
    "name": "Mainpuri",
    "lat": 27.22857,
    "lng": 79.02882
  },
  {
    "id": 1267084,
    "name": "Khāmgaon",
    "lat": 20.70738,
    "lng": 76.56827
  },
  {
    "id": 1264206,
    "name": "Makrāna",
    "lat": 27.04361,
    "lng": 74.72445
  },
  {
    "id": 1278983,
    "name": "Allinagaram",
    "lat": 10.02737,
    "lng": 77.47815
  },
  {
    "id": 1270800,
    "name": "Gudiyatham",
    "lat": 12.94601,
    "lng": 78.87377
  },
  {
    "id": 1272892,
    "name": "Dhār",
    "lat": 22.59373,
    "lng": 75.29774
  },
  {
    "id": 1277044,
    "name": "Baraut",
    "lat": 29.10199,
    "lng": 77.26334
  },
  {
    "id": 1268293,
    "name": "Kalyani",
    "lat": 22.9757,
    "lng": 88.4337
  },
  {
    "id": 1272473,
    "name": "Doddaballapura",
    "lat": 13.29452,
    "lng": 77.53777
  },
  {
    "id": 1274106,
    "name": "Chīrāla",
    "lat": 15.82385,
    "lng": 80.35219
  },
  {
    "id": 1279094,
    "name": "Akot",
    "lat": 21.0963,
    "lng": 77.0588
  },
  {
    "id": 1271910,
    "name": "Fatehpur",
    "lat": 27.99486,
    "lng": 74.95628
  },
  {
    "id": 10265220,
    "name": "Gharroli",
    "lat": 28.6167,
    "lng": 77.33207
  },
  {
    "id": 1258803,
    "name": "Rajpura",
    "lat": 30.47856,
    "lng": 76.59284
  },
  {
    "id": 1265973,
    "name": "Kot Kapūra",
    "lat": 30.58061,
    "lng": 74.82609
  },
  {
    "id": 1276191,
    "name": "Bhandāra",
    "lat": 21.16817,
    "lng": 79.64885
  },
  {
    "id": 10265190,
    "name": "Molārband",
    "lat": 28.50295,
    "lng": 77.31442
  },
  {
    "id": 1277940,
    "name": "Bagaha",
    "lat": 24.52898,
    "lng": 85.06019
  },
  {
    "id": 1258291,
    "name": "Rayachoti",
    "lat": 14.05723,
    "lng": 78.75056
  },
  {
    "id": 1268707,
    "name": "Kadayanallur",
    "lat": 9.07277,
    "lng": 77.34152
  },
  {
    "id": 1253472,
    "name": "Valparai",
    "lat": 10.32691,
    "lng": 76.95116
  },
  {
    "id": 1259440,
    "name": "Pollachi",
    "lat": 10.65825,
    "lng": 77.0085
  },
  {
    "id": 1267394,
    "name": "Kāvali",
    "lat": 14.9163,
    "lng": 79.99449
  },
  {
    "id": 1258099,
    "name": "Roha",
    "lat": 18.43687,
    "lng": 73.11964
  },
  {
    "id": 1263936,
    "name": "Mancherial",
    "lat": 18.87074,
    "lng": 79.42863
  },
  {
    "id": 11664565,
    "name": "Avaniyāpuram",
    "lat": 9.88179,
    "lng": 78.11255
  },
  {
    "id": 1262453,
    "name": "Murādnagar",
    "lat": 28.78069,
    "lng": 77.49865
  },
  {
    "id": 1278553,
    "name": "Ankleshwar",
    "lat": 21.63236,
    "lng": 72.99001
  },
  {
    "id": 1268673,
    "name": "Kadiri",
    "lat": 14.11168,
    "lng": 78.15982
  },
  {
    "id": 1256739,
    "name": "Shahdol",
    "lat": 23.29356,
    "lng": 81.3619
  },
  {
    "id": 11184435,
    "name": "Shrirampur",
    "lat": 19.62201,
    "lng": 74.65699
  },
  {
    "id": 1264359,
    "name": "Mahobā",
    "lat": 25.2905,
    "lng": 79.87533
  },
  {
    "id": 1258686,
    "name": "Rāmgarh",
    "lat": 23.6303,
    "lng": 85.52156
  },
  {
    "id": 1344069,
    "name": "Contai",
    "lat": 21.77985,
    "lng": 87.74892
  },
  {
    "id": 1257402,
    "name": "Sangrūr",
    "lat": 30.24506,
    "lng": 75.84488
  },
  {
    "id": 1261288,
    "name": "Nirmal",
    "lat": 19.09685,
    "lng": 78.34407
  },
  {
    "id": 1273265,
    "name": "Deoband",
    "lat": 29.69505,
    "lng": 77.67964
  },
  {
    "id": 1261470,
    "name": "Neyyāttinkara",
    "lat": 8.39854,
    "lng": 77.08586
  },
  {
    "id": 1255024,
    "name": "Tāndā",
    "lat": 26.54953,
    "lng": 82.65841
  },
  {
    "id": 13353619,
    "name": "Kolar",
    "lat": 23.16478,
    "lng": 77.41893
  },
  {
    "id": 1268775,
    "name": "Jhumri Telaiya",
    "lat": 24.4349,
    "lng": 85.52951
  },
  {
    "id": 1278340,
    "name": "Aruppukkottai",
    "lat": 9.5096,
    "lng": 78.09588
  },
  {
    "id": 1271949,
    "name": "Farīdkot",
    "lat": 30.67399,
    "lng": 74.75579
  },
  {
    "id": 1264588,
    "name": "Madgaon",
    "lat": 15.27501,
    "lng": 73.95786
  },
  {
    "id": 11520178,
    "name": "Velampālaiyam",
    "lat": 11.13764,
    "lng": 77.31064
  },
  {
    "id": 1269291,
    "name": "Jamūī",
    "lat": 24.92606,
    "lng": 86.22531
  },
  {
    "id": 1278573,
    "name": "Anjār",
    "lat": 23.11316,
    "lng": 70.02671
  },
  {
    "id": 1260390,
    "name": "Paralakhemundi",
    "lat": 18.77619,
    "lng": 84.09504
  },
  {
    "id": 1268988,
    "name": "Jharia",
    "lat": 23.74079,
    "lng": 86.41456
  },
  {
    "id": 1267887,
    "name": "Kāraikāl",
    "lat": 10.91667,
    "lng": 79.83333
  },
  {
    "id": 1268205,
    "name": "Kāmthi",
    "lat": 21.21615,
    "lng": 79.1973
  },
  {
    "id": 1270417,
    "name": "Hānsi",
    "lat": 29.10239,
    "lng": 75.96253
  },
  {
    "id": 1263247,
    "name": "Mayiladuthurai",
    "lat": 11.10354,
    "lng": 79.655
  },
  {
    "id": 1278688,
    "name": "Anakapalle",
    "lat": 17.69134,
    "lng": 83.00395
  },
  {
    "id": 9972727,
    "name": "Maduravoyal",
    "lat": 13.0675,
    "lng": 80.1632
  },
  {
    "id": 10209444,
    "name": "Sārni",
    "lat": 22.10317,
    "lng": 78.17159
  },
  {
    "id": 1273369,
    "name": "Dausa",
    "lat": 26.89,
    "lng": 76.33584
  },
  {
    "id": 1260393,
    "name": "Parādīp Garh",
    "lat": 20.31641,
    "lng": 86.6085
  },
  {
    "id": 1270072,
    "name": "Hingoli",
    "lat": 19.71464,
    "lng": 77.14238
  },
  {
    "id": 1276829,
    "name": "Bāruni",
    "lat": 25.47509,
    "lng": 85.96813
  },
  {
    "id": 1269092,
    "name": "Jeypore",
    "lat": 18.8563,
    "lng": 82.5716
  },
  {
    "id": 1275679,
    "name": "Bijnor",
    "lat": 29.373,
    "lng": 78.13636
  },
  {
    "id": 1272720,
    "name": "Dhoraji",
    "lat": 21.73359,
    "lng": 70.45004
  },
  {
    "id": 11522311,
    "name": "Vīrappanchathiram",
    "lat": 11.35314,
    "lng": 77.71253
  },
  {
    "id": 1277661,
    "name": "Bālāghāt",
    "lat": 21.8156,
    "lng": 80.18845
  },
  {
    "id": 1253956,
    "name": "Udhampur",
    "lat": 32.92431,
    "lng": 75.13573
  },
  {
    "id": 1262109,
    "name": "Najībābād",
    "lat": 29.61194,
    "lng": 78.34274
  },
  {
    "id": 11461652,
    "name": "Idaiyarpālaiyam",
    "lat": 11.03937,
    "lng": 76.92369
  },
  {
    "id": 1270349,
    "name": "Harihar",
    "lat": 14.51288,
    "lng": 75.80716
  },
  {
    "id": 10265161,
    "name": "Chilla Soroda Bāngar",
    "lat": 28.59572,
    "lng": 77.30189
  },
  {
    "id": 1256039,
    "name": "Sirsilla",
    "lat": 18.38865,
    "lng": 78.81048
  },
  {
    "id": 1267819,
    "name": "Karauli",
    "lat": 26.49831,
    "lng": 77.02755
  },
  {
    "id": 1263622,
    "name": "Mānsa",
    "lat": 29.98844,
    "lng": 75.40167
  },
  {
    "id": 1269247,
    "name": "Jangipur",
    "lat": 24.47001,
    "lng": 88.07659
  },
  {
    "id": 10733738,
    "name": "Gobindgarh",
    "lat": 30.67089,
    "lng": 76.30192
  },
  {
    "id": 11626023,
    "name": "Saunda",
    "lat": 23.66453,
    "lng": 85.32694
  },
  {
    "id": 13494723,
    "name": "Maraimalainagar",
    "lat": 12.79782,
    "lng": 80.02502
  },
  {
    "id": 1278297,
    "name": "Ashoknagar",
    "lat": 24.57578,
    "lng": 77.73123
  },
  {
    "id": 13156931,
    "name": "Phulwari Sharif",
    "lat": 25.57765,
    "lng": 85.07246
  },
  {
    "id": 1263080,
    "name": "Mhow",
    "lat": 22.5589,
    "lng": 75.76543
  },
  {
    "id": 1264138,
    "name": "Malout",
    "lat": 30.21121,
    "lng": 74.4818
  },
  {
    "id": 1268680,
    "name": "Kadi",
    "lat": 23.29908,
    "lng": 72.33362
  },
  {
    "id": 13157141,
    "name": "Vijalpor",
    "lat": 20.92212,
    "lng": 72.90945
  },
  {
    "id": 1260792,
    "name": "Palakollu",
    "lat": 16.5167,
    "lng": 81.73
  },
  {
    "id": 1270099,
    "name": "Himatnagar",
    "lat": 23.59893,
    "lng": 72.96602
  },
  {
    "id": 1272733,
    "name": "Dholka",
    "lat": 22.72732,
    "lng": 72.44128
  },
  {
    "id": 7279734,
    "name": "Kotkapura",
    "lat": 30.5819,
    "lng": 74.83298
  },
  {
    "id": 1276988,
    "name": "Bargarh",
    "lat": 21.33348,
    "lng": 83.61905
  },
  {
    "id": 8133395,
    "name": "Kharghar",
    "lat": 19.04979,
    "lng": 73.07024
  },
  {
    "id": 1268601,
    "name": "Kairāna",
    "lat": 29.39541,
    "lng": 77.2054
  },
  {
    "id": 1275194,
    "name": "Brajarajnagar",
    "lat": 21.81667,
    "lng": 83.91667
  },
  {
    "id": 1268259,
    "name": "Kāmāreddi",
    "lat": 18.32001,
    "lng": 78.34177
  },
  {
    "id": 7302847,
    "name": "Palwancha",
    "lat": 17.58152,
    "lng": 80.67651
  },
  {
    "id": 1263664,
    "name": "Manmād",
    "lat": 20.25334,
    "lng": 74.43755
  },
  {
    "id": 9408449,
    "name": "Srikalahasti",
    "lat": 13.75514,
    "lng": 79.70143
  },
  {
    "id": 1265938,
    "name": "Kottagūdem",
    "lat": 17.55106,
    "lng": 80.61779
  },
  {
    "id": 1261641,
    "name": "Nawābganj",
    "lat": 26.93129,
    "lng": 81.19841
  },
  {
    "id": 1271067,
    "name": "Gokak",
    "lat": 16.16901,
    "lng": 74.82393
  },
  {
    "id": 1254534,
    "name": "Tīkamgarh",
    "lat": 24.74327,
    "lng": 78.83061
  },
  {
    "id": 1278471,
    "name": "Arakkonam",
    "lat": 13.08449,
    "lng": 79.67053
  },
  {
    "id": 1278446,
    "name": "Arāria",
    "lat": 26.14934,
    "lng": 87.51323
  },
  {
    "id": 1266436,
    "name": "Koch Bihār",
    "lat": 26.32539,
    "lng": 89.44508
  },
  {
    "id": 1266966,
    "name": "Kharakvasla",
    "lat": 18.43997,
    "lng": 73.77545
  },
  {
    "id": 1276335,
    "name": "Bhadohi",
    "lat": 25.39526,
    "lng": 82.5703
  },
  {
    "id": 1267457,
    "name": "Kātoya",
    "lat": 23.64558,
    "lng": 88.13258
  },
  {
    "id": 1273626,
    "name": "Medininagar",
    "lat": 24.03971,
    "lng": 84.0658
  },
  {
    "id": 1252908,
    "name": "Wāshīm",
    "lat": 20.11128,
    "lng": 77.133
  },
  {
    "id": 11184254,
    "name": "Bagbera",
    "lat": 22.75948,
    "lng": 86.19049
  },
  {
    "id": 11184442,
    "name": "Savarkundla",
    "lat": 21.33726,
    "lng": 71.3035
  },
  {
    "id": 1276752,
    "name": "Basoda",
    "lat": 23.85153,
    "lng": 77.93652
  },
  {
    "id": 1254953,
    "name": "Tanuku",
    "lat": 16.75438,
    "lng": 81.68143
  },
  {
    "id": 1270647,
    "name": "Gurdaspur",
    "lat": 32.03933,
    "lng": 75.40318
  },
  {
    "id": 11463772,
    "name": "Edattala",
    "lat": 10.05639,
    "lng": 76.38451
  },
  {
    "id": 1275391,
    "name": "Bodhan",
    "lat": 18.66208,
    "lng": 77.88581
  },
  {
    "id": 1277525,
    "name": "Balrāmpur",
    "lat": 27.42949,
    "lng": 82.18545
  },
  {
    "id": 1277085,
    "name": "Bāramūla",
    "lat": 34.209,
    "lng": 74.34285
  },
  {
    "id": 1267635,
    "name": "Karwar",
    "lat": 14.81361,
    "lng": 74.12972
  },
  {
    "id": 1272689,
    "name": "Dhuliān",
    "lat": 24.68127,
    "lng": 87.9535
  },
  {
    "id": 8740018,
    "name": "Rabkavi-Banhatti",
    "lat": 16.47,
    "lng": 75.12
  },
  {
    "id": 1263275,
    "name": "Mawāna",
    "lat": 29.10288,
    "lng": 77.92199
  },
  {
    "id": 1256475,
    "name": "Shirpur",
    "lat": 21.34821,
    "lng": 74.88035
  },
  {
    "id": 1277723,
    "name": "Budge Budge",
    "lat": 22.48275,
    "lng": 88.18176
  },
  {
    "id": 1265605,
    "name": "Kundla",
    "lat": 21.34222,
    "lng": 71.30633
  },
  {
    "id": 1253095,
    "name": "Visnagar",
    "lat": 23.69855,
    "lng": 72.5521
  },
  {
    "id": 1268011,
    "name": "Kannauj",
    "lat": 27.05524,
    "lng": 79.9188
  },
  {
    "id": 13157012,
    "name": "Khajoori Khas",
    "lat": 28.70958,
    "lng": 77.2587
  },
  {
    "id": 9212568,
    "name": "Neelankarai",
    "lat": 12.9495,
    "lng": 80.2592
  },
  {
    "id": 1262200,
    "name": "Nagīna",
    "lat": 29.44433,
    "lng": 78.43646
  },
  {
    "id": 1278023,
    "name": "Badagara",
    "lat": 11.59776,
    "lng": 75.58142
  },
  {
    "id": 1271891,
    "name": "Fazilka",
    "lat": 30.40207,
    "lng": 74.02836
  },
  {
    "id": 1258338,
    "name": "Ratnagiri",
    "lat": 16.99154,
    "lng": 73.31022
  },
  {
    "id": 1267227,
    "name": "Keshod",
    "lat": 21.30328,
    "lng": 70.24861
  },
  {
    "id": 1266179,
    "name": "Konnagar",
    "lat": 22.70508,
    "lng": 88.34446
  },
  {
    "id": 1274129,
    "name": "Chintamani",
    "lat": 13.40051,
    "lng": 78.05172
  },
  {
    "id": 1256207,
    "name": "Sindhnūr",
    "lat": 15.76983,
    "lng": 76.75581
  },
  {
    "id": 1264555,
    "name": "Madhubani",
    "lat": 26.35367,
    "lng": 86.07169
  },
  {
    "id": 1275388,
    "name": "Bodināyakkanūr",
    "lat": 10.01171,
    "lng": 77.34976
  },
  {
    "id": 1267195,
    "name": "Khadki",
    "lat": 18.5635,
    "lng": 73.85205
  },
  {
    "id": 1272701,
    "name": "Dhrāngadhra",
    "lat": 22.99167,
    "lng": 71.46793
  },
  {
    "id": 1254710,
    "name": "Tezpur",
    "lat": 26.63333,
    "lng": 92.8
  },
  {
    "id": 1255616,
    "name": "Srivilliputhur",
    "lat": 9.51272,
    "lng": 77.63369
  },
  {
    "id": 10400284,
    "name": "Benipur",
    "lat": 26.05509,
    "lng": 86.14557
  },
  {
    "id": 1260667,
    "name": "Pāloncha",
    "lat": 17.60184,
    "lng": 80.70509
  },
  {
    "id": 1269217,
    "name": "Jaora",
    "lat": 23.63783,
    "lng": 75.12711
  },
  {
    "id": 1254046,
    "name": "Tura",
    "lat": 25.51421,
    "lng": 90.20239
  },
  {
    "id": 1270791,
    "name": "Gūdūr",
    "lat": 14.15093,
    "lng": 79.8521
  },
  {
    "id": 1261772,
    "name": "Narnaul",
    "lat": 28.04444,
    "lng": 76.10833
  },
  {
    "id": 1277527,
    "name": "Balotra",
    "lat": 25.83242,
    "lng": 72.24
  },
  {
    "id": 1266960,
    "name": "Kharar",
    "lat": 30.74632,
    "lng": 76.64689
  },
  {
    "id": 1252822,
    "name": "Yadgir",
    "lat": 16.77007,
    "lng": 77.13755
  },
  {
    "id": 1270375,
    "name": "Harda",
    "lat": 22.34414,
    "lng": 77.09536
  },
  {
    "id": 1259680,
    "name": "Pilkhua",
    "lat": 28.71271,
    "lng": 77.656
  },
  {
    "id": 1278862,
    "name": "Ambājogāi",
    "lat": 18.73312,
    "lng": 76.38616
  },
  {
    "id": 10263097,
    "name": "Kāpas Herd",
    "lat": 28.52614,
    "lng": 77.08396
  },
  {
    "id": 1276574,
    "name": "Bela",
    "lat": 25.92058,
    "lng": 81.99629
  },
  {
    "id": 1259083,
    "name": "Rabkavi",
    "lat": 16.47567,
    "lng": 75.1106
  },
  {
    "id": 1276663,
    "name": "Bawāna",
    "lat": 28.7982,
    "lng": 77.03431
  },
  {
    "id": 1256755,
    "name": "Shāhābād",
    "lat": 27.6431,
    "lng": 79.9402
  },
  {
    "id": 8223970,
    "name": "Virudhachalam",
    "lat": 11.51497,
    "lng": 79.32824
  },
  {
    "id": 1274714,
    "name": "Chāndpur",
    "lat": 29.13489,
    "lng": 78.27187
  },
  {
    "id": 11522316,
    "name": "Kāsipālaiyam",
    "lat": 11.31984,
    "lng": 77.70971
  },
  {
    "id": 1256329,
    "name": "Sikandarābād",
    "lat": 28.45226,
    "lng": 77.70004
  },
  {
    "id": 1253113,
    "name": "Virudunagar",
    "lat": 9.58509,
    "lng": 77.95787
  },
  {
    "id": 1260040,
    "name": "Pattukkottai",
    "lat": 10.42358,
    "lng": 79.31949
  },
  {
    "id": 1259154,
    "name": "Pusad",
    "lat": 19.91274,
    "lng": 77.57838
  },
  {
    "id": 1254444,
    "name": "Tindivanam",
    "lat": 12.234,
    "lng": 79.65551
  },
  {
    "id": 1273992,
    "name": "Chopda",
    "lat": 21.24578,
    "lng": 75.29946
  },
  {
    "id": 1255121,
    "name": "Taliparamba",
    "lat": 12.04161,
    "lng": 75.35927
  },
  {
    "id": 1257431,
    "name": "Sangāreddi",
    "lat": 17.62477,
    "lng": 78.08669
  },
  {
    "id": 1260730,
    "name": "Pālghar",
    "lat": 19.69693,
    "lng": 72.76543
  },
  {
    "id": 1272873,
    "name": "Dharapuram",
    "lat": 10.73828,
    "lng": 77.53223
  },
  {
    "id": 1259994,
    "name": "Payyanur",
    "lat": 12.0935,
    "lng": 75.20249
  },
  {
    "id": 1256593,
    "name": "Sheopur",
    "lat": 25.66472,
    "lng": 76.69616
  },
  {
    "id": 1274641,
    "name": "Channapatna",
    "lat": 12.65143,
    "lng": 77.20672
  },
  {
    "id": 1259093,
    "name": "Koyilandy",
    "lat": 11.4381,
    "lng": 75.69306
  },
  {
    "id": 1271947,
    "name": "Farīdpur",
    "lat": 28.20997,
    "lng": 79.54149
  },
  {
    "id": 11184261,
    "name": "Barauni",
    "lat": 25.4709,
    "lng": 85.976
  },
  {
    "id": 1265863,
    "name": "Krishnagiri",
    "lat": 12.51921,
    "lng": 78.21382
  },
  {
    "id": 1255714,
    "name": "Sopur",
    "lat": 34.28671,
    "lng": 74.47228
  },
  {
    "id": 1258289,
    "name": "Rāyagada",
    "lat": 19.17132,
    "lng": 83.41428
  },
  {
    "id": 1252699,
    "name": "Zahirābād",
    "lat": 17.68138,
    "lng": 77.60743
  },
  {
    "id": 1266666,
    "name": "Khopoli",
    "lat": 18.78562,
    "lng": 73.34589
  },
  {
    "id": 1258366,
    "name": "Ratangarh",
    "lat": 28.08137,
    "lng": 74.61854
  },
  {
    "id": 1263504,
    "name": "Mārkāpur",
    "lat": 15.73534,
    "lng": 79.26848
  },
  {
    "id": 1275346,
    "name": "Bolpur",
    "lat": 23.66278,
    "lng": 87.69695
  },
  {
    "id": 1260607,
    "name": "Panjim",
    "lat": 15.49574,
    "lng": 73.82624
  },
  {
    "id": 1258546,
    "name": "Rānāghāt",
    "lat": 23.17623,
    "lng": 88.56667
  },
  {
    "id": 1277183,
    "name": "Bāpatla",
    "lat": 15.90422,
    "lng": 80.46743
  },
  {
    "id": 1271934,
    "name": "Fatehābād",
    "lat": 29.51525,
    "lng": 75.45554
  },
  {
    "id": 1276378,
    "name": "Beypore",
    "lat": 11.17151,
    "lng": 75.80611
  },
  {
    "id": 1266154,
    "name": "Koppal",
    "lat": 15.34522,
    "lng": 76.15478
  },
  {
    "id": 1277949,
    "name": "Badvel",
    "lat": 14.7451,
    "lng": 79.06288
  },
  {
    "id": 1273724,
    "name": "Dādri",
    "lat": 28.55257,
    "lng": 77.55403
  },
  {
    "id": 1254744,
    "name": "Thenkasi",
    "lat": 8.96003,
    "lng": 77.31525
  },
  {
    "id": 1255361,
    "name": "Suratgarh",
    "lat": 29.3215,
    "lng": 73.89979
  },
  {
    "id": 1278152,
    "name": "Auraiya",
    "lat": 26.46517,
    "lng": 79.50918
  },
  {
    "id": 1260671,
    "name": "Palani",
    "lat": 10.45034,
    "lng": 77.5209
  },
  {
    "id": 11520454,
    "name": "Nallūr",
    "lat": 11.1003,
    "lng": 77.39136
  },
  {
    "id": 1274821,
    "name": "Chamrajnagar",
    "lat": 11.92312,
    "lng": 76.93949
  },
  {
    "id": 10265943,
    "name": "Mīthepur",
    "lat": 28.4974,
    "lng": 77.31856
  },
  {
    "id": 1263752,
    "name": "Māngrol",
    "lat": 21.12268,
    "lng": 70.11484
  },
  {
    "id": 1276783,
    "name": "Basavakalyan",
    "lat": 17.87445,
    "lng": 76.94972
  },
  {
    "id": 13157011,
    "name": "Pul Pehlad",
    "lat": 28.49938,
    "lng": 77.29104
  },
  {
    "id": 1274928,
    "name": "Chāībāsa",
    "lat": 22.55038,
    "lng": 85.80249
  },
  {
    "id": 1254170,
    "name": "Tripunittura",
    "lat": 9.94283,
    "lng": 76.33331
  },
  {
    "id": 1256693,
    "name": "Shājāpur",
    "lat": 23.42637,
    "lng": 76.27775
  },
  {
    "id": 1263103,
    "name": "Mettupalayam",
    "lat": 11.29971,
    "lng": 76.93485
  },
  {
    "id": 1255449,
    "name": "Sunām",
    "lat": 30.12883,
    "lng": 75.79943
  },
  {
    "id": 1276023,
    "name": "Bhawānipatna",
    "lat": 19.90717,
    "lng": 83.16697
  },
  {
    "id": 13157010,
    "name": "Ziauddin Pur",
    "lat": 28.70873,
    "lng": 77.27654
  },
  {
    "id": 1269328,
    "name": "Jamkhandi",
    "lat": 16.50461,
    "lng": 75.29146
  },
  {
    "id": 1276757,
    "name": "Basmat",
    "lat": 19.32872,
    "lng": 77.15746
  },
  {
    "id": 13157009,
    "name": "Taj Pul",
    "lat": 28.49482,
    "lng": 77.30587
  },
  {
    "id": 1267360,
    "name": "Kayamkulam",
    "lat": 9.18173,
    "lng": 76.50093
  },
  {
    "id": 1272847,
    "name": "Dharmapuri",
    "lat": 12.1277,
    "lng": 78.15794
  },
  {
    "id": 1275481,
    "name": "Bīsalpur",
    "lat": 28.29253,
    "lng": 79.80472
  },
  {
    "id": 1278178,
    "name": "Attili",
    "lat": 16.7,
    "lng": 81.6
  },
  {
    "id": 1268246,
    "name": "Cumbum",
    "lat": 9.73647,
    "lng": 77.2847
  },
  {
    "id": 1262463,
    "name": "Munnar",
    "lat": 10.08818,
    "lng": 77.06239
  },
  {
    "id": 13157159,
    "name": "Panipat Taraf Makhdum Zadgan",
    "lat": 29.41607,
    "lng": 76.98831
  },
  {
    "id": 1262319,
    "name": "Nābha",
    "lat": 30.37577,
    "lng": 76.15292
  },
  {
    "id": 10894229,
    "name": "Bihāt",
    "lat": 25.42534,
    "lng": 86.02083
  },
  {
    "id": 1257551,
    "name": "Samāstipur",
    "lat": 25.86222,
    "lng": 85.77953
  },
  {
    "id": 1267853,
    "name": "Kāranja",
    "lat": 20.48273,
    "lng": 77.48857
  },
  {
    "id": 1255983,
    "name": "Sītāmarhi",
    "lat": 26.59357,
    "lng": 85.4906
  },
  {
    "id": 1258797,
    "name": "Rājsamand",
    "lat": 25.07145,
    "lng": 73.8798
  },
  {
    "id": 1264071,
    "name": "Malkāpur",
    "lat": 20.88555,
    "lng": 76.19932
  },
  {
    "id": 1262958,
    "name": "Modāsa",
    "lat": 23.46253,
    "lng": 73.29857
  },
  {
    "id": 1269507,
    "name": "Jaisalmer",
    "lat": 26.91763,
    "lng": 70.90387
  },
  {
    "id": 1275117,
    "name": "Buldāna",
    "lat": 20.52933,
    "lng": 76.18457
  },
  {
    "id": 1272780,
    "name": "Dhenkānāl",
    "lat": 20.65744,
    "lng": 85.59693
  },
  {
    "id": 1253676,
    "name": "Urun-Islāmpur",
    "lat": 17.05,
    "lng": 74.26667
  },
  {
    "id": 1270965,
    "name": "Gopālganj",
    "lat": 26.46734,
    "lng": 84.44041
  },
  {
    "id": 1275321,
    "name": "Bongaigaon",
    "lat": 26.47703,
    "lng": 90.55815
  },
  {
    "id": 1257436,
    "name": "Sangamner",
    "lat": 19.56784,
    "lng": 74.21154
  },
  {
    "id": 1270171,
    "name": "Hāveri",
    "lat": 14.79354,
    "lng": 75.40448
  },
  {
    "id": 1263659,
    "name": "Mannargudi",
    "lat": 10.66626,
    "lng": 79.45064
  },
  {
    "id": 1269027,
    "name": "Jhālāwār",
    "lat": 24.59633,
    "lng": 76.16499
  },
  {
    "id": 1254868,
    "name": "Tarn Taran",
    "lat": 31.45191,
    "lng": 74.92777
  },
  {
    "id": 1256377,
    "name": "Siddipet",
    "lat": 18.10483,
    "lng": 78.84858
  },
  {
    "id": 7302806,
    "name": "Bellampalli",
    "lat": 19.05577,
    "lng": 79.493
  },
  {
    "id": 7279597,
    "name": "Barbil",
    "lat": 22.10194,
    "lng": 85.37752
  },
  {
    "id": 1266124,
    "name": "Koratla",
    "lat": 18.82154,
    "lng": 78.71186
  },
  {
    "id": 1258128,
    "name": "Rishīkesh",
    "lat": 30.10778,
    "lng": 78.29255
  },
  {
    "id": 1270845,
    "name": "Goyerkāta",
    "lat": 26.69984,
    "lng": 89.02565
  },
  {
    "id": 7302829,
    "name": "Mandamarri",
    "lat": 18.96506,
    "lng": 79.47475
  },
  {
    "id": 1259263,
    "name": "Puliyankudi",
    "lat": 9.17489,
    "lng": 77.39799
  },
  {
    "id": 1260771,
    "name": "Palāsa",
    "lat": 18.77257,
    "lng": 84.41012
  },
  {
    "id": 1271079,
    "name": "Gohāna",
    "lat": 29.13777,
    "lng": 76.70247
  },
  {
    "id": 1259264,
    "name": "Pulivendla",
    "lat": 14.42139,
    "lng": 78.22502
  },
  {
    "id": 1274430,
    "name": "Chengalpattu",
    "lat": 12.69184,
    "lng": 79.97661
  },
  {
    "id": 13353691,
    "name": "Wadgaon Kolhati",
    "lat": 19.84307,
    "lng": 75.236
  },
  {
    "id": 1265331,
    "name": "Lādnūn",
    "lat": 27.65312,
    "lng": 74.39993
  },
  {
    "id": 1255396,
    "name": "Supaul",
    "lat": 26.11527,
    "lng": 86.59509
  },
  {
    "id": 1271670,
    "name": "Gangārāmpur",
    "lat": 25.40138,
    "lng": 88.52978
  },
  {
    "id": 1258740,
    "name": "Ramanathapuram",
    "lat": 9.37158,
    "lng": 78.83077
  },
  {
    "id": 1269564,
    "name": "Jagraon",
    "lat": 30.78783,
    "lng": 75.47391
  },
  {
    "id": 1256119,
    "name": "Sinnar",
    "lat": 19.84505,
    "lng": 73.99866
  },
  {
    "id": 1266162,
    "name": "Kopargaon",
    "lat": 19.88239,
    "lng": 74.47605
  },
  {
    "id": 1279003,
    "name": "Alīpur Duār",
    "lat": 26.4835,
    "lng": 89.52286
  },
  {
    "id": 1255004,
    "name": "Tandur",
    "lat": 17.24849,
    "lng": 77.57698
  },
  {
    "id": 1266849,
    "name": "Khatauli",
    "lat": 29.27844,
    "lng": 77.73302
  },
  {
    "id": 1466021,
    "name": "Vīrarāghavapuram",
    "lat": 13.07306,
    "lng": 80.10778
  },
  {
    "id": 1255955,
    "name": "Siuri",
    "lat": 23.90806,
    "lng": 87.52773
  },
  {
    "id": 6990539,
    "name": "Bīna",
    "lat": 24.17161,
    "lng": 78.18755
  },
  {
    "id": 1260707,
    "name": "Pālitāna",
    "lat": 21.52519,
    "lng": 71.82309
  },
  {
    "id": 1274496,
    "name": "Chaumu",
    "lat": 27.16955,
    "lng": 75.72226
  },
  {
    "id": 1270474,
    "name": "Hālol",
    "lat": 22.50321,
    "lng": 73.47242
  },
  {
    "id": 1266416,
    "name": "Kodār",
    "lat": 16.9985,
    "lng": 79.9656
  },
  {
    "id": 10689545,
    "name": "Bāngarda Chhota",
    "lat": 22.74354,
    "lng": 75.81448
  },
  {
    "id": 1255265,
    "name": "Tādepalle",
    "lat": 16.48333,
    "lng": 80.6
  },
  {
    "id": 1254354,
    "name": "Tirupattur",
    "lat": 12.49239,
    "lng": 78.56804
  },
  {
    "id": 7302830,
    "name": "Chinnachowk",
    "lat": 14.47516,
    "lng": 78.8354
  },
  {
    "id": 1275462,
    "name": "Bishnupur",
    "lat": 23.0738,
    "lng": 87.31991
  },
  {
    "id": 1278697,
    "name": "Āmūr",
    "lat": 18.79284,
    "lng": 78.27666
  },
  {
    "id": 1277814,
    "name": "Baheri",
    "lat": 28.77416,
    "lng": 79.4974
  },
  {
    "id": 1261613,
    "name": "Nawalgarh",
    "lat": 27.85161,
    "lng": 75.27384
  },
  {
    "id": 11664525,
    "name": "Ānaiyūr",
    "lat": 9.96152,
    "lng": 78.1118
  },
  {
    "id": 1265579,
    "name": "Kunnamkulam",
    "lat": 10.64667,
    "lng": 76.06695
  },
  {
    "id": 1259056,
    "name": "Rāghogarh",
    "lat": 24.44318,
    "lng": 77.19768
  },
  {
    "id": 1254274,
    "name": "Tohāna",
    "lat": 29.71332,
    "lng": 75.90441
  },
  {
    "id": 1269154,
    "name": "Jatani",
    "lat": 20.15975,
    "lng": 85.70742
  },
  {
    "id": 1278454,
    "name": "Arni",
    "lat": 12.66771,
    "lng": 79.28529
  },
  {
    "id": 1274243,
    "name": "Chik Ballāpur",
    "lat": 13.43512,
    "lng": 77.72787
  },
  {
    "id": 1272694,
    "name": "Dhubri",
    "lat": 26.01856,
    "lng": 89.98564
  },
  {
    "id": 1275230,
    "name": "Borsad",
    "lat": 22.40788,
    "lng": 72.89817
  },
  {
    "id": 1271819,
    "name": "Gadwāl",
    "lat": 16.23504,
    "lng": 77.79556
  },
  {
    "id": 1259704,
    "name": "Pidugurālla",
    "lat": 16.47926,
    "lng": 79.88632
  },
  {
    "id": 1256698,
    "name": "Sheikhpura",
    "lat": 25.13994,
    "lng": 85.84096
  },
  {
    "id": 1256047,
    "name": "Sirsi",
    "lat": 14.62072,
    "lng": 74.83554
  },
  {
    "id": 1261309,
    "name": "Nipāni",
    "lat": 16.399,
    "lng": 74.38285
  },
  {
    "id": 1274987,
    "name": "Kannur",
    "lat": 11.86752,
    "lng": 75.35763
  },
  {
    "id": 1276948,
    "name": "Bāri",
    "lat": 26.64661,
    "lng": 77.61634
  },
  {
    "id": 1261227,
    "name": "Nokha",
    "lat": 27.56155,
    "lng": 73.47141
  },
  {
    "id": 1253150,
    "name": "Vinukonda",
    "lat": 16.0531,
    "lng": 79.73964
  },
  {
    "id": 1258207,
    "name": "Renukūt",
    "lat": 24.21641,
    "lng": 83.0358
  },
  {
    "id": 1262240,
    "name": "Nagari",
    "lat": 13.32139,
    "lng": 79.58557
  },
  {
    "id": 1274256,
    "name": "Chidambaram",
    "lat": 11.39933,
    "lng": 79.69144
  },
  {
    "id": 1273745,
    "name": "Dabwāli",
    "lat": 29.94906,
    "lng": 74.73832
  },
  {
    "id": 1256388,
    "name": "Sibsāgar",
    "lat": 26.98427,
    "lng": 94.63784
  },
  {
    "id": 1261739,
    "name": "Narwāna",
    "lat": 29.59903,
    "lng": 76.11927
  },
  {
    "id": 1261066,
    "name": "Okha",
    "lat": 22.46756,
    "lng": 69.07002
  },
  {
    "id": 1265828,
    "name": "Kuchāman",
    "lat": 27.14745,
    "lng": 74.85655
  },
  {
    "id": 1261369,
    "name": "Nīmbāhera",
    "lat": 24.62166,
    "lng": 74.67999
  },
  {
    "id": 1256382,
    "name": "Siddhapur",
    "lat": 23.91783,
    "lng": 72.37212
  },
  {
    "id": 1272525,
    "name": "Diphu",
    "lat": 25.84341,
    "lng": 93.43116
  },
  {
    "id": 1278173,
    "name": "Attur",
    "lat": 11.59414,
    "lng": 78.60143
  },
  {
    "id": 1258290,
    "name": "Rāyadrug",
    "lat": 14.69971,
    "lng": 76.85241
  },
  {
    "id": 1258352,
    "name": "Rāth",
    "lat": 25.59474,
    "lng": 79.5666
  },
  {
    "id": 13353585,
    "name": "Cheruvannur",
    "lat": 11.19033,
    "lng": 75.82833
  },
  {
    "id": 1253080,
    "name": "Vriddhāchalam",
    "lat": 11.5183,
    "lng": 79.32411
  },
  {
    "id": 1276977,
    "name": "Bārh",
    "lat": 25.48339,
    "lng": 85.70928
  },
  {
    "id": 1256750,
    "name": "Shāhāda",
    "lat": 21.54538,
    "lng": 74.47106
  },
  {
    "id": 1273751,
    "name": "Dabra",
    "lat": 25.88572,
    "lng": 78.33221
  },
  {
    "id": 1253944,
    "name": "Udumalaippettai",
    "lat": 10.58806,
    "lng": 77.24779
  },
  {
    "id": 1254420,
    "name": "Tiptūr",
    "lat": 13.2563,
    "lng": 76.47768
  },
  {
    "id": 1257800,
    "name": "Sahaswān",
    "lat": 28.07227,
    "lng": 78.75082
  },
  {
    "id": 1252956,
    "name": "Wanparti",
    "lat": 16.36738,
    "lng": 78.06889
  },
  {
    "id": 1256087,
    "name": "Sirhind",
    "lat": 30.64321,
    "lng": 76.38421
  },
  {
    "id": 1277022,
    "name": "Bārdoli",
    "lat": 21.12297,
    "lng": 73.11151
  },
  {
    "id": 1262852,
    "name": "Mokameh",
    "lat": 25.39662,
    "lng": 85.9219
  },
  {
    "id": 1278466,
    "name": "Arāmbāgh",
    "lat": 22.88333,
    "lng": 87.78333
  },
  {
    "id": 1259400,
    "name": "Poonamalle",
    "lat": 13.04888,
    "lng": 80.11488
  },
  {
    "id": 1267267,
    "name": "Keonjhargarh",
    "lat": 21.6318,
    "lng": 85.59686
  },
  {
    "id": 12503616,
    "name": "Bhadravati",
    "lat": 20.1001,
    "lng": 79.11442
  },
  {
    "id": 1260448,
    "name": "Panruti",
    "lat": 11.77662,
    "lng": 79.55269
  },
  {
    "id": 1269784,
    "name": "Ilkal",
    "lat": 15.95923,
    "lng": 76.11351
  },
  {
    "id": 1266509,
    "name": "Kīratpur",
    "lat": 29.50671,
    "lng": 78.20613
  },
  {
    "id": 1253079,
    "name": "Vrindāvan",
    "lat": 27.58105,
    "lng": 77.69662
  },
  {
    "id": 1266385,
    "name": "Kodungallūr",
    "lat": 10.23263,
    "lng": 76.19513
  },
  {
    "id": 1261553,
    "name": "Nedumangād",
    "lat": 8.60267,
    "lng": 77.00139
  },
  {
    "id": 1277322,
    "name": "Bangaon",
    "lat": 25.86728,
    "lng": 86.51152
  },
  {
    "id": 1261754,
    "name": "Narsimhapur",
    "lat": 22.94936,
    "lng": 79.18357
  },
  {
    "id": 7302844,
    "name": "Ponnur",
    "lat": 16.07114,
    "lng": 80.54944
  },
  {
    "id": 1267486,
    "name": "Kathua",
    "lat": 32.36941,
    "lng": 75.52539
  },
  {
    "id": 1261181,
    "name": "North Lakhimpur",
    "lat": 27.23517,
    "lng": 94.10357
  },
  {
    "id": 1263427,
    "name": "Masaurhi Buzurg",
    "lat": 25.35417,
    "lng": 85.03195
  },
  {
    "id": 1466012,
    "name": "Nerkunram",
    "lat": 13.06194,
    "lng": 80.20944
  },
  {
    "id": 1256620,
    "name": "Shegaon",
    "lat": 20.7932,
    "lng": 76.69921
  },
  {
    "id": 7279752,
    "name": "Mandideep",
    "lat": 23.08166,
    "lng": 77.53328
  },
  {
    "id": 1260959,
    "name": "Pāchora",
    "lat": 20.66727,
    "lng": 75.35305
  },
  {
    "id": 1270947,
    "name": "Gobichettipalayam",
    "lat": 11.45496,
    "lng": 77.4422
  },
  {
    "id": 1271644,
    "name": "Gangoh",
    "lat": 29.78004,
    "lng": 77.26346
  },
  {
    "id": 1269655,
    "name": "Itanagar",
    "lat": 27.08694,
    "lng": 93.60987
  },
  {
    "id": 10265191,
    "name": "Jaitpur",
    "lat": 28.50647,
    "lng": 77.32976
  },
  {
    "id": 1261852,
    "name": "Narasapur",
    "lat": 16.43425,
    "lng": 81.69845
  },
  {
    "id": 1272722,
    "name": "Dhone",
    "lat": 15.3952,
    "lng": 77.8715
  },
  {
    "id": 1258868,
    "name": "Rājgarh",
    "lat": 28.64201,
    "lng": 75.38612
  },
  {
    "id": 1253888,
    "name": "Ullal",
    "lat": 12.80569,
    "lng": 74.86058
  },
  {
    "id": 1260454,
    "name": "Panna",
    "lat": 24.72094,
    "lng": 80.18772
  },
  {
    "id": 1271049,
    "name": "Gola Gokarannāth",
    "lat": 28.07837,
    "lng": 80.47054
  },
  {
    "id": 1271083,
    "name": "Gohad",
    "lat": 26.43278,
    "lng": 78.44205
  },
  {
    "id": 1252960,
    "name": "Wani",
    "lat": 20.05507,
    "lng": 78.95313
  },
  {
    "id": 1254589,
    "name": "Thiruvarur",
    "lat": 10.77269,
    "lng": 79.6368
  },
  {
    "id": 1253736,
    "name": "Upleta",
    "lat": 21.74015,
    "lng": 70.28256
  },
  {
    "id": 1261110,
    "name": "Nūzvīd",
    "lat": 16.78854,
    "lng": 80.84593
  },
  {
    "id": 1264793,
    "name": "Lonavla",
    "lat": 18.75275,
    "lng": 73.40575
  },
  {
    "id": 1253783,
    "name": "Una",
    "lat": 20.82318,
    "lng": 71.03795
  },
  {
    "id": 1256269,
    "name": "Sillod",
    "lat": 20.30303,
    "lng": 75.65284
  },
  {
    "id": 1256104,
    "name": "Sīra",
    "lat": 13.74155,
    "lng": 76.9043
  },
  {
    "id": 1274237,
    "name": "Chikhli",
    "lat": 20.35046,
    "lng": 76.25774
  },
  {
    "id": 1268990,
    "name": "Jhārgrām",
    "lat": 22.45384,
    "lng": 86.99497
  },
  {
    "id": 8541672,
    "name": "Kagaznāgār",
    "lat": 19.33159,
    "lng": 79.46605
  },
  {
    "id": 1276084,
    "name": "Bhātāpāra",
    "lat": 21.735,
    "lng": 81.94711
  },
  {
    "id": 1267573,
    "name": "Kāsībugga",
    "lat": 18.75927,
    "lng": 84.41613
  },
  {
    "id": 1270251,
    "name": "Hasanpur",
    "lat": 28.72249,
    "lng": 78.28436
  },
  {
    "id": 1264839,
    "name": "Lohārdagā",
    "lat": 23.43305,
    "lng": 84.67992
  },
  {
    "id": 1269551,
    "name": "Jahāngīrābād",
    "lat": 28.40549,
    "lng": 78.10588
  },
  {
    "id": 1256569,
    "name": "Sherkot",
    "lat": 29.32704,
    "lng": 78.57429
  },
  {
    "id": 1267439,
    "name": "Kātrās",
    "lat": 23.79752,
    "lng": 86.29834
  },
  {
    "id": 1264647,
    "name": "Mācherla",
    "lat": 16.47635,
    "lng": 79.43533
  },
  {
    "id": 1262092,
    "name": "Naksalbāri",
    "lat": 26.6827,
    "lng": 88.22001
  },
  {
    "id": 1257379,
    "name": "Sankarankovil",
    "lat": 9.17048,
    "lng": 77.54107
  },
  {
    "id": 1262562,
    "name": "Mulbāgal",
    "lat": 13.16352,
    "lng": 78.39346
  },
  {
    "id": 1268111,
    "name": "Kandukūr",
    "lat": 15.21542,
    "lng": 79.9039
  },
  {
    "id": 1254335,
    "name": "Tiruvalla",
    "lat": 9.3816,
    "lng": 76.57489
  },
  {
    "id": 1443381,
    "name": "Roshanpura",
    "lat": 28.60057,
    "lng": 76.98918
  },
  {
    "id": 1259408,
    "name": "Ponnūru",
    "lat": 16.06547,
    "lng": 80.55203
  },
  {
    "id": 1266267,
    "name": "Kollegāl",
    "lat": 12.15449,
    "lng": 77.11051
  },
  {
    "id": 10263165,
    "name": "Mukandpur",
    "lat": 28.73944,
    "lng": 77.18315
  },
  {
    "id": 1253750,
    "name": "Unjha",
    "lat": 23.80366,
    "lng": 72.39101
  },
  {
    "id": 1274315,
    "name": "Chhibrāmau",
    "lat": 27.14872,
    "lng": 79.50078
  },
  {
    "id": 1254481,
    "name": "Tilhar",
    "lat": 27.96282,
    "lng": 79.73827
  },
  {
    "id": 1264688,
    "name": "Lunglei",
    "lat": 22.89247,
    "lng": 92.74218
  },
  {
    "id": 1269936,
    "name": "Hoskote",
    "lat": 13.0707,
    "lng": 77.79814
  },
  {
    "id": 12522807,
    "name": "Byasanagar",
    "lat": 20.95569,
    "lng": 86.12643
  },
  {
    "id": 1278026,
    "name": "Bada Barabīl",
    "lat": 22.11186,
    "lng": 85.38684
  },
  {
    "id": 1257565,
    "name": "Sāmalkot",
    "lat": 17.05675,
    "lng": 82.17639
  },
  {
    "id": 1267758,
    "name": "Karīmganj",
    "lat": 24.86919,
    "lng": 92.35543
  },
  {
    "id": 1275406,
    "name": "Bobbili",
    "lat": 18.57366,
    "lng": 83.35925
  },
  {
    "id": 1263101,
    "name": "Mettur",
    "lat": 11.78796,
    "lng": 77.8008
  },
  {
    "id": 1257001,
    "name": "Sattenapalle",
    "lat": 16.39381,
    "lng": 80.15221
  },
  {
    "id": 1254345,
    "name": "Tirūrangādi",
    "lat": 11.04316,
    "lng": 75.92337
  },
  {
    "id": 10929901,
    "name": "Tennala",
    "lat": 10.99342,
    "lng": 75.93504
  },
  {
    "id": 1274890,
    "name": "Chakradharpur",
    "lat": 22.67611,
    "lng": 85.62892
  },
  {
    "id": 1256854,
    "name": "Sendhwa",
    "lat": 21.68562,
    "lng": 75.09622
  },
  {
    "id": 1255134,
    "name": "Talegaon Dābhāde",
    "lat": 18.73502,
    "lng": 73.67561
  },
  {
    "id": 1270032,
    "name": "Hiriyūr",
    "lat": 13.94455,
    "lng": 76.61723
  },
  {
    "id": 1278580,
    "name": "Anjangaon",
    "lat": 21.16516,
    "lng": 77.3091
  },
  {
    "id": 1274571,
    "name": "Charkhi Dādri",
    "lat": 28.59166,
    "lng": 76.27161
  },
  {
    "id": 1253918,
    "name": "Ujhāni",
    "lat": 28.00311,
    "lng": 79.00821
  },
  {
    "id": 1348747,
    "name": "Bankra",
    "lat": 22.60291,
    "lng": 88.27751
  },
  {
    "id": 1273766,
    "name": "Dabhoi",
    "lat": 22.18333,
    "lng": 73.43333
  },
  {
    "id": 1254813,
    "name": "Teghra",
    "lat": 25.49043,
    "lng": 85.94001
  },
  {
    "id": 1261086,
    "name": "Obra",
    "lat": 24.41863,
    "lng": 82.98797
  },
  {
    "id": 1254331,
    "name": "Tiruvallur",
    "lat": 13.14376,
    "lng": 79.90889
  },
  {
    "id": 1263898,
    "name": "Mandapeta",
    "lat": 16.86254,
    "lng": 81.92921
  },
  {
    "id": 1254346,
    "name": "Tirur",
    "lat": 10.91368,
    "lng": 75.92118
  },
  {
    "id": 1257951,
    "name": "Ropar",
    "lat": 30.96896,
    "lng": 76.52695
  },
  {
    "id": 1262039,
    "name": "Nāmakkal",
    "lat": 11.22126,
    "lng": 78.16524
  },
  {
    "id": 1278432,
    "name": "Arcot",
    "lat": 12.90569,
    "lng": 79.31897
  },
  {
    "id": 1265310,
    "name": "Lāharpur",
    "lat": 27.70827,
    "lng": 80.90256
  },
  {
    "id": 1253143,
    "name": "Viramgām",
    "lat": 23.12564,
    "lng": 72.05014
  },
  {
    "id": 1269665,
    "name": "Islāmpur",
    "lat": 26.26541,
    "lng": 88.18982
  },
  {
    "id": 1267904,
    "name": "Karād",
    "lat": 17.28937,
    "lng": 74.18183
  },
  {
    "id": 1252795,
    "name": "Yanam",
    "lat": 16.73308,
    "lng": 82.21364
  },
  {
    "id": 1279394,
    "name": "Ābu Road",
    "lat": 24.48012,
    "lng": 72.78186
  },
  {
    "id": 1258294,
    "name": "Raxaul",
    "lat": 26.97982,
    "lng": 84.85065
  },
  {
    "id": 13353584,
    "name": "Moonniyur",
    "lat": 11.05972,
    "lng": 75.90311
  },
  {
    "id": 1276810,
    "name": "Barwāni",
    "lat": 22.03232,
    "lng": 74.89982
  },
  {
    "id": 1265911,
    "name": "Kottayam",
    "lat": 9.58692,
    "lng": 76.52132
  },
  {
    "id": 1254343,
    "name": "Tiruttangal",
    "lat": 9.48333,
    "lng": 77.83333
  },
  {
    "id": 1259841,
    "name": "Petlād",
    "lat": 22.47681,
    "lng": 72.79995
  },
  {
    "id": 1269422,
    "name": "Jālaun",
    "lat": 26.1451,
    "lng": 79.3366
  },
  {
    "id": 11522307,
    "name": "Periya Semūr",
    "lat": 11.36088,
    "lng": 77.68952
  },
  {
    "id": 1264551,
    "name": "Madhupur",
    "lat": 24.27419,
    "lng": 86.63929
  },
  {
    "id": 1272670,
    "name": "Dhūri",
    "lat": 30.36846,
    "lng": 75.86791
  },
  {
    "id": 1274862,
    "name": "Challakere",
    "lat": 14.318,
    "lng": 76.65165
  },
  {
    "id": 1275582,
    "name": "Etāwa",
    "lat": 24.18351,
    "lng": 78.20289
  },
  {
    "id": 1274119,
    "name": "Chiplūn",
    "lat": 17.53339,
    "lng": 73.50935
  },
  {
    "id": 1263852,
    "name": "Mandlā",
    "lat": 22.59879,
    "lng": 80.37115
  },
  {
    "id": 1275930,
    "name": "Bhīmunipatnam",
    "lat": 17.89017,
    "lng": 83.45203
  },
  {
    "id": 12523250,
    "name": "Mawlai-Mawïong",
    "lat": 25.62322,
    "lng": 91.88175
  },
  {
    "id": 1465873,
    "name": "Kavanur",
    "lat": 12.99623,
    "lng": 80.07514
  },
  {
    "id": 1259508,
    "name": "Pithāpuram",
    "lat": 17.1168,
    "lng": 82.25284
  },
  {
    "id": 1268135,
    "name": "Kāndi",
    "lat": 23.95946,
    "lng": 88.04018
  },
  {
    "id": 1269819,
    "name": "Idappadi",
    "lat": 11.58624,
    "lng": 77.83891
  },
  {
    "id": 10263162,
    "name": "Sāhibābād Daulotpur",
    "lat": 28.74705,
    "lng": 77.11465
  },
  {
    "id": 1259228,
    "name": "Punganūru",
    "lat": 13.36672,
    "lng": 78.57186
  },
  {
    "id": 1271346,
    "name": "Ghātāl",
    "lat": 22.66244,
    "lng": 87.73399
  },
  {
    "id": 1257851,
    "name": "Sāgar",
    "lat": 14.16498,
    "lng": 75.02901
  },
  {
    "id": 1256343,
    "name": "Sihor",
    "lat": 21.71134,
    "lng": 71.96179
  },
  {
    "id": 10263053,
    "name": "Mūndka",
    "lat": 28.68012,
    "lng": 77.02975
  },
  {
    "id": 1272606,
    "name": "Deglur",
    "lat": 18.54829,
    "lng": 77.57695
  },
  {
    "id": 1264570,
    "name": "Madhepura",
    "lat": 25.92127,
    "lng": 86.79271
  },
  {
    "id": 1277091,
    "name": "Bārāmati",
    "lat": 18.15174,
    "lng": 74.57767
  },
  {
    "id": 1264414,
    "name": "Mahāsamund",
    "lat": 21.10743,
    "lng": 82.0948
  },
  {
    "id": 1256369,
    "name": "Sidhi",
    "lat": 24.4038,
    "lng": 81.87954
  },
  {
    "id": 1267616,
    "name": "Kāsaragod",
    "lat": 12.49838,
    "lng": 74.98959
  },
  {
    "id": 1271558,
    "name": "Garhchiroli",
    "lat": 20.18061,
    "lng": 80.00522
  },
  {
    "id": 1259123,
    "name": "Puttūr",
    "lat": 13.44189,
    "lng": 79.55314
  },
  {
    "id": 1269392,
    "name": "Jalor",
    "lat": 25.34558,
    "lng": 72.61559
  },
  {
    "id": 1257559,
    "name": "Samāna",
    "lat": 30.15395,
    "lng": 76.19851
  },
  {
    "id": 1258922,
    "name": "Rāzampeta",
    "lat": 14.19544,
    "lng": 79.15896
  },
  {
    "id": 10469921,
    "name": "Wāri",
    "lat": 21.15313,
    "lng": 79.0076
  },
  {
    "id": 1260674,
    "name": "Palmaner",
    "lat": 13.2,
    "lng": 78.74725
  },
  {
    "id": 1273232,
    "name": "Deolāli",
    "lat": 19.94404,
    "lng": 73.83441
  },
  {
    "id": 1268189,
    "name": "Kanakapura",
    "lat": 12.54654,
    "lng": 77.42005
  },
  {
    "id": 1252840,
    "name": "Wokha",
    "lat": 26.09717,
    "lng": 94.25817
  },
  {
    "id": 1253807,
    "name": "Umred",
    "lat": 20.85396,
    "lng": 79.32466
  },
  {
    "id": 1268341,
    "name": "Kālna",
    "lat": 23.21944,
    "lng": 88.36295
  },
  {
    "id": 13353583,
    "name": "Pallichal",
    "lat": 8.44976,
    "lng": 77.02573
  },
  {
    "id": 11657313,
    "name": "Tāndoni",
    "lat": 10.92611,
    "lng": 78.0941
  },
  {
    "id": 1260222,
    "name": "Pārvatipuram",
    "lat": 18.78392,
    "lng": 83.42569
  },
  {
    "id": 1265989,
    "name": "Kotharia",
    "lat": 22.23436,
    "lng": 70.81903
  },
  {
    "id": 1261008,
    "name": "Ottapalam",
    "lat": 10.7735,
    "lng": 76.37758
  },
  {
    "id": 1272640,
    "name": "Dīdwāna",
    "lat": 27.40096,
    "lng": 74.57537
  },
  {
    "id": 10263049,
    "name": "Begampur",
    "lat": 28.72655,
    "lng": 77.06689
  },
  {
    "id": 7302810,
    "name": "Gaddi Annaram",
    "lat": 17.36687,
    "lng": 78.5242
  },
  {
    "id": 1272225,
    "name": "Dumraon",
    "lat": 25.55265,
    "lng": 84.15149
  },
  {
    "id": 11520202,
    "name": "Nerupperichchal",
    "lat": 11.16105,
    "lng": 77.37398
  },
  {
    "id": 13156777,
    "name": "Jaggaiahpet",
    "lat": 16.89155,
    "lng": 80.09551
  },
  {
    "id": 1258581,
    "name": "Rampur Hat",
    "lat": 24.17737,
    "lng": 87.78275
  },
  {
    "id": 13494731,
    "name": "Khanapuram Haveli",
    "lat": 17.26239,
    "lng": 80.16809
  },
  {
    "id": 1271151,
    "name": "Goālpāra",
    "lat": 26.17668,
    "lng": 90.62634
  },
  {
    "id": 1254054,
    "name": "Tuni",
    "lat": 17.35905,
    "lng": 82.54607
  },
  {
    "id": 1265354,
    "name": "Laxmangarh",
    "lat": 27.82294,
    "lng": 75.02754
  },
  {
    "id": 1256722,
    "name": "Shāhpur",
    "lat": 16.69605,
    "lng": 76.8422
  },
  {
    "id": 1275848,
    "name": "Bhongīr",
    "lat": 17.51544,
    "lng": 78.88563
  },
  {
    "id": 1259124,
    "name": "Puttūr",
    "lat": 12.75975,
    "lng": 75.20169
  },
  {
    "id": 1255654,
    "name": "Sri Dūngargarh",
    "lat": 28.09617,
    "lng": 74.00868
  },
  {
    "id": 1278094,
    "name": "Ayodhya",
    "lat": 26.79909,
    "lng": 82.2047
  },
  {
    "id": 1262678,
    "name": "Mubarakpur",
    "lat": 26.08866,
    "lng": 83.29088
  },
  {
    "id": 1278935,
    "name": "Amalāpuram",
    "lat": 16.57868,
    "lng": 82.00609
  },
  {
    "id": 1278354,
    "name": "Arsikere",
    "lat": 13.31446,
    "lng": 76.25704
  },
  {
    "id": 1259811,
    "name": "Phaltan",
    "lat": 17.99113,
    "lng": 74.43177
  },
  {
    "id": 1278294,
    "name": "Ashta",
    "lat": 23.01754,
    "lng": 76.72208
  },
  {
    "id": 1257459,
    "name": "Sandīla",
    "lat": 27.06989,
    "lng": 80.51497
  },
  {
    "id": 1253182,
    "name": "Vikārābād",
    "lat": 17.3381,
    "lng": 77.90441
  },
  {
    "id": 1276832,
    "name": "Baruipur",
    "lat": 22.36544,
    "lng": 88.4325
  },
  {
    "id": 10281812,
    "name": "Choudwar",
    "lat": 20.53917,
    "lng": 85.91512
  },
  {
    "id": 1256759,
    "name": "Shāhābād",
    "lat": 17.1307,
    "lng": 76.94361
  },
  {
    "id": 8439888,
    "name": "Sultānganj",
    "lat": 25.23831,
    "lng": 86.73559
  },
  {
    "id": 1263859,
    "name": "Mandi Dabwāli",
    "lat": 29.96633,
    "lng": 74.70025
  },
  {
    "id": 1266217,
    "name": "Konch",
    "lat": 25.99451,
    "lng": 79.15127
  },
  {
    "id": 10263061,
    "name": "Bāprola",
    "lat": 28.64133,
    "lng": 77.01415
  },
  {
    "id": 1253251,
    "name": "Venkatagiri",
    "lat": 13.96005,
    "lng": 79.58032
  },
  {
    "id": 1273770,
    "name": "Dabhel",
    "lat": 20.40953,
    "lng": 72.88339
  },
  {
    "id": 1275435,
    "name": "Biswān",
    "lat": 27.49581,
    "lng": 80.99618
  },
  {
    "id": 1266073,
    "name": "Kosi",
    "lat": 27.79449,
    "lng": 77.4368
  },
  {
    "id": 1256029,
    "name": "Siruguppa",
    "lat": 15.63,
    "lng": 76.89217
  },
  {
    "id": 1256064,
    "name": "Sironj",
    "lat": 24.10313,
    "lng": 77.69055
  },
  {
    "id": 1269256,
    "name": "Jangaon",
    "lat": 17.72602,
    "lng": 79.15236
  },
  {
    "id": 1273390,
    "name": "Daudnagar",
    "lat": 25.03473,
    "lng": 84.40095
  },
  {
    "id": 13494722,
    "name": "Ramapuram",
    "lat": 13.03179,
    "lng": 80.18243
  },
  {
    "id": 1273574,
    "name": "Dandeli",
    "lat": 15.26667,
    "lng": 74.61667
  },
  {
    "id": 1262663,
    "name": "Mudhol",
    "lat": 16.33354,
    "lng": 75.28305
  },
  {
    "id": 9072827,
    "name": "Thodupuzha",
    "lat": 9.89394,
    "lng": 76.72216
  },
  {
    "id": 1273128,
    "name": "Devakottai",
    "lat": 9.94704,
    "lng": 78.8233
  },
  {
    "id": 1278334,
    "name": "Arwal",
    "lat": 25.24281,
    "lng": 84.66571
  },
  {
    "id": 1268383,
    "name": "Kāliyāganj",
    "lat": 25.63442,
    "lng": 88.32665
  },
  {
    "id": 1261727,
    "name": "Nasīrābād",
    "lat": 26.30473,
    "lng": 74.73364
  },
  {
    "id": 1267187,
    "name": "Khagaul",
    "lat": 25.57898,
    "lng": 85.04564
  },
  {
    "id": 1274664,
    "name": "Changanācheri",
    "lat": 9.44203,
    "lng": 76.53604
  },
  {
    "id": 1256431,
    "name": "Shorāpur",
    "lat": 16.521,
    "lng": 76.75738
  },
  {
    "id": 1263824,
    "name": "Māndvi",
    "lat": 22.83282,
    "lng": 69.35237
  },
  {
    "id": 8741053,
    "name": "Rajgangpur",
    "lat": 22.2,
    "lng": 84.583
  },
  {
    "id": 1261068,
    "name": "Ozar",
    "lat": 20.09473,
    "lng": 73.92816
  },
  {
    "id": 1259892,
    "name": "Peranāmpattu",
    "lat": 12.9343,
    "lng": 78.7189
  },
  {
    "id": 1270722,
    "name": "Gumlā",
    "lat": 23.04268,
    "lng": 84.54429
  },