[
  {
    "id": 3413829,
    "name": "Reykjavík",
    "lat": 64.13548,
    "lng": -21.89541
  },
  {
    "id": 3415212,
    "name": "Kópavogur",
    "lat": 64.11234,
    "lng": -21.91298
  },
  {
    "id": 3416706,
    "name": "Hafnarfjörður",
    "lat": 64.0671,
    "lng": -21.93774
  },
  {
    "id": 8644037,
    "name": "Reykjanesbær",
    "lat": 63.99813,
    "lng": -22.56111
  },
  {
    "id": 2633274,
    "name": "Akureyri",
    "lat": 65.68353,
    "lng": -18.0878
  },
  {
    "id": 3415496,
    "name": "Keflavík",
    "lat": 64.00492,
    "lng": -22.56242
  }
]