[
  {
    "id": 3413829,
    "name": "Reykjavík",
    "lat": 64.13548,
    "lng": -21.89541
  },
  {
    "id": 3415212,
    "name": "Kópavogur",
    "lat": 64.11234,
    "lng": -21.91298
  },
  {
    "id": 3416706,
    "name": "Hafnarfjörður",
    "lat": 64.0671,
    "lng": -21.93774
  },
  {
    "id": 8644037,
    "name": "Reykjanesbær",
    "lat": 63.99813,
    "lng": -22.56111
  },
  {
    "id": 2633274,
    "name": "Akureyri",
    "lat": 65.68353,
    "lng": -18.0878
  },
  {
    "id": 3415496,
    "name": "Keflavík",
    "lat": 64.00492,
    "lng": -22.56242
  },
  {
    "id": 3415021,
    "name": "Mosfellsbær",
    "lat": 64.16667,
    "lng": -21.7
  },
  {
    "id": 3417195,
    "name": "Garðabær",
    "lat": 64.08865,
    "lng": -21.92298
  },
  {
    "id": 3413604,
    "name": "Selfoss",
    "lat": 63.93311,
    "lng": -20.99712
  },
  {
    "id": 3418653,
    "name": "Akranes",
    "lat": 64.32179,
    "lng": -22.0749
  },
  {
    "id": 3414979,
    "name": "Seltjarnarnes",
    "lat": 64.15309,
    "lng": -21.99499
  },
  {
    "id": 3412093,
    "name": "Vestmannaeyjar",
    "lat": 63.44273,
    "lng": -20.27339
  },
  {
    "id": 3416888,
    "name": "Grindavík",
    "lat": 63.83849,
    "lng": -22.43931
  },
  {
    "id": 3415667,
    "name": "Ísafjörður",
    "lat": 66.07475,
    "lng": -23.13498
  },
  {
    "id": 2627309,
    "name": "Sauðárkrókur",
    "lat": 65.74611,
    "lng": -19.63944
  },
  {
    "id": 2632132,
    "name": "Egilsstaðir",
    "lat": 65.26687,
    "lng": -14.39485
  },
  {
    "id": 3417972,
    "name": "Álftanes",
    "lat": 64.1,
    "lng": -22.01667
  },
  {
    "id": 3415761,
    "name": "Hveragerði",
    "lat": 64.00039,
    "lng": -21.18602
  },
  {
    "id": 2629833,
    "name": "Norðurþing",
    "lat": 66.04148,
    "lng": -17.33834
  },
  {
    "id": 3412589,
    "name": "Þorlákshöfn",
    "lat": 63.85591,
    "lng": -21.38337
  },
  {
    "id": 11258566,
    "name": "Borgarnes",
    "lat": 64.56219,
    "lng": -21.90082
  },
  {
    "id": 3418076,
    "name": "Borgarnes",
    "lat": 64.53834,
    "lng": -21.92064
  },
  {
    "id": 2630299,
    "name": "Höfn",
    "lat": 64.25388,
    "lng": -15.21212
  },
  {
    "id": 3413727,
    "name": "Sandgerði",
    "lat": 64.03762,
    "lng": -22.70799
  },
  {
    "id": 2628020,
    "name": "Neskaupstaður",
    "lat": 65.14819,
    "lng": -13.68368
  },
  {
    "id": 3417079,
    "name": "Garður",
    "lat": 64.07055,
    "lng": -22.6513
  },
  {
    "id": 2632287,
    "name": "Dalvík",
    "lat": 65.97018,
    "lng": -18.52861
  },
  {
    "id": 2627130,
    "name": "Siglufjörður",
    "lat": 66.15198,
    "lng": -18.90815
  },
  {
    "id": 2632428,
    "name": "Reyðarfjörður",
    "lat": 65.03164,
    "lng": -14.21832
  },
  {
    "id": 3412888,
    "name": "Stykkishólmur",
    "lat": 65.07537,
    "lng": -22.72977
  },
  {
    "id": 3415720,
    "name": "Hvolsvöllur",
    "lat": 63.75069,
    "lng": -20.22454
  },
  {
    "id": 3412011,
    "name": "Vogar",
    "lat": 63.9816,
    "lng": -22.38473
  },
  {
    "id": 2632028,
    "name": "Eskifjörður",
    "lat": 65.07306,
    "lng": -14.01525
  },
  {
    "id": 3414079,
    "name": "Ólafsvík",
    "lat": 64.89429,
    "lng": -23.70918
  },
  {
    "id": 8643948,
    "name": "Laugar",
    "lat": 65.72159,
    "lng": -17.37352
  },
  {
    "id": 3418112,
    "name": "Bolungarvík",
    "lat": 66.15917,
    "lng": -23.24941
  },
  {
    "id": 3416453,
    "name": "Hella",
    "lat": 63.8348,
    "lng": -20.40084
  },
  {
    "id": 3416839,
    "name": "Grundarfjörður",
    "lat": 64.92427,
    "lng": -23.26313
  },
  {
    "id": 6951090,
    "name": "Flúðir",
    "lat": 64.13428,
    "lng": -20.32265
  },
  {
    "id": 3418130,
    "name": "Blönduós",
    "lat": 65.65932,
    "lng": -20.28083
  },
  {
    "id": 2627843,
    "name": "Ólafsfjörður",
    "lat": 66.06722,
    "lng": -18.64399
  },
  {
    "id": 2625252,
    "name": "Vík í Mýrdal",
    "lat": 63.41944,
    "lng": -19.00972
  },
  {
    "id": 3412173,
    "name": "Patreksfjörður",
    "lat": 65.59783,
    "lng": -23.99596
  },
  {
    "id": 2627140,
    "name": "Seyðisfjörður",
    "lat": 65.26008,
    "lng": -14.00577
  },
  {
    "id": 2632418,
    "name": "Fáskrúðsfjörður",
    "lat": 64.93128,
    "lng": -14.0189
  },
  {
    "id": 3415811,
    "name": "Hvammstangi",
    "lat": 65.39711,
    "lng": -20.94346
  },
  {
    "id": 3416439,
    "name": "Hellissandur",
    "lat": 64.91757,
    "lng": -23.88557
  },
  {
    "id": 2625189,
    "name": "Vopnafjörður",
    "lat": 65.75658,
    "lng": -14.82777
  },
  {
    "id": 3417528,
    "name": "Eyrarbakki",
    "lat": 63.86323,
    "lng": -21.14915
  },
  {
    "id": 8643894,
    "name": "Grundarhverfi",
    "lat": 64.24058,
    "lng": -21.8367
  }
]