[
  {
    "id": 1528675,
    "name": "Bishkek",
    "lat": 42.87,
    "lng": 74.59
  },
  {
    "id": 1527534,
    "name": "Osh",
    "lat": 40.52828,
    "lng": 72.7985
  },
  {
    "id": 1528249,
    "name": "Jalal-Abad",
    "lat": 40.94498,
    "lng": 72.99313
  },
  {
    "id": 1528121,
    "name": "Karakol",
    "lat": 42.48918,
    "lng": 78.39355
  },
  {
    "id": 1527199,
    "name": "Tokmok",
    "lat": 42.84194,
    "lng": 75.30149
  },
  {
    "id": 1527513,
    "name": "Uzgen",
    "lat": 40.76994,
    "lng": 73.30068
  },
  {
    "id": 1528182,
    "name": "Kara-Balta",
    "lat": 42.81423,
    "lng": 73.84813
  },
  {
    "id": 1527004,
    "name": "Balykchy",
    "lat": 42.46017,
    "lng": 76.18709
  },
  {
    "id": 1527592,
    "name": "Naryn",
    "lat": 41.42832,
    "lng": 75.99568
  },
  {
    "id": 1528717,
    "name": "Bazar-Korgon",
    "lat": 41.0376,
    "lng": 72.74586
  },
  {
    "id": 1527299,
    "name": "Talas",
    "lat": 42.52256,
    "lng": 72.2417
  },
  {
    "id": 1222662,
    "name": "Razzakov",
    "lat": 39.83895,
    "lng": 69.5276
  },
  {
    "id": 1527719,
    "name": "Kyzyl-Kyya",
    "lat": 40.25684,
    "lng": 72.12793
  },
  {
    "id": 1527317,
    "name": "Suzak",
    "lat": 40.8982,
    "lng": 72.90481
  },
  {
    "id": 1528735,
    "name": "Batken",
    "lat": 40.06218,
    "lng": 70.82186
  },
  {
    "id": 1528091,
    "name": "Kara Suu",
    "lat": 40.7046,
    "lng": 72.86666
  },
  {
    "id": 1528283,
    "name": "Iradan",
    "lat": 40.26667,
    "lng": 72.1
  },
  {
    "id": 1527260,
    "name": "Tash-Kumyr",
    "lat": 41.34612,
    "lng": 72.21707
  },
  {
    "id": 1528702,
    "name": "Belovodskoye",
    "lat": 42.82944,
    "lng": 74.1083
  },
  {
    "id": 1528193,
    "name": "Kant",
    "lat": 42.89106,
    "lng": 74.85077
  },
  {
    "id": 1527690,
    "name": "Lebedinovka",
    "lat": 42.88454,
    "lng": 74.67819
  },
  {
    "id": 1538648,
    "name": "Toktogul",
    "lat": 41.87442,
    "lng": 72.94192
  },
  {
    "id": 1527689,
    "name": "Massy",
    "lat": 41.0601,
    "lng": 72.63285
  },
  {
    "id": 1528339,
    "name": "Nookat",
    "lat": 40.26597,
    "lng": 72.61834
  },
  {
    "id": 1528252,
    "name": "Ivanovka",
    "lat": 42.88778,
    "lng": 75.085
  },
  {
    "id": 1527903,
    "name": "Kochkor-Ata",
    "lat": 41.03709,
    "lng": 72.4832
  },
  {
    "id": 8145969,
    "name": "Kara-Kulja",
    "lat": 40.63223,
    "lng": 73.59249
  },
  {
    "id": 1528875,
    "name": "Ala-Buka",
    "lat": 41.4105,
    "lng": 71.48628
  },
  {
    "id": 1527497,
    "name": "Kyzyl-Suu",
    "lat": 42.34211,
    "lng": 78.00644
  },
  {
    "id": 1222562,
    "name": "Suluktu",
    "lat": 39.93652,
    "lng": 69.56779
  }
]