[
  {
    "id": 1526384,
    "name": "Almaty",
    "lat": 43.25249,
    "lng": 76.9115
  },
  {
    "id": 1518980,
    "name": "Shymkent",
    "lat": 42.30988,
    "lng": 69.60042
  },
  {
    "id": 610611,
    "name": "Aktobe",
    "lat": 50.27969,
    "lng": 57.20718
  },
  {
    "id": 609655,
    "name": "Karagandy",
    "lat": 49.80187,
    "lng": 73.10211
  },
  {
    "id": 1516905,
    "name": "Taraz",
    "lat": 42.89799,
    "lng": 71.37334
  },
  {
    "id": 1519922,
    "name": "Kyzylorda",
    "lat": 44.85278,
    "lng": 65.50917
  },
  {
    "id": 1526273,
    "name": "Astana",
    "lat": 51.1801,
    "lng": 71.44598
  },
  {
    "id": 608668,
    "name": "Oral",
    "lat": 51.24601,
    "lng": 51.42558
  },
  {
    "id": 1520240,
    "name": "Pavlodar",
    "lat": 52.27601,
    "lng": 76.96881
  },
  {
    "id": 1520316,
    "name": "Ust-Kamenogorsk",
    "lat": 49.97143,
    "lng": 82.60586
  },
  {
    "id": 1519422,
    "name": "Semey",
    "lat": 50.42064,
    "lng": 80.25025
  },
  {
    "id": 610529,
    "name": "Atyrau",
    "lat": 47.1048,
    "lng": 51.88427
  },
  {
    "id": 1517945,
    "name": "Turkestan",
    "lat": 43.29458,
    "lng": 68.25685
  },
  {
    "id": 1519928,
    "name": "Kostanay",
    "lat": 53.21435,
    "lng": 63.62463
  },
  {
    "id": 1520172,
    "name": "Petropavl",
    "lat": 54.87343,
    "lng": 69.15065
  },
  {
    "id": 1518262,
    "name": "Temirtau",
    "lat": 50.05197,
    "lng": 72.95497
  },
  {
    "id": 1522203,
    "name": "Kokshetau",
    "lat": 53.28414,
    "lng": 69.39364
  },
  {
    "id": 610612,
    "name": "Shevchenko",
    "lat": 43.66105,
    "lng": 51.17392
  },
  {
    "id": 1519843,
    "name": "Rudnyy",
    "lat": 52.97244,
    "lng": 63.11055
  },
  {
    "id": 1524325,
    "name": "Ekibastuz",
    "lat": 51.72371,
    "lng": 75.32287
  },
  {
    "id": 1518542,
    "name": "Taldykorgan",
    "lat": 45.01556,
    "lng": 78.37389
  },
  {
    "id": 1516589,
    "name": "Zhezqazghan",
    "lat": 47.79411,
    "lng": 67.70628
  },
  {
    "id": 607610,
    "name": "Zhanaozen",
    "lat": 43.34116,
    "lng": 52.86192
  },
  {
    "id": 1525798,
    "name": "Balqash",
    "lat": 46.84546,
    "lng": 74.98213
  },
  {
    "id": 1519691,
    "name": "Sarqant",
    "lat": 45.41322,
    "lng": 79.91713
  },
  {
    "id": 1521368,
    "name": "Baikonur",
    "lat": 45.61667,
    "lng": 63.31667
  },
  {
    "id": 1520692,
    "name": "Satpayev",
    "lat": 47.90409,
    "lng": 67.54112
  },
  {
    "id": 1522751,
    "name": "Kentau",
    "lat": 43.51672,
    "lng": 68.50463
  },
  {
    "id": 1521370,
    "name": "Ridder",
    "lat": 50.34524,
    "lng": 83.51562
  },
  {
    "id": 609123,
    "name": "Qulsary",
    "lat": 46.95307,
    "lng": 54.01978
  },
  {
    "id": 1519244,
    "name": "Shchuchinsk",
    "lat": 52.93592,
    "lng": 70.18895
  },
  {
    "id": 1537939,
    "name": "Stepnogorsk",
    "lat": 52.35062,
    "lng": 71.88161
  },
  {
    "id": 1516438,
    "name": "Altay",
    "lat": 49.73626,
    "lng": 84.25416
  },
  {
    "id": 1524298,
    "name": "Aksu",
    "lat": 52.04023,
    "lng": 76.92748
  },
  {
    "id": 1516601,
    "name": "Zhitikara",
    "lat": 52.19019,
    "lng": 61.19894
  },
  {
    "id": 1519725,
    "name": "Saran",
    "lat": 49.80245,
    "lng": 72.83186
  },
  {
    "id": 1518518,
    "name": "Talghar",
    "lat": 43.30235,
    "lng": 77.23811
  },
  {
    "id": 1519948,
    "name": "Konayev",
    "lat": 43.86681,
    "lng": 77.06304
  },
  {
    "id": 1526193,
    "name": "Arkalyk",
    "lat": 50.25031,
    "lng": 66.90384
  },
  {
    "id": 1519327,
    "name": "Shakhtinsk",
    "lat": 49.70713,
    "lng": 72.59321
  },
  {
    "id": 1521315,
    "name": "Lisakovsk",
    "lat": 52.54488,
    "lng": 62.49893
  },
  {
    "id": 1519030,
    "name": "Shu",
    "lat": 43.60507,
    "lng": 73.76221
  },
  {
    "id": 1519938,
    "name": "Karatau",
    "lat": 43.17959,
    "lng": 70.4592
  },
  {
    "id": 1524385,
    "name": "Zhetysay",
    "lat": 40.77631,
    "lng": 68.32774
  },
  {
    "id": 1526168,
    "name": "Arys",
    "lat": 42.43015,
    "lng": 68.8087
  },
  {
    "id": 1516789,
    "name": "Novokazalinsk",
    "lat": 45.84806,
    "lng": 62.15254
  },
  {
    "id": 1526970,
    "name": "Abay",
    "lat": 49.63539,
    "lng": 72.86523
  },
  {
    "id": 610613,
    "name": "Aqsay",
    "lat": 51.1681,
    "lng": 52.99782
  },
  {
    "id": 1526038,
    "name": "Atbasar",
    "lat": 51.80854,
    "lng": 68.35823
  },
  {
    "id": 1520253,
    "name": "Zharkent",
    "lat": 44.16619,
    "lng": 80.00736
  },
  {
    "id": 1516788,
    "name": "Zhangatas",
    "lat": 43.56274,
    "lng": 69.73209
  },
  {
    "id": 1525988,
    "name": "Ayagoz",
    "lat": 47.96447,
    "lng": 80.43437
  },
  {
    "id": 1526265,
    "name": "Aral",
    "lat": 46.80174,
    "lng": 61.66312
  },
  {
    "id": 1523741,
    "name": "Esik",
    "lat": 43.3552,
    "lng": 77.45245
  },
  {
    "id": 1524801,
    "name": "Shiyeli",
    "lat": 44.17057,
    "lng": 66.73376
  },
  {
    "id": 608679,
    "name": "Kandyagash",
    "lat": 49.46917,
    "lng": 57.41865
  },
  {
    "id": 608359,
    "name": "Shalqar",
    "lat": 47.83154,
    "lng": 59.61926
  },
  {
    "id": 608362,
    "name": "Shalkar",
    "lat": 48.03333,
    "lng": 48.9
  },
  {
    "id": 1525462,
    "name": "Aksu",
    "lat": 42.42193,
    "lng": 69.82709
  },
  {
    "id": 1524889,
    "name": "Shardara",
    "lat": 41.25832,
    "lng": 67.96991
  },
  {
    "id": 1519673,
    "name": "Saryaghash",
    "lat": 41.46042,
    "lng": 69.16791
  },
  {
    "id": 609404,
    "name": "Khromtau",
    "lat": 50.25161,
    "lng": 58.43574
  },
  {
    "id": 1524245,
    "name": "Kalbatau",
    "lat": 49.33009,
    "lng": 81.57275
  },
  {
    "id": 1517323,
    "name": "Zhangaqorghan",
    "lat": 43.90652,
    "lng": 67.24637
  },
  {
    "id": 1521379,
    "name": "Lenger",
    "lat": 42.18152,
    "lng": 69.88582
  },
  {
    "id": 1524958,
    "name": "Burunday",
    "lat": 43.35567,
    "lng": 76.85477
  },
  {
    "id": 1517637,
    "name": "Ushtobe",
    "lat": 45.25258,
    "lng": 77.98284
  },
  {
    "id": 1519226,
    "name": "Shemonaikha",
    "lat": 50.62899,
    "lng": 81.91092
  },
  {
    "id": 1516519,
    "name": "Zhosaly",
    "lat": 45.48778,
    "lng": 64.07806
  },
  {
    "id": 610445,
    "name": "Balykshi",
    "lat": 47.06667,
    "lng": 51.86667
  },
  {
    "id": 1524308,
    "name": "Otegen Batyra",
    "lat": 43.41845,
    "lng": 77.02187
  },
  {
    "id": 609924,
    "name": "Embi",
    "lat": 48.82981,
    "lng": 58.15042
  },
  {
    "id": 1517501,
    "name": "Turar Ryskulov",
    "lat": 42.5334,
    "lng": 70.3496
  },
  {
    "id": 1521230,
    "name": "Makinsk",
    "lat": 52.6329,
    "lng": 70.41911
  },
  {
    "id": 1517060,
    "name": "Zaysan",
    "lat": 47.46657,
    "lng": 84.87144
  },
  {
    "id": 1526797,
    "name": "Akkol’",
    "lat": 53.29617,
    "lng": 69.59997
  },
  {
    "id": 1518431,
    "name": "Tasbuget",
    "lat": 44.77018,
    "lng": 65.55461
  },
  {
    "id": 1520969,
    "name": "Merke",
    "lat": 42.87183,
    "lng": 73.19648
  },
  {
    "id": 1520947,
    "name": "Sarykemer",
    "lat": 43.00929,
    "lng": 71.5101
  }
]