[
  {
    "id": 1526384,
    "name": "Almaty",
    "lat": 43.25249,
    "lng": 76.9115
  },
  {
    "id": 1518980,
    "name": "Shymkent",
    "lat": 42.30988,
    "lng": 69.60042
  },
  {
    "id": 610611,
    "name": "Aktobe",
    "lat": 50.27969,
    "lng": 57.20718
  },
  {
    "id": 609655,
    "name": "Karagandy",
    "lat": 49.80187,
    "lng": 73.10211
  },
  {
    "id": 1516905,
    "name": "Taraz",
    "lat": 42.89799,
    "lng": 71.37334
  },
  {
    "id": 1519922,
    "name": "Kyzylorda",
    "lat": 44.85278,
    "lng": 65.50917
  },
  {
    "id": 1526273,
    "name": "Astana",
    "lat": 51.1801,
    "lng": 71.44598
  },
  {
    "id": 608668,
    "name": "Oral",
    "lat": 51.24601,
    "lng": 51.42558
  },
  {
    "id": 1520240,
    "name": "Pavlodar",
    "lat": 52.27601,
    "lng": 76.96881
  },
  {
    "id": 1520316,
    "name": "Ust-Kamenogorsk",
    "lat": 49.97143,
    "lng": 82.60586
  },
  {
    "id": 1519422,
    "name": "Semey",
    "lat": 50.42064,
    "lng": 80.25025
  },
  {
    "id": 610529,
    "name": "Atyrau",
    "lat": 47.1048,
    "lng": 51.88427
  },
  {
    "id": 1517945,
    "name": "Turkestan",
    "lat": 43.29458,
    "lng": 68.25685
  },
  {
    "id": 1519928,
    "name": "Kostanay",
    "lat": 53.21435,
    "lng": 63.62463
  },
  {
    "id": 1520172,
    "name": "Petropavl",
    "lat": 54.87343,
    "lng": 69.15065
  },
  {
    "id": 1518262,
    "name": "Temirtau",
    "lat": 50.05197,
    "lng": 72.95497
  },
  {
    "id": 1522203,
    "name": "Kokshetau",
    "lat": 53.28414,
    "lng": 69.39364
  },
  {
    "id": 610612,
    "name": "Shevchenko",
    "lat": 43.66105,
    "lng": 51.17392
  },
  {
    "id": 1519843,
    "name": "Rudnyy",
    "lat": 52.97244,
    "lng": 63.11055
  },
  {
    "id": 1524325,
    "name": "Ekibastuz",
    "lat": 51.72371,
    "lng": 75.32287
  },
  {
    "id": 1518542,
    "name": "Taldykorgan",
    "lat": 45.01556,
    "lng": 78.37389
  },
  {
    "id": 1516589,
    "name": "Zhezqazghan",
    "lat": 47.79411,
    "lng": 67.70628
  },
  {
    "id": 607610,
    "name": "Zhanaozen",
    "lat": 43.34116,
    "lng": 52.86192
  },
  {
    "id": 1525798,
    "name": "Balqash",
    "lat": 46.84546,
    "lng": 74.98213
  },
  {
    "id": 1519691,
    "name": "Sarqant",
    "lat": 45.41322,
    "lng": 79.91713
  },
  {
    "id": 1521368,
    "name": "Baikonur",
    "lat": 45.61667,
    "lng": 63.31667
  },
  {
    "id": 1520692,
    "name": "Satpayev",
    "lat": 47.90409,
    "lng": 67.54112
  },
  {
    "id": 1522751,
    "name": "Kentau",
    "lat": 43.51672,
    "lng": 68.50463
  },
  {
    "id": 1521370,
    "name": "Ridder",
    "lat": 50.34524,
    "lng": 83.51562
  },
  {
    "id": 609123,
    "name": "Qulsary",
    "lat": 46.95307,
    "lng": 54.01978
  },
  {
    "id": 1519244,
    "name": "Shchuchinsk",
    "lat": 52.93592,
    "lng": 70.18895
  },
  {
    "id": 1537939,
    "name": "Stepnogorsk",
    "lat": 52.35062,
    "lng": 71.88161
  },
  {
    "id": 1516438,
    "name": "Altay",
    "lat": 49.73626,
    "lng": 84.25416
  },
  {
    "id": 1524298,
    "name": "Aksu",
    "lat": 52.04023,
    "lng": 76.92748
  },
  {
    "id": 1516601,
    "name": "Zhitikara",
    "lat": 52.19019,
    "lng": 61.19894
  },
  {
    "id": 1519725,
    "name": "Saran",
    "lat": 49.80245,
    "lng": 72.83186
  },
  {
    "id": 1518518,
    "name": "Talghar",
    "lat": 43.30235,
    "lng": 77.23811
  },
  {
    "id": 1519948,
    "name": "Konayev",
    "lat": 43.86681,
    "lng": 77.06304
  },
  {
    "id": 1526193,
    "name": "Arkalyk",
    "lat": 50.25031,
    "lng": 66.90384
  },
  {
    "id": 1519327,
    "name": "Shakhtinsk",
    "lat": 49.70713,
    "lng": 72.59321
  },
  {
    "id": 1521315,
    "name": "Lisakovsk",
    "lat": 52.54488,
    "lng": 62.49893
  },
  {
    "id": 1519030,
    "name": "Shu",
    "lat": 43.60507,
    "lng": 73.76221
  },
  {
    "id": 1519938,
    "name": "Karatau",
    "lat": 43.17959,
    "lng": 70.4592
  },
  {
    "id": 1524385,
    "name": "Zhetysay",
    "lat": 40.77631,
    "lng": 68.32774
  },
  {
    "id": 1526168,
    "name": "Arys",
    "lat": 42.43015,
    "lng": 68.8087
  },
  {
    "id": 1516789,
    "name": "Novokazalinsk",
    "lat": 45.84806,
    "lng": 62.15254
  },
  {
    "id": 1526970,
    "name": "Abay",
    "lat": 49.63539,
    "lng": 72.86523
  },
  {
    "id": 610613,
    "name": "Aqsay",
    "lat": 51.1681,
    "lng": 52.99782
  },
  {
    "id": 1526038,
    "name": "Atbasar",
    "lat": 51.80854,
    "lng": 68.35823
  },
  {
    "id": 1520253,
    "name": "Zharkent",
    "lat": 44.16619,
    "lng": 80.00736
  },
  {
    "id": 1516788,
    "name": "Zhangatas",
    "lat": 43.56274,
    "lng": 69.73209
  },
  {
    "id": 1525988,
    "name": "Ayagoz",
    "lat": 47.96447,
    "lng": 80.43437
  },
  {
    "id": 1526265,
    "name": "Aral",
    "lat": 46.80174,
    "lng": 61.66312
  },
  {
    "id": 1523741,
    "name": "Esik",
    "lat": 43.3552,
    "lng": 77.45245
  },
  {
    "id": 1524801,
    "name": "Shiyeli",
    "lat": 44.17057,
    "lng": 66.73376
  },
  {
    "id": 608679,
    "name": "Kandyagash",
    "lat": 49.46917,
    "lng": 57.41865
  },
  {
    "id": 608359,
    "name": "Shalqar",
    "lat": 47.83154,
    "lng": 59.61926
  },
  {
    "id": 608362,
    "name": "Shalkar",
    "lat": 48.03333,
    "lng": 48.9
  },
  {
    "id": 1525462,
    "name": "Aksu",
    "lat": 42.42193,
    "lng": 69.82709
  },
  {
    "id": 1524889,
    "name": "Shardara",
    "lat": 41.25832,
    "lng": 67.96991
  },
  {
    "id": 1519673,
    "name": "Saryaghash",
    "lat": 41.46042,
    "lng": 69.16791
  },
  {
    "id": 609404,
    "name": "Khromtau",
    "lat": 50.25161,
    "lng": 58.43574
  },
  {
    "id": 1524245,
    "name": "Kalbatau",
    "lat": 49.33009,
    "lng": 81.57275
  },
  {
    "id": 1517323,
    "name": "Zhangaqorghan",
    "lat": 43.90652,
    "lng": 67.24637
  },
  {
    "id": 1521379,
    "name": "Lenger",
    "lat": 42.18152,
    "lng": 69.88582
  },
  {
    "id": 1524958,
    "name": "Burunday",
    "lat": 43.35567,
    "lng": 76.85477
  },
  {
    "id": 1517637,
    "name": "Ushtobe",
    "lat": 45.25258,
    "lng": 77.98284
  },
  {
    "id": 1519226,
    "name": "Shemonaikha",
    "lat": 50.62899,
    "lng": 81.91092
  },
  {
    "id": 1516519,
    "name": "Zhosaly",
    "lat": 45.48778,
    "lng": 64.07806
  },
  {
    "id": 610445,
    "name": "Balykshi",
    "lat": 47.06667,
    "lng": 51.86667
  },
  {
    "id": 1524308,
    "name": "Otegen Batyra",
    "lat": 43.41845,
    "lng": 77.02187
  },
  {
    "id": 609924,
    "name": "Embi",
    "lat": 48.82981,
    "lng": 58.15042
  },
  {
    "id": 1517501,
    "name": "Turar Ryskulov",
    "lat": 42.5334,
    "lng": 70.3496
  },
  {
    "id": 1521230,
    "name": "Makinsk",
    "lat": 52.6329,
    "lng": 70.41911
  },
  {
    "id": 1517060,
    "name": "Zaysan",
    "lat": 47.46657,
    "lng": 84.87144
  },
  {
    "id": 1526797,
    "name": "Akkol’",
    "lat": 53.29617,
    "lng": 69.59997
  },
  {
    "id": 1518431,
    "name": "Tasbuget",
    "lat": 44.77018,
    "lng": 65.55461
  },
  {
    "id": 1520969,
    "name": "Merke",
    "lat": 42.87183,
    "lng": 73.19648
  },
  {
    "id": 1520947,
    "name": "Sarykemer",
    "lat": 43.00929,
    "lng": 71.5101
  },
  {
    "id": 1517721,
    "name": "Urzhar",
    "lat": 47.09302,
    "lng": 81.62939
  },
  {
    "id": 1521351,
    "name": "Kazygurt",
    "lat": 41.7564,
    "lng": 69.3839
  },
  {
    "id": 610298,
    "name": "Beyneu",
    "lat": 45.31667,
    "lng": 55.2
  },
  {
    "id": 1524478,
    "name": "Zhalagash",
    "lat": 45.07958,
    "lng": 64.68175
  },
  {
    "id": 1524302,
    "name": "Yereymentau",
    "lat": 51.62364,
    "lng": 73.10265
  },
  {
    "id": 608872,
    "name": "Maqat",
    "lat": 47.64967,
    "lng": 53.34291
  },
  {
    "id": 1519580,
    "name": "Saryozek",
    "lat": 44.36178,
    "lng": 77.97279
  },
  {
    "id": 1524606,
    "name": "Derzhavinsk",
    "lat": 51.09718,
    "lng": 66.31875
  },
  {
    "id": 1519935,
    "name": "Qarazhal",
    "lat": 48.01085,
    "lng": 70.80058
  },
  {
    "id": 1539153,
    "name": "Chemolgan",
    "lat": 43.37633,
    "lng": 76.62456
  },
  {
    "id": 1524296,
    "name": "Esil",
    "lat": 51.95453,
    "lng": 66.40772
  },
  {
    "id": 7536148,
    "name": "Priozersk",
    "lat": 46.03106,
    "lng": 73.70247
  },
  {
    "id": 1519333,
    "name": "Shakhan",
    "lat": 49.81958,
    "lng": 72.65407
  },
  {
    "id": 609798,
    "name": "Inderbor",
    "lat": 48.55,
    "lng": 51.78333
  },
  {
    "id": 1526041,
    "name": "Zhangaarqa",
    "lat": 48.68659,
    "lng": 71.64469
  },
  {
    "id": 1522035,
    "name": "Taiynsha",
    "lat": 53.84796,
    "lng": 69.76773
  },
  {
    "id": 1521292,
    "name": "Kulan",
    "lat": 42.91018,
    "lng": 72.71571
  },
  {
    "id": 1517957,
    "name": "Turgen",
    "lat": 43.40056,
    "lng": 77.59333
  },
  {
    "id": 1524138,
    "name": "Atakent",
    "lat": 40.84782,
    "lng": 68.50643
  },
  {
    "id": 1518266,
    "name": "Temirlanovka",
    "lat": 42.59998,
    "lng": 69.25836
  },
  {
    "id": 609919,
    "name": "Kuryk",
    "lat": 43.18032,
    "lng": 51.68116
  },
  {
    "id": 608324,
    "name": "Shetpe",
    "lat": 44.13922,
    "lng": 52.15305
  },
  {
    "id": 1522642,
    "name": "Balpyk Bi",
    "lat": 44.90115,
    "lng": 78.22933
  },
  {
    "id": 608271,
    "name": "Shubarkuduk",
    "lat": 49.14391,
    "lng": 56.48196
  },
  {
    "id": 607551,
    "name": "Zhetybay",
    "lat": 43.58928,
    "lng": 52.10313
  },
  {
    "id": 1522643,
    "name": "Asyqata",
    "lat": 40.8946,
    "lng": 68.3643
  },
  {
    "id": 1524227,
    "name": "Glubokoye",
    "lat": 50.13887,
    "lng": 82.31114
  },
  {
    "id": 1524265,
    "name": "Moyynkum",
    "lat": 44.28314,
    "lng": 72.94369
  },
  {
    "id": 1524703,
    "name": "Sholakkorgan",
    "lat": 43.76453,
    "lng": 69.17856
  },
  {
    "id": 1517880,
    "name": "Tyul’kubas",
    "lat": 42.48578,
    "lng": 70.29601
  },
  {
    "id": 1520885,
    "name": "Kurchatov",
    "lat": 50.75617,
    "lng": 78.54188
  },
  {
    "id": 1521293,
    "name": "Lugovoy",
    "lat": 42.94197,
    "lng": 72.76098
  },
  {
    "id": 1519932,
    "name": "Qashar",
    "lat": 53.36799,
    "lng": 62.86839
  },
  {
    "id": 1522818,
    "name": "Kegen",
    "lat": 43.01451,
    "lng": 79.22638
  },
  {
    "id": 1526601,
    "name": "Aktau",
    "lat": 48.03333,
    "lng": 72.83333
  },
  {
    "id": 1525490,
    "name": "Belousovka",
    "lat": 50.13287,
    "lng": 82.52481
  },
  {
    "id": 1526619,
    "name": "Aktas",
    "lat": 49.77952,
    "lng": 72.96128
  },
  {
    "id": 1525014,
    "name": "Bulayevo",
    "lat": 54.90596,
    "lng": 70.44155
  },
  {
    "id": 1522348,
    "name": "Qarabalyq",
    "lat": 53.75019,
    "lng": 62.0584
  },
  {
    "id": 1524243,
    "name": "Korday",
    "lat": 43.03882,
    "lng": 74.71287
  },
  {
    "id": 1520281,
    "name": "Oytal",
    "lat": 42.90573,
    "lng": 73.26972
  },
  {
    "id": 1518945,
    "name": "Myrzakent",
    "lat": 40.66338,
    "lng": 68.5451
  },
  {
    "id": 1526274,
    "name": "Aqadyr",
    "lat": 48.26014,
    "lng": 72.85851
  },
  {
    "id": 1518203,
    "name": "Terenozek",
    "lat": 45.05048,
    "lng": 64.98258
  },
  {
    "id": 1525121,
    "name": "Borovskoy",
    "lat": 53.7927,
    "lng": 64.18268
  },
  {
    "id": 9858283,
    "name": "Tyuratam",
    "lat": 45.65005,
    "lng": 63.31163
  },
  {
    "id": 1524871,
    "name": "Shayan",
    "lat": 43.03399,
    "lng": 69.38048
  },
  {
    "id": 610023,
    "name": "Dossor",
    "lat": 47.53234,
    "lng": 52.9709
  },
  {
    "id": 1526269,
    "name": "Aktau",
    "lat": 50.23466,
    "lng": 73.06662
  },
  {
    "id": 1519776,
    "name": "Saksaul’skiy",
    "lat": 47.08152,
    "lng": 61.15239
  },
  {
    "id": 1523768,
    "name": "Irtyshsk",
    "lat": 53.33365,
    "lng": 75.45775
  },
  {
    "id": 1519275,
    "name": "Shar",
    "lat": 49.5872,
    "lng": 81.04883
  },
  {
    "id": 1523662,
    "name": "Terengköl",
    "lat": 53.06649,
    "lng": 76.10489
  },
  {
    "id": 609537,
    "name": "Karaton",
    "lat": 46.43685,
    "lng": 53.48905
  },
  {
    "id": 608915,
    "name": "Makhambet",
    "lat": 47.67061,
    "lng": 51.58598
  },
  {
    "id": 1516590,
    "name": "Zhezkent",
    "lat": 50.93112,
    "lng": 81.3615
  },
  {
    "id": 1519385,
    "name": "Sergeyevka",
    "lat": 53.88139,
    "lng": 67.40882
  },
  {
    "id": 1521762,
    "name": "Kurchum",
    "lat": 48.56603,
    "lng": 83.66146
  },
  {
    "id": 608270,
    "name": "Shubarshi",
    "lat": 48.58022,
    "lng": 57.18289
  },
  {
    "id": 1521365,
    "name": "Leninskiy",
    "lat": 52.25346,
    "lng": 76.78211
  },
  {
    "id": 1526271,
    "name": "Aksu",
    "lat": 52.44422,
    "lng": 71.95761
  },
  {
    "id": 1524282,
    "name": "Fyodorov",
    "lat": 53.63809,
    "lng": 62.69653
  },
  {
    "id": 609953,
    "name": "Zhanibek",
    "lat": 49.42278,
    "lng": 46.84626
  },
  {
    "id": 1519934,
    "name": "Qarqaraly",
    "lat": 49.41244,
    "lng": 75.47228
  },
  {
    "id": 1519924,
    "name": "Qusmuryn",
    "lat": 52.45144,
    "lng": 64.61682
  },
  {
    "id": 1520208,
    "name": "Pervomayka",
    "lat": 43.37361,
    "lng": 76.94
  },
  {
    "id": 608867,
    "name": "Martuk",
    "lat": 50.74746,
    "lng": 56.50611
  },
  {
    "id": 1521048,
    "name": "Mayqayyng",
    "lat": 51.45981,
    "lng": 75.80232
  },
  {
    "id": 1522862,
    "name": "Kazalinsk",
    "lat": 45.76257,
    "lng": 62.10334
  },
  {
    "id": 610386,
    "name": "Bayganin",
    "lat": 48.68975,
    "lng": 55.87512
  },
  {
    "id": 1524815,
    "name": "Zhibek Zholy",
    "lat": 41.4759,
    "lng": 69.36497
  },
  {
    "id": 1520327,
    "name": "Osakarovka",
    "lat": 50.56315,
    "lng": 72.57278
  },
  {
    "id": 1525376,
    "name": "Bestobe",
    "lat": 52.49795,
    "lng": 73.09592
  },
  {
    "id": 1518139,
    "name": "Tobol",
    "lat": 52.69366,
    "lng": 62.5914
  },
  {
    "id": 1522605,
    "name": "Nura",
    "lat": 50.26159,
    "lng": 71.54802
  },
  {
    "id": 1519050,
    "name": "Shortandy",
    "lat": 51.69934,
    "lng": 70.99129
  },
  {
    "id": 609721,
    "name": "Tasqala",
    "lat": 51.11073,
    "lng": 50.29454
  },
  {
    "id": 1525850,
    "name": "Bakanas",
    "lat": 44.80595,
    "lng": 76.27464
  },
  {
    "id": 1516527,
    "name": "Zholymbet",
    "lat": 51.74259,
    "lng": 71.70971
  },
  {
    "id": 607510,
    "name": "Zhumysker",
    "lat": 49.33333,
    "lng": 49.4
  },
  {
    "id": 1519516,
    "name": "Sastobe",
    "lat": 42.5533,
    "lng": 69.99835
  },
  {
    "id": 1521401,
    "name": "Kishkenekol’",
    "lat": 53.63589,
    "lng": 72.34079
  },
  {
    "id": 1526648,
    "name": "Aksuat",
    "lat": 48.71667,
    "lng": 83.7
  },
  {
    "id": 1520025,
    "name": "Tughyl",
    "lat": 47.72497,
    "lng": 84.20585
  },
  {
    "id": 1525126,
    "name": "Būrabay",
    "lat": 53.08382,
    "lng": 70.31379
  },
  {
    "id": 1526059,
    "name": "Astrakhanka",
    "lat": 51.53068,
    "lng": 69.79685
  },
  {
    "id": 609977,
    "name": "Zhympity",
    "lat": 50.25645,
    "lng": 52.59707
  },
  {
    "id": 610091,
    "name": "Shyngyrlau",
    "lat": 51.09959,
    "lng": 54.08412
  },
  {
    "id": 608816,
    "name": "Miyaly",
    "lat": 48.88548,
    "lng": 53.79168
  },
  {
    "id": 1525809,
    "name": "Balkashino",
    "lat": 52.51779,
    "lng": 68.7516
  },
  {
    "id": 1517610,
    "name": "Ūst’-Talovka",
    "lat": 50.55058,
    "lng": 81.84847
  },
  {
    "id": 1535379,
    "name": "Novoishimskiy",
    "lat": 53.19806,
    "lng": 66.76944
  },
  {
    "id": 1537947,
    "name": "Zavodskoy",
    "lat": 52.47031,
    "lng": 72.01514
  },
  {
    "id": 1520660,
    "name": "Novaya Bukhtarma",
    "lat": 49.62873,
    "lng": 83.52102
  },
  {
    "id": 610132,
    "name": "Chapayev",
    "lat": 50.18888,
    "lng": 51.16978
  },
  {
    "id": 609965,
    "name": "Zhangaqala",
    "lat": 49.21532,
    "lng": 50.29009
  },
  {
    "id": 1525134,
    "name": "Borodulikha",
    "lat": 50.71841,
    "lng": 80.9295
  },
  {
    "id": 1518936,
    "name": "Smirnovo",
    "lat": 54.5148,
    "lng": 69.42732
  },
  {
    "id": 1525650,
    "name": "Bayanaul",
    "lat": 50.79304,
    "lng": 75.70123
  },
  {
    "id": 610416,
    "name": "Badamsha",
    "lat": 50.56183,
    "lng": 58.2772
  },
  {
    "id": 1526055,
    "name": "Asubulak",
    "lat": 49.54026,
    "lng": 82.99471
  },
  {
    "id": 1526081,
    "name": "Ashchysay",
    "lat": 43.5537,
    "lng": 68.89792
  },
  {
    "id": 1519277,
    "name": "Shantobe",
    "lat": 52.45376,
    "lng": 68.17475
  },
  {
    "id": 1525295,
    "name": "Bishkul",
    "lat": 54.77763,
    "lng": 69.09951
  },
  {
    "id": 1523605,
    "name": "Kalkaman",
    "lat": 51.95349,
    "lng": 76.02723
  },
  {
    "id": 1521333,
    "name": "Lepsy",
    "lat": 46.23426,
    "lng": 78.94034
  },
  {
    "id": 609915,
    "name": "Terekti",
    "lat": 51.2221,
    "lng": 51.95731
  },
  {
    "id": 1518062,
    "name": "Torghay",
    "lat": 49.63072,
    "lng": 63.49035
  },
  {
    "id": 1519936,
    "name": "Karaaul",
    "lat": 48.94509,
    "lng": 79.25502
  },
  {
    "id": 1516634,
    "name": "Zhelezinka",
    "lat": 53.5388,
    "lng": 75.31326
  },
  {
    "id": 609906,
    "name": "Fort-Shevchenko",
    "lat": 44.50654,
    "lng": 50.26388
  },
  {
    "id": 1520627,
    "name": "Novodolinskiy",
    "lat": 49.7065,
    "lng": 72.70807
  },
  {
    "id": 1522503,
    "name": "Kokpekty",
    "lat": 48.75,
    "lng": 82.4
  },
  {
    "id": 1517020,
    "name": "Zhaksy",
    "lat": 51.91058,
    "lng": 67.31665
  },
  {
    "id": 1526268,
    "name": "Aqtoghay",
    "lat": 46.95068,
    "lng": 79.67621
  },
  {
    "id": 1517305,
    "name": "Yavlenka",
    "lat": 54.34525,
    "lng": 68.4574
  },
  {
    "id": 1518768,
    "name": "Stepnyak",
    "lat": 52.83489,
    "lng": 70.78861
  },
  {
    "id": 1520381,
    "name": "Denisovka",
    "lat": 52.44772,
    "lng": 61.74942
  },
  {
    "id": 1526272,
    "name": "Aqshataū",
    "lat": 47.98917,
    "lng": 74.0575
  },
  {
    "id": 609454,
    "name": "Kaztalovka",
    "lat": 49.76702,
    "lng": 48.6893
  },
  {
    "id": 608413,
    "name": "Saykhin",
    "lat": 48.85611,
    "lng": 46.83361
  },
  {
    "id": 1526636,
    "name": "Aksu-Ayuly",
    "lat": 48.76788,
    "lng": 73.67272
  },
  {
    "id": 1517136,
    "name": "Yrghyz",
    "lat": 48.61958,
    "lng": 61.26067
  },
  {
    "id": 1524571,
    "name": "Dolinka",
    "lat": 49.67685,
    "lng": 72.67822
  },
  {
    "id": 1519463,
    "name": "Sayaq",
    "lat": 47.0,
    "lng": 77.26667
  },
  {
    "id": 1516984,
    "name": "Zhalghyztobe",
    "lat": 49.21094,
    "lng": 81.21596
  },
  {
    "id": 1519563,
    "name": "Saryshaghan",
    "lat": 46.11805,
    "lng": 73.61336
  },
  {
    "id": 610764,
    "name": "Akkol’",
    "lat": 48.77358,
    "lng": 53.18177
  },
  {
    "id": 1526021,
    "name": "Auezov",
    "lat": 49.71003,
    "lng": 81.58018
  },
  {
    "id": 1518009,
    "name": "Timiryazevo",
    "lat": 53.74947,
    "lng": 66.48852
  },
  {
    "id": 1521079,
    "name": "Matay",
    "lat": 45.8996,
    "lng": 78.72039
  },
  {
    "id": 1518112,
    "name": "Tokarevka",
    "lat": 50.11573,
    "lng": 73.16034
  },
  {
    "id": 608778,
    "name": "Munayshy",
    "lat": 43.49988,
    "lng": 52.09745
  },
  {
    "id": 1519625,
    "name": "Sarykamys",
    "lat": 47.78333,
    "lng": 78.71667
  },
  {
    "id": 608629,
    "name": "Peremetnoe",
    "lat": 51.19801,
    "lng": 50.85291
  },
  {
    "id": 1521677,
    "name": "Kushoky",
    "lat": 50.23091,
    "lng": 73.40146
  },
  {
    "id": 1529724,
    "name": "Shalqīya",
    "lat": 44.00947,
    "lng": 67.41062
  },
  {
    "id": 1521998,
    "name": "Egindiköl",
    "lat": 51.05227,
    "lng": 69.47511
  },
  {
    "id": 1526573,
    "name": "Aktogay",
    "lat": 48.16667,
    "lng": 75.3
  },
  {
    "id": 1537980,
    "name": "Ülken",
    "lat": 45.20928,
    "lng": 73.95089
  },
  {
    "id": 1522026,
    "name": "Krasnogorskiy",
    "lat": 52.2456,
    "lng": 66.52081
  },
  {
    "id": 1525504,
    "name": "Koktobe",
    "lat": 51.52983,
    "lng": 77.47146
  },
  {
    "id": 610164,
    "name": "Burlin",
    "lat": 51.42781,
    "lng": 52.71076
  },
  {
    "id": 1537253,
    "name": "Ozernyy",
    "lat": 46.80714,
    "lng": 75.036
  },
  {
    "id": 1526522,
    "name": "Prigorodnoye",
    "lat": 49.69244,
    "lng": 75.58438
  },
  {
    "id": 610398,
    "name": "Bautino",
    "lat": 44.54479,
    "lng": 50.24629
  },
  {
    "id": 1523149,
    "name": "Karasu",
    "lat": 52.65995,
    "lng": 65.48421
  },
  {
    "id": 1518462,
    "name": "Ayat",
    "lat": 52.83554,
    "lng": 62.52078
  },
  {
    "id": 1518511,
    "name": "Talshik",
    "lat": 53.63736,
    "lng": 71.87404
  },
  {
    "id": 609167,
    "name": "Krugloozërnoye",
    "lat": 51.08167,
    "lng": 51.29052
  },
  {
    "id": 1518019,
    "name": "Troyebratskiy",
    "lat": 54.44306,
    "lng": 66.07982
  },
  {
    "id": 1516678,
    "name": "Zharyk",
    "lat": 48.85692,
    "lng": 72.83598
  },
  {
    "id": 1524537,
    "name": "Druzhba",
    "lat": 45.25332,
    "lng": 82.48044
  },
  {
    "id": 1524484,
    "name": "Dzerzhinskoye",
    "lat": 45.81837,
    "lng": 81.07962
  },
  {
    "id": 1538012,
    "name": "Altayskiy",
    "lat": 50.24593,
    "lng": 82.36252
  },
  {
    "id": 1534565,
    "name": "Maleyevsk",
    "lat": 49.81441,
    "lng": 84.29102
  },
  {
    "id": 1523470,
    "name": "Karabas",
    "lat": 46.53333,
    "lng": 76.2
  },
  {
    "id": 1526443,
    "name": "Akkol",
    "lat": 51.99374,
    "lng": 70.94704
  },
  {
    "id": 608053,
    "name": "Taūshyq",
    "lat": 44.34678,
    "lng": 51.34932
  },
  {
    "id": 1520196,
    "name": "Pervorossiyskoye",
    "lat": 49.71739,
    "lng": 83.8486
  },
  {
    "id": 608036,
    "name": "Temir",
    "lat": 49.14284,
    "lng": 57.12736
  },
  {
    "id": 1537856,
    "name": "Chiganak",
    "lat": 44.83056,
    "lng": 70.00194
  },
  {
    "id": 1525576,
    "name": "Bayzhansay",
    "lat": 43.16708,
    "lng": 69.91459
  },
  {
    "id": 1522447,
    "name": "Kokterek",
    "lat": 42.49442,
    "lng": 70.25478
  },
  {
    "id": 1525658,
    "name": "Qogham",
    "lat": 42.82774,
    "lng": 68.28074
  },
  {
    "id": 1517410,
    "name": "Saumalkol’",
    "lat": 53.2927,
    "lng": 68.105
  },
  {
    "id": 1520844,
    "name": "Moyynty",
    "lat": 47.21968,
    "lng": 73.35437
  },
  {
    "id": 1524182,
    "name": "Granitogorsk",
    "lat": 42.744,
    "lng": 73.46848
  },
  {
    "id": 1520590,
    "name": "Zhabagly",
    "lat": 42.43781,
    "lng": 70.47841
  },
  {
    "id": 828390,
    "name": "Umirzak",
    "lat": 43.59762,
    "lng": 51.24094
  },
  {
    "id": 610389,
    "name": "Baychunas",
    "lat": 47.2404,
    "lng": 52.9403
  },
  {
    "id": 1526900,
    "name": "Akbakay",
    "lat": 45.1294,
    "lng": 72.67169
  },
  {
    "id": 1520474,
    "name": "Ognyovka",
    "lat": 49.68368,
    "lng": 83.01687
  },
  {
    "id": 608402,
    "name": "Say-Otes",
    "lat": 44.32787,
    "lng": 53.53216
  },
  {
    "id": 1525506,
    "name": "Belogorskiy",
    "lat": 49.47887,
    "lng": 83.14138
  },
  {
    "id": 1521425,
    "name": "Kyzylzhar",
    "lat": 49.98197,
    "lng": 72.60761
  },
  {
    "id": 1535059,
    "name": "Belköl",
    "lat": 44.81384,
    "lng": 65.58778
  },
  {
    "id": 1522714,
    "name": "Khantau",
    "lat": 44.22627,
    "lng": 73.7941
  },
  {
    "id": 1522466,
    "name": "Koktal",
    "lat": 49.65,
    "lng": 73.51667
  },
  {
    "id": 1532249,
    "name": "Birlestik",
    "lat": 53.58414,
    "lng": 68.35382
  },
  {
    "id": 1524451,
    "name": "Dzhambul",
    "lat": 47.20618,
    "lng": 71.39496
  },
  {
    "id": 1520789,
    "name": "Mynaral",
    "lat": 45.44344,
    "lng": 73.65453
  },
  {
    "id": 1537909,
    "name": "Shubarköl",
    "lat": 48.88222,
    "lng": 68.80722
  },
  {
    "id": 1518687,
    "name": "Suykbulak",
    "lat": 49.70837,
    "lng": 81.04854
  },
  {
    "id": 1517474,
    "name": "Verkhniye Kayrakty",
    "lat": 48.68333,
    "lng": 73.28333
  },
  {
    "id": 1525223,
    "name": "Boko",
    "lat": 49.05632,
    "lng": 81.63721
  },
  {
    "id": 1517411,
    "name": "Volodarskoye",
    "lat": 52.66119,
    "lng": 66.59684
  },
  {
    "id": 1524165,
    "name": "Gülshat",
    "lat": 46.62973,
    "lng": 74.35586
  },
  {
    "id": 828394,
    "name": "Biikzhal",
    "lat": 46.7949,
    "lng": 54.71762
  },
  {
    "id": 1520831,
    "name": "Mulaly",
    "lat": 45.45055,
    "lng": 78.31481
  },
  {
    "id": 12400523,
    "name": "Tasty-Taldy",
    "lat": 50.72817,
    "lng": 66.62033
  }
]