[
  {
    "id": 1651944,
    "name": "Vientiane",
    "lat": 17.96667,
    "lng": 102.6
  },
  {
    "id": 1653316,
    "name": "Savannakhet",
    "lat": 16.5703,
    "lng": 104.7622
  },
  {
    "id": 1654379,
    "name": "Pakse",
    "lat": 15.12022,
    "lng": 105.79898
  },
  {
    "id": 1655199,
    "name": "Thakhèk",
    "lat": 17.41027,
    "lng": 104.83068
  },
  {
    "id": 1661283,
    "name": "Ban Napè",
    "lat": 18.3053,
    "lng": 105.0718
  },
  {
    "id": 1655559,
    "name": "Luang Prabang",
    "lat": 19.8933,
    "lng": 102.1525
  },
  {
    "id": 1652203,
    "name": "Xam Nua",
    "lat": 20.4164,
    "lng": 104.045
  },
  {
    "id": 1655123,
    "name": "Muang Phônsavan",
    "lat": 19.4494,
    "lng": 103.1917
  },
  {
    "id": 9948272,
    "name": "Sekong",
    "lat": 15.34582,
    "lng": 106.72368
  },
  {
    "id": 1658073,
    "name": "Ban Xénô",
    "lat": 16.6759,
    "lng": 104.98798
  },
  {
    "id": 1655087,
    "name": "Vang Vieng",
    "lat": 18.9235,
    "lng": 102.44784
  },
  {
    "id": 1655078,
    "name": "Muang Xay",
    "lat": 20.69229,
    "lng": 101.98368
  },
  {
    "id": 1655107,
    "name": "Muang Sing",
    "lat": 21.19206,
    "lng": 101.14789
  },
  {
    "id": 1655140,
    "name": "Pakxan",
    "lat": 18.3942,
    "lng": 103.6611
  },
  {
    "id": 1657897,
    "name": "Borikhan",
    "lat": 18.56286,
    "lng": 103.72671
  },
  {
    "id": 1904391,
    "name": "Ban Houakhoua",
    "lat": 20.2467,
    "lng": 100.45401
  },
  {
    "id": 1655192,
    "name": "Muang Không",
    "lat": 14.11785,
    "lng": 105.85469
  },
  {
    "id": 1655084,
    "name": "Sainyabuli",
    "lat": 19.25756,
    "lng": 101.71032
  },
  {
    "id": 1653894,
    "name": "Phôngsali",
    "lat": 21.6808,
    "lng": 102.1003
  },
  {
    "id": 1657819,
    "name": "Champasak",
    "lat": 14.89204,
    "lng": 105.87787
  },
  {
    "id": 1663526,
    "name": "Ban Houayxay",
    "lat": 20.27,
    "lng": 100.4178
  },
  {
    "id": 11203124,
    "name": "Ban Bachiang",
    "lat": 15.25312,
    "lng": 105.93162
  },
  {
    "id": 1655124,
    "name": "Muang Phôn-Hông",
    "lat": 18.4953,
    "lng": 102.4153
  },
  {
    "id": 1653334,
    "name": "Salavan",
    "lat": 15.71652,
    "lng": 106.41744
  },
  {
    "id": 1655139,
    "name": "Pakxong",
    "lat": 15.18154,
    "lng": 106.23038
  },
  {
    "id": 1659990,
    "name": "Lamam",
    "lat": 15.41705,
    "lng": 106.69461
  },
  {
    "id": 1665046,
    "name": "Attapeu",
    "lat": 14.81071,
    "lng": 106.83184
  },
  {
    "id": 1661950,
    "name": "Ban Nahin",
    "lat": 18.24253,
    "lng": 104.21281
  },
  {
    "id": 1655562,
    "name": "Luang Namtha",
    "lat": 20.9486,
    "lng": 101.40188
  },
  {
    "id": 1655094,
    "name": "Ban Thatèng",
    "lat": 15.43317,
    "lng": 106.38272
  },
  {
    "id": 11231981,
    "name": "Ban Dansavan",
    "lat": 18.44075,
    "lng": 102.5596
  },
  {
    "id": 1655143,
    "name": "Muang Pakbèng",
    "lat": 19.8929,
    "lng": 101.13647
  }
]