[
  {
    "id": 1651944,
    "name": "Vientiane",
    "lat": 17.96667,
    "lng": 102.6
  },
  {
    "id": 1653316,
    "name": "Savannakhet",
    "lat": 16.5703,
    "lng": 104.7622
  },
  {
    "id": 1654379,
    "name": "Pakse",
    "lat": 15.12022,
    "lng": 105.79898
  },
  {
    "id": 1655199,
    "name": "Thakhèk",
    "lat": 17.41027,
    "lng": 104.83068
  },
  {
    "id": 1661283,
    "name": "Ban Napè",
    "lat": 18.3053,
    "lng": 105.0718
  },
  {
    "id": 1655559,
    "name": "Luang Prabang",
    "lat": 19.8933,
    "lng": 102.1525
  },
  {
    "id": 1652203,
    "name": "Xam Nua",
    "lat": 20.4164,
    "lng": 104.045
  },
  {
    "id": 1655123,
    "name": "Muang Phônsavan",
    "lat": 19.4494,
    "lng": 103.1917
  },
  {
    "id": 9948272,
    "name": "Sekong",
    "lat": 15.34582,
    "lng": 106.72368
  },
  {
    "id": 1658073,
    "name": "Ban Xénô",
    "lat": 16.6759,
    "lng": 104.98798
  },
  {
    "id": 1655087,
    "name": "Vang Vieng",
    "lat": 18.9235,
    "lng": 102.44784
  },
  {
    "id": 1655078,
    "name": "Muang Xay",
    "lat": 20.69229,
    "lng": 101.98368
  },
  {
    "id": 1655107,
    "name": "Muang Sing",
    "lat": 21.19206,
    "lng": 101.14789
  },
  {
    "id": 1655140,
    "name": "Pakxan",
    "lat": 18.3942,
    "lng": 103.6611
  },
  {
    "id": 1657897,
    "name": "Borikhan",
    "lat": 18.56286,
    "lng": 103.72671
  },
  {
    "id": 1904391,
    "name": "Ban Houakhoua",
    "lat": 20.2467,
    "lng": 100.45401
  }
]