[
  {
    "id": 3576686,
    "name": "Gros Islet",
    "lat": 14.06667,
    "lng": -60.95
  },
  {
    "id": 3576812,
    "name": "Castries",
    "lat": 13.9957,
    "lng": -61.00614
  },
  {
    "id": 3576854,
    "name": "Bisee",
    "lat": 14.02429,
    "lng": -60.97445
  },
  {
    "id": 3576765,
    "name": "Dennery",
    "lat": 13.91409,
    "lng": -60.89132
  },
  {
    "id": 3576663,
    "name": "Laborie",
    "lat": 13.75,
    "lng": -60.98333
  },
  {
    "id": 3576795,
    "name": "Choiseul",
    "lat": 13.77273,
    "lng": -61.04931
  },
  {
    "id": 3576414,
    "name": "Vieux Fort",
    "lat": 13.71667,
    "lng": -60.95
  },
  {
    "id": 3576569,
    "name": "Micoud",
    "lat": 13.81667,
    "lng": -60.9
  },
  {
    "id": 3576442,
    "name": "Soufrière",
    "lat": 13.85616,
    "lng": -61.0566
  },
  {
    "id": 3576791,
    "name": "Ciceron",
    "lat": 13.99009,
    "lng": -61.00806
  },
  {
    "id": 3576508,
    "name": "Praslin",
    "lat": 13.87545,
    "lng": -60.89717
  },
  {
    "id": 3576830,
    "name": "Canaries",
    "lat": 13.90224,
    "lng": -61.06459
  },
  {
    "id": 3576888,
    "name": "Augier",
    "lat": 13.76324,
    "lng": -60.97893
  },
  {
    "id": 3576885,
    "name": "Balata",
    "lat": 14.01397,
    "lng": -60.95598
  },
  {
    "id": 11954745,
    "name": "Beauséjour",
    "lat": 14.0754,
    "lng": -60.94423
  },
  {
    "id": 3576781,
    "name": "Corinthe",
    "lat": 14.04531,
    "lng": -60.9607
  },
  {
    "id": 3576637,
    "name": "La Resource",
    "lat": 13.74461,
    "lng": -60.95769
  },
  {
    "id": 3576895,
    "name": "Anse Ger",
    "lat": 13.79775,
    "lng": -60.9164
  },
  {
    "id": 11955884,
    "name": "Pierrot",
    "lat": 13.77111,
    "lng": -60.94393
  },
  {
    "id": 9072631,
    "name": "Bocage",
    "lat": 13.98892,
    "lng": -60.97202
  },
  {
    "id": 11955981,
    "name": "Au Leon",
    "lat": 13.94583,
    "lng": -60.9078
  },
  {
    "id": 11955912,
    "name": "Ti Rocher",
    "lat": 13.81661,
    "lng": -60.93019
  },
  {
    "id": 3576664,
    "name": "L’Abbayée",
    "lat": 13.92715,
    "lng": -60.97193
  },
  {
    "id": 3576639,
    "name": "La Pointe",
    "lat": 13.846,
    "lng": -60.90236
  },
  {
    "id": 3576894,
    "name": "Anse La Raye",
    "lat": 13.94619,
    "lng": -61.03879
  },
  {
    "id": 3576555,
    "name": "Mon Repos",
    "lat": 13.85977,
    "lng": -60.90225
  },
  {
    "id": 3576551,
    "name": "Morne Doudon",
    "lat": 14.00988,
    "lng": -60.97241
  },
  {
    "id": 3576836,
    "name": "Cabiche",
    "lat": 14.00402,
    "lng": -60.94778
  },
  {
    "id": 11954768,
    "name": "Grande Rivière",
    "lat": 14.03252,
    "lng": -60.95331
  },
  {
    "id": 3576821,
    "name": "Cantonement",
    "lat": 13.75263,
    "lng": -60.97529
  },
  {
    "id": 3576856,
    "name": "Bexon",
    "lat": 13.95256,
    "lng": -60.97782
  },
  {
    "id": 3576562,
    "name": "Monchy",
    "lat": 14.05319,
    "lng": -60.92987
  },
  {
    "id": 3576719,
    "name": "Forestière",
    "lat": 13.95947,
    "lng": -60.96253
  },
  {
    "id": 3576818,
    "name": "Cap Estate",
    "lat": 14.09956,
    "lng": -60.94346
  }
]