[
  {
    "id": 456172,
    "name": "Riga",
    "lat": 56.946,
    "lng": 24.10589
  },
  {
    "id": 460413,
    "name": "Daugavpils",
    "lat": 55.88333,
    "lng": 26.53333
  },
  {
    "id": 457954,
    "name": "Liepāja",
    "lat": 56.50474,
    "lng": 21.01085
  },
  {
    "id": 459279,
    "name": "Jelgava",
    "lat": 56.65,
    "lng": 23.71278
  },
  {
    "id": 459201,
    "name": "Jūrmala",
    "lat": 56.968,
    "lng": 23.77038
  },
  {
    "id": 454310,
    "name": "Ventspils",
    "lat": 57.39485,
    "lng": 21.56121
  },
  {
    "id": 456202,
    "name": "Rēzekne",
    "lat": 56.51028,
    "lng": 27.34
  },
  {
    "id": 453754,
    "name": "Valmiera",
    "lat": 57.54108,
    "lng": 25.42751
  },
  {
    "id": 457065,
    "name": "Ogre",
    "lat": 56.8162,
    "lng": 24.61401
  },
  {
    "id": 459283,
    "name": "Jēkabpils",
    "lat": 56.49903,
    "lng": 25.85735
  },
  {
    "id": 864723,
    "name": "Mārupe",
    "lat": 56.90544,
    "lng": 24.05113
  },
  {
    "id": 455898,
    "name": "Salaspils",
    "lat": 56.86014,
    "lng": 24.36544
  },
  {
    "id": 454768,
    "name": "Tukums",
    "lat": 56.96764,
    "lng": 23.15554
  },
  {
    "id": 460570,
    "name": "Cēsis",
    "lat": 57.31188,
    "lng": 25.27456
  },
  {
    "id": 455718,
    "name": "Sigulda",
    "lat": 57.15375,
    "lng": 24.85953
  },
  {
    "id": 458460,
    "name": "Kuldīga",
    "lat": 56.97399,
    "lng": 21.95721
  },
  {
    "id": 461114,
    "name": "Bauska",
    "lat": 56.4071,
    "lng": 24.18733
  },
  {
    "id": 457052,
    "name": "Olaine",
    "lat": 56.79583,
    "lng": 23.93726
  },
  {
    "id": 456530,
    "name": "Preiļi",
    "lat": 56.29444,
    "lng": 26.72459
  },
  {
    "id": 455890,
    "name": "Saldus",
    "lat": 56.66363,
    "lng": 22.48807
  },
  {
    "id": 454970,
    "name": "Talsi",
    "lat": 57.24562,
    "lng": 22.58137
  },
  {
    "id": 460312,
    "name": "Dobele",
    "lat": 56.62372,
    "lng": 23.2751
  },
  {
    "id": 461602,
    "name": "Aizpute",
    "lat": 56.72108,
    "lng": 21.60156
  },
  {
    "id": 459598,
    "name": "Ikšķile",
    "lat": 56.83399,
    "lng": 24.49679
  },
  {
    "id": 457776,
    "name": "Ludza",
    "lat": 56.53373,
    "lng": 27.72155
  },
  {
    "id": 458623,
    "name": "Krāslava",
    "lat": 55.89514,
    "lng": 27.16799
  },
  {
    "id": 457860,
    "name": "Līvāni",
    "lat": 56.35431,
    "lng": 26.17579
  },
  {
    "id": 864721,
    "name": "Baloži",
    "lat": 56.87643,
    "lng": 24.11825
  },
  {
    "id": 461650,
    "name": "Ādaži",
    "lat": 57.0708,
    "lng": 24.33678
  },
  {
    "id": 459668,
    "name": "Gulbene",
    "lat": 57.17767,
    "lng": 26.75291
  },
  {
    "id": 461615,
    "name": "Aizkraukle",
    "lat": 56.60477,
    "lng": 25.25534
  },
  {
    "id": 458511,
    "name": "Krustpils",
    "lat": 56.51068,
    "lng": 25.86117
  },
  {
    "id": 457714,
    "name": "Madona",
    "lat": 56.85329,
    "lng": 26.21698
  },
  {
    "id": 457890,
    "name": "Limbaži",
    "lat": 57.51287,
    "lng": 24.71941
  },
  {
    "id": 461528,
    "name": "Alūksne",
    "lat": 57.4215,
    "lng": 27.04672
  },
  {
    "id": 454714,
    "name": "Ulbroka",
    "lat": 56.9363,
    "lng": 24.30387
  },
  {
    "id": 457965,
    "name": "Lielvārde",
    "lat": 56.72066,
    "lng": 24.80743
  },
  {
    "id": 461163,
    "name": "Balvi",
    "lat": 57.1313,
    "lng": 27.26583
  },
  {
    "id": 458880,
    "name": "Ķekava",
    "lat": 56.82662,
    "lng": 24.23
  },
  {
    "id": 458972,
    "name": "Kārsava",
    "lat": 56.78405,
    "lng": 27.68829
  },
  {
    "id": 455406,
    "name": "Smiltene",
    "lat": 57.42444,
    "lng": 25.90164
  },
  {
    "id": 454572,
    "name": "Valka",
    "lat": 57.7752,
    "lng": 26.01013
  },
  {
    "id": 461539,
    "name": "Aloja",
    "lat": 57.76723,
    "lng": 24.87743
  },
  {
    "id": 459624,
    "name": "Iecava",
    "lat": 56.59766,
    "lng": 24.20763
  },
  {
    "id": 459692,
    "name": "Grobiņa",
    "lat": 56.53521,
    "lng": 21.16782
  },
  {
    "id": 461224,
    "name": "Baldone",
    "lat": 56.74451,
    "lng": 24.40078
  },
  {
    "id": 456954,
    "name": "Ozolnieki",
    "lat": 56.68986,
    "lng": 23.7761
  },
  {
    "id": 454910,
    "name": "Tērvete",
    "lat": 56.47989,
    "lng": 23.38895
  },
  {
    "id": 459031,
    "name": "Kandava",
    "lat": 57.04087,
    "lng": 22.77466
  },
  {
    "id": 454537,
    "name": "Vangaži",
    "lat": 57.09358,
    "lng": 24.54468
  },
  {
    "id": 455812,
    "name": "Saulkrasti",
    "lat": 57.26224,
    "lng": 24.41471
  },
  {
    "id": 457142,
    "name": "Nīca",
    "lat": 56.34601,
    "lng": 21.06401
  },
  {
    "id": 456685,
    "name": "Piņķi",
    "lat": 56.94189,
    "lng": 23.91365
  },
  {
    "id": 461064,
    "name": "Berģi",
    "lat": 56.98639,
    "lng": 24.29917
  },
  {
    "id": 458687,
    "name": "Koknese",
    "lat": 56.65163,
    "lng": 25.43637
  },
  {
    "id": 456635,
    "name": "Pļaviņas",
    "lat": 56.6178,
    "lng": 25.72552
  },
  {
    "id": 460786,
    "name": "Brocēni",
    "lat": 56.6789,
    "lng": 22.56945
  },
  {
    "id": 454178,
    "name": "Viļāni",
    "lat": 56.55253,
    "lng": 26.92449
  },
  {
    "id": 456008,
    "name": "Rūjiena",
    "lat": 57.89752,
    "lng": 25.33155
  },
  {
    "id": 459102,
    "name": "Kalnciems",
    "lat": 56.79908,
    "lng": 23.61503
  },
  {
    "id": 461566,
    "name": "Aknīste",
    "lat": 56.16152,
    "lng": 25.74783
  },
  {
    "id": 455910,
    "name": "Salacgrīva",
    "lat": 57.75312,
    "lng": 24.35895
  },
  {
    "id": 455523,
    "name": "Skrīveri",
    "lat": 56.645,
    "lng": 25.12058
  },
  {
    "id": 459419,
    "name": "Jaunciems",
    "lat": 57.0391,
    "lng": 24.17413
  },
  {
    "id": 460285,
    "name": "Drabeši",
    "lat": 57.24316,
    "lng": 25.27748
  },
  {
    "id": 460001,
    "name": "Ērgļi",
    "lat": 56.89752,
    "lng": 25.63668
  },
  {
    "id": 459220,
    "name": "Jumprava",
    "lat": 56.67613,
    "lng": 24.9721
  },
  {
    "id": 461336,
    "name": "Auce",
    "lat": 56.45981,
    "lng": 22.90169
  },
  {
    "id": 6615326,
    "name": "Vecrīga",
    "lat": 56.94966,
    "lng": 24.10418
  },
  {
    "id": 456503,
    "name": "Priekuļi",
    "lat": 57.315,
    "lng": 25.36147
  },
  {
    "id": 454848,
    "name": "Tīreļi",
    "lat": 56.83991,
    "lng": 23.58902
  },
  {
    "id": 454273,
    "name": "Vecumnieki",
    "lat": 56.60608,
    "lng": 24.52232
  },
  {
    "id": 458892,
    "name": "Ķegums",
    "lat": 56.7451,
    "lng": 24.72439
  },
  {
    "id": 459586,
    "name": "Ilūkste",
    "lat": 55.97754,
    "lng": 26.29655
  },
  {
    "id": 459563,
    "name": "Inčukalns",
    "lat": 57.09867,
    "lng": 24.6863
  },
  {
    "id": 459402,
    "name": "Jaunjelgava",
    "lat": 56.61319,
    "lng": 25.08316
  },
  {
    "id": 457799,
    "name": "Lubāna",
    "lat": 56.90425,
    "lng": 26.71606
  },
  {
    "id": 453850,
    "name": "Zilupe",
    "lat": 56.38616,
    "lng": 28.12165
  },
  {
    "id": 457408,
    "name": "Mērsrags",
    "lat": 57.33535,
    "lng": 23.12455
  },
  {
    "id": 456506,
    "name": "Priekule",
    "lat": 56.44679,
    "lng": 21.58968
  },
  {
    "id": 456107,
    "name": "Roja",
    "lat": 57.50146,
    "lng": 22.80881
  },
  {
    "id": 460474,
    "name": "Dagda",
    "lat": 56.09512,
    "lng": 27.53723
  },
  {
    "id": 455520,
    "name": "Skrunda",
    "lat": 56.67749,
    "lng": 22.01649
  },
  {
    "id": 454530,
    "name": "Varakļāni",
    "lat": 56.60826,
    "lng": 26.75377
  },
  {
    "id": 460019,
    "name": "Engure",
    "lat": 57.16061,
    "lng": 23.22527
  },
  {
    "id": 455260,
    "name": "Stende",
    "lat": 57.14497,
    "lng": 22.53482
  },
  {
    "id": 454722,
    "name": "Ugāle",
    "lat": 57.27464,
    "lng": 22.03211
  },
  {
    "id": 454216,
    "name": "Viesīte",
    "lat": 56.34751,
    "lng": 25.55514
  },
  {
    "id": 454173,
    "name": "Vilce",
    "lat": 56.42032,
    "lng": 23.54781
  },
  {
    "id": 455937,
    "name": "Sabile",
    "lat": 57.04577,
    "lng": 22.57261
  },
  {
    "id": 457148,
    "name": "Nereta",
    "lat": 56.20279,
    "lng": 25.30752
  },
  {
    "id": 461628,
    "name": "Ainaži",
    "lat": 57.86348,
    "lng": 24.35853
  },
  {
    "id": 460568,
    "name": "Cesvaine",
    "lat": 56.96754,
    "lng": 26.30764
  },
  {
    "id": 454130,
    "name": "Viļaka",
    "lat": 57.18458,
    "lng": 27.6722
  },
  {
    "id": 454584,
    "name": "Valdemārpils",
    "lat": 57.37068,
    "lng": 22.59188
  },
  {
    "id": 457533,
    "name": "Mazsalaca",
    "lat": 57.86329,
    "lng": 25.05475
  },
  {
    "id": 455786,
    "name": "Seda",
    "lat": 57.65042,
    "lng": 25.75089
  },
  {
    "id": 459448,
    "name": "Jaunaglona",
    "lat": 56.16066,
    "lng": 27.00714
  },
  {
    "id": 457915,
    "name": "Liezēre",
    "lat": 57.01823,
    "lng": 26.06395
  },
  {
    "id": 459357,
    "name": "Jaunpils",
    "lat": 56.73137,
    "lng": 23.01247
  },
  {
    "id": 457912,
    "name": "Līgatne",
    "lat": 57.23429,
    "lng": 25.04059
  },
  {
    "id": 460071,
    "name": "Ēdole",
    "lat": 57.02065,
    "lng": 21.69113
  },
  {
    "id": 455166,
    "name": "Strenči",
    "lat": 57.62574,
    "lng": 25.68535
  },
  {
    "id": 454002,
    "name": "Zaķumuiža",
    "lat": 56.97033,
    "lng": 24.47894
  },
  {
    "id": 461534,
    "name": "Alsunga",
    "lat": 56.98194,
    "lng": 21.55938
  },
  {
    "id": 455976,
    "name": "Pilsrundāle",
    "lat": 56.42503,
    "lng": 23.987
  },
  {
    "id": 461631,
    "name": "Aglona",
    "lat": 56.13274,
    "lng": 27.00682
  },
  {
    "id": 457004,
    "name": "Ošupe",
    "lat": 56.85331,
    "lng": 26.74199
  },
  {
    "id": 456827,
    "name": "Pāvilosta",
    "lat": 56.88791,
    "lng": 21.18593
  },
  {
    "id": 456696,
    "name": "Piltene",
    "lat": 57.22426,
    "lng": 21.67439
  },
  {
    "id": 455677,
    "name": "Silene",
    "lat": 55.75284,
    "lng": 26.78508
  },
  {
    "id": 455298,
    "name": "Staicele",
    "lat": 57.83579,
    "lng": 24.74706
  },
  {
    "id": 459099,
    "name": "Kalngale",
    "lat": 57.07909,
    "lng": 24.15924
  },
  {
    "id": 461442,
    "name": "Ape",
    "lat": 57.53928,
    "lng": 26.69291
  },
  {
    "id": 455427,
    "name": "Smārde",
    "lat": 56.9542,
    "lng": 23.33736
  },
  {
    "id": 457297,
    "name": "Milzkalne",
    "lat": 56.97752,
    "lng": 23.22583
  },
  {
    "id": 456344,
    "name": "Ragaciems",
    "lat": 57.02226,
    "lng": 23.49561
  },
  {
    "id": 455102,
    "name": "Subate",
    "lat": 56.0062,
    "lng": 25.90756
  },
  {
    "id": 454408,
    "name": "Vecpiebalga",
    "lat": 57.0609,
    "lng": 25.81624
  },
  {
    "id": 456550,
    "name": "Pope",
    "lat": 57.39799,
    "lng": 21.85241
  },
  {
    "id": 460171,
    "name": "Durbe",
    "lat": 56.5887,
    "lng": 21.36978
  }
]