[
  {
    "id": 456172,
    "name": "Riga",
    "lat": 56.946,
    "lng": 24.10589
  },
  {
    "id": 460413,
    "name": "Daugavpils",
    "lat": 55.88333,
    "lng": 26.53333
  },
  {
    "id": 457954,
    "name": "Liepāja",
    "lat": 56.50474,
    "lng": 21.01085
  },
  {
    "id": 459279,
    "name": "Jelgava",
    "lat": 56.65,
    "lng": 23.71278
  },
  {
    "id": 459201,
    "name": "Jūrmala",
    "lat": 56.968,
    "lng": 23.77038
  },
  {
    "id": 454310,
    "name": "Ventspils",
    "lat": 57.39485,
    "lng": 21.56121
  },
  {
    "id": 456202,
    "name": "Rēzekne",
    "lat": 56.51028,
    "lng": 27.34
  },
  {
    "id": 453754,
    "name": "Valmiera",
    "lat": 57.54108,
    "lng": 25.42751
  },
  {
    "id": 457065,
    "name": "Ogre",
    "lat": 56.8162,
    "lng": 24.61401
  },
  {
    "id": 459283,
    "name": "Jēkabpils",
    "lat": 56.49903,
    "lng": 25.85735
  },
  {
    "id": 864723,
    "name": "Mārupe",
    "lat": 56.90544,
    "lng": 24.05113
  },
  {
    "id": 455898,
    "name": "Salaspils",
    "lat": 56.86014,
    "lng": 24.36544
  },
  {
    "id": 454768,
    "name": "Tukums",
    "lat": 56.96764,
    "lng": 23.15554
  },
  {
    "id": 460570,
    "name": "Cēsis",
    "lat": 57.31188,
    "lng": 25.27456
  }
]