[
  {
    "id": 618426,
    "name": "Chisinau",
    "lat": 47.00902,
    "lng": 28.85938
  },
  {
    "id": 617239,
    "name": "Tiraspol",
    "lat": 46.84275,
    "lng": 29.6284
  },
  {
    "id": 618605,
    "name": "Bălţi",
    "lat": 47.76291,
    "lng": 27.92854
  },
  {
    "id": 618577,
    "name": "Bender",
    "lat": 46.83158,
    "lng": 29.47671
  },
  {
    "id": 617486,
    "name": "Rîbniţa",
    "lat": 47.76817,
    "lng": 29.01
  },
  {
    "id": 618456,
    "name": "Cahul",
    "lat": 45.90456,
    "lng": 28.19516
  },
  {
    "id": 617180,
    "name": "Ungheni",
    "lat": 47.21023,
    "lng": 27.80013
  },
  {
    "id": 617367,
    "name": "Soroca",
    "lat": 48.15659,
    "lng": 28.28489
  },
  {
    "id": 617638,
    "name": "Orhei",
    "lat": 47.38503,
    "lng": 28.82535
  },
  {
    "id": 618365,
    "name": "Dubăsari",
    "lat": 47.26562,
    "lng": 29.16667
  },
  {
    "id": 618405,
    "name": "Comrat",
    "lat": 46.29488,
    "lng": 28.65713
  },
  {
    "id": 617076,
    "name": "Edineţ",
    "lat": 48.17319,
    "lng": 27.30075
  },
  {
    "id": 618450,
    "name": "Ceadîr-Lunga",
    "lat": 46.06169,
    "lng": 28.83078
  },
  {
    "id": 618120,
    "name": "Căuşeni",
    "lat": 46.63738,
    "lng": 29.41087
  },
  {
    "id": 617302,
    "name": "Strășeni",
    "lat": 47.14216,
    "lng": 28.60774
  },
  {
    "id": 617993,
    "name": "Hînceşti",
    "lat": 46.83089,
    "lng": 28.58999
  },
  {
    "id": 618329,
    "name": "Floreşti",
    "lat": 47.89168,
    "lng": 28.29339
  },
  {
    "id": 618370,
    "name": "Drochia",
    "lat": 48.03686,
    "lng": 27.81242
  },
  {
    "id": 618054,
    "name": "Codru",
    "lat": 46.97648,
    "lng": 28.819
  },
  {
    "id": 617345,
    "name": "Bilicenii Vechi",
    "lat": 47.6558,
    "lng": 28.04734
  },
  {
    "id": 617381,
    "name": "Slobozia",
    "lat": 46.72927,
    "lng": 29.70446
  },
  {
    "id": 618196,
    "name": "Ialoveni",
    "lat": 46.94357,
    "lng": 28.78153
  },
  {
    "id": 617914,
    "name": "Sîngerei",
    "lat": 47.63694,
    "lng": 28.1407
  },
  {
    "id": 618344,
    "name": "Fălești",
    "lat": 47.57667,
    "lng": 27.71264
  },
  {
    "id": 617096,
    "name": "Vulcăneşti",
    "lat": 45.68492,
    "lng": 28.40613
  },
  {
    "id": 617904,
    "name": "Leova",
    "lat": 46.48195,
    "lng": 28.25298
  },
  {
    "id": 618512,
    "name": "Briceni",
    "lat": 48.35628,
    "lng": 27.70293
  },
  {
    "id": 618454,
    "name": "Călăraşi",
    "lat": 47.25548,
    "lng": 28.30953
  },
  {
    "id": 617270,
    "name": "Taraclia",
    "lat": 45.90321,
    "lng": 28.66628
  },
  {
    "id": 618404,
    "name": "Congaz",
    "lat": 46.10744,
    "lng": 28.59303
  },
  {
    "id": 617482,
    "name": "Rîşcani",
    "lat": 47.94829,
    "lng": 27.56669
  },
  {
    "id": 618406,
    "name": "Cimişlia",
    "lat": 46.52629,
    "lng": 28.7649
  },
  {
    "id": 617753,
    "name": "Nisporeni",
    "lat": 47.08025,
    "lng": 28.17098
  },
  {
    "id": 618453,
    "name": "Camenca",
    "lat": 48.03233,
    "lng": 28.69899
  },
  {
    "id": 618594,
    "name": "Basarabeasca",
    "lat": 46.33352,
    "lng": 28.96165
  },
  {
    "id": 618387,
    "name": "Dnestrovsc",
    "lat": 46.624,
    "lng": 29.906
  },
  {
    "id": 618261,
    "name": "Glodeni",
    "lat": 47.77467,
    "lng": 27.51753
  },
  {
    "id": 618400,
    "name": "Dancu",
    "lat": 46.75818,
    "lng": 28.20716
  },
  {
    "id": 618510,
    "name": "Briceni",
    "lat": 48.36302,
    "lng": 27.07847
  },
  {
    "id": 617502,
    "name": "Rezina",
    "lat": 47.74857,
    "lng": 28.96769
  },
  {
    "id": 618234,
    "name": "Hryhoriopol",
    "lat": 47.15413,
    "lng": 29.30008
  },
  {
    "id": 618382,
    "name": "Donduşeni",
    "lat": 48.24268,
    "lng": 27.6101
  },
  {
    "id": 617659,
    "name": "Ocniţa",
    "lat": 48.38231,
    "lng": 27.43864
  },
  {
    "id": 617778,
    "name": "Mîndreşti",
    "lat": 47.50525,
    "lng": 28.27687
  },
  {
    "id": 618067,
    "name": "Chiţcani",
    "lat": 46.78296,
    "lng": 29.61682
  },
  {
    "id": 618631,
    "name": "Otaci",
    "lat": 48.43285,
    "lng": 27.79912
  },
  {
    "id": 617702,
    "name": "Anenii Noi",
    "lat": 46.87795,
    "lng": 29.23503
  },
  {
    "id": 617284,
    "name": "Ştefan Vodă",
    "lat": 46.51294,
    "lng": 29.66223
  },
  {
    "id": 617965,
    "name": "Cricova",
    "lat": 47.13835,
    "lng": 28.86156
  },
  {
    "id": 617602,
    "name": "Pervomaisc",
    "lat": 46.73253,
    "lng": 29.9617
  },
  {
    "id": 617279,
    "name": "Sîngera",
    "lat": 46.91557,
    "lng": 28.96673
  },
  {
    "id": 618403,
    "name": "Criuleni",
    "lat": 47.2134,
    "lng": 29.15847
  },
  {
    "id": 824153,
    "name": "Ciorescu",
    "lat": 47.13,
    "lng": 28.88937
  },
  {
    "id": 617254,
    "name": "Teleneşti",
    "lat": 47.50179,
    "lng": 28.36478
  },
  {
    "id": 617372,
    "name": "Şoldăneşti",
    "lat": 47.81618,
    "lng": 28.79841
  },
  {
    "id": 617187,
    "name": "Tvardița",
    "lat": 46.14826,
    "lng": 28.96491
  },
  {
    "id": 617317,
    "name": "Stăuceni",
    "lat": 47.09643,
    "lng": 28.86791
  },
  {
    "id": 617081,
    "name": "Iargara",
    "lat": 46.4252,
    "lng": 28.42676
  },
  {
    "id": 617164,
    "name": "Vadul lui Vodă",
    "lat": 47.09009,
    "lng": 29.0757
  },
  {
    "id": 830975,
    "name": "Biruinţa",
    "lat": 47.81353,
    "lng": 28.07004
  },
  {
    "id": 617973,
    "name": "Crasnoe",
    "lat": 46.643,
    "lng": 29.823
  },
  {
    "id": 618057,
    "name": "Cocieri",
    "lat": 47.3017,
    "lng": 29.11755
  },
  {
    "id": 617149,
    "name": "Varniţa",
    "lat": 46.86606,
    "lng": 29.46636
  },
  {
    "id": 618452,
    "name": "Cantemir",
    "lat": 46.27749,
    "lng": 28.20052
  },
  {
    "id": 824134,
    "name": "Vatra",
    "lat": 47.0746,
    "lng": 28.73685
  },
  {
    "id": 617170,
    "name": "Ustia",
    "lat": 47.25524,
    "lng": 29.12406
  },
  {
    "id": 618349,
    "name": "Giurgiuleşti",
    "lat": 45.48167,
    "lng": 28.19722
  },
  {
    "id": 617837,
    "name": "Mărculeşti",
    "lat": 47.86897,
    "lng": 28.24109
  },
  {
    "id": 617471,
    "name": "Saharna",
    "lat": 47.69107,
    "lng": 28.97458
  },
  {
    "id": 617053,
    "name": "Tiraspolul Nou",
    "lat": 46.83,
    "lng": 29.564
  },
  {
    "id": 618275,
    "name": "Ghindești",
    "lat": 47.85482,
    "lng": 28.37679
  },
  {
    "id": 618491,
    "name": "Bugeac",
    "lat": 46.36554,
    "lng": 28.6625
  },
  {
    "id": 617118,
    "name": "Vişniovca",
    "lat": 46.3326,
    "lng": 28.44797
  },
  {
    "id": 618459,
    "name": "Bucovăţ",
    "lat": 47.19064,
    "lng": 28.45802
  },
  {
    "id": 617823,
    "name": "Merenii Noi",
    "lat": 46.92594,
    "lng": 29.0624
  },
  {
    "id": 617830,
    "name": "Maiac",
    "lat": 47.23727,
    "lng": 29.38498
  },
  {
    "id": 617569,
    "name": "Popeştii de Sus",
    "lat": 48.08806,
    "lng": 28.02556
  },
  {
    "id": 617578,
    "name": "Pogăneşti",
    "lat": 46.69249,
    "lng": 28.23192
  },
  {
    "id": 617541,
    "name": "Dolna",
    "lat": 47.12189,
    "lng": 28.27033
  },
  {
    "id": 617660,
    "name": "Ocniţa",
    "lat": 48.13278,
    "lng": 28.63558
  }
]