[
  {
    "id": 618426,
    "name": "Chisinau",
    "lat": 47.00902,
    "lng": 28.85938
  },
  {
    "id": 617239,
    "name": "Tiraspol",
    "lat": 46.84275,
    "lng": 29.6284
  },
  {
    "id": 618605,
    "name": "Bălţi",
    "lat": 47.76291,
    "lng": 27.92854
  },
  {
    "id": 618577,
    "name": "Bender",
    "lat": 46.83158,
    "lng": 29.47671
  },
  {
    "id": 617486,
    "name": "Rîbniţa",
    "lat": 47.76817,
    "lng": 29.01
  },
  {
    "id": 618456,
    "name": "Cahul",
    "lat": 45.90456,
    "lng": 28.19516
  },
  {
    "id": 617180,
    "name": "Ungheni",
    "lat": 47.21023,
    "lng": 27.80013
  },
  {
    "id": 617367,
    "name": "Soroca",
    "lat": 48.15659,
    "lng": 28.28489
  },
  {
    "id": 617638,
    "name": "Orhei",
    "lat": 47.38503,
    "lng": 28.82535
  },
  {
    "id": 618365,
    "name": "Dubăsari",
    "lat": 47.26562,
    "lng": 29.16667
  },
  {
    "id": 618405,
    "name": "Comrat",
    "lat": 46.29488,
    "lng": 28.65713
  },
  {
    "id": 617076,
    "name": "Edineţ",
    "lat": 48.17319,
    "lng": 27.30075
  },
  {
    "id": 618450,
    "name": "Ceadîr-Lunga",
    "lat": 46.06169,
    "lng": 28.83078
  },
  {
    "id": 618120,
    "name": "Căuşeni",
    "lat": 46.63738,
    "lng": 29.41087
  },
  {
    "id": 617302,
    "name": "Strășeni",
    "lat": 47.14216,
    "lng": 28.60774
  },
  {
    "id": 617993,
    "name": "Hînceşti",
    "lat": 46.83089,
    "lng": 28.58999
  },
  {
    "id": 618329,
    "name": "Floreşti",
    "lat": 47.89168,
    "lng": 28.29339
  },
  {
    "id": 618370,
    "name": "Drochia",
    "lat": 48.03686,
    "lng": 27.81242
  },
  {
    "id": 618054,
    "name": "Codru",
    "lat": 46.97648,
    "lng": 28.819
  },
  {
    "id": 617345,
    "name": "Bilicenii Vechi",
    "lat": 47.6558,
    "lng": 28.04734
  },
  {
    "id": 617381,
    "name": "Slobozia",
    "lat": 46.72927,
    "lng": 29.70446
  }
]