[
  {
    "id": 3193044,
    "name": "Podgorica",
    "lat": 42.44124,
    "lng": 19.26309
  },
  {
    "id": 3194494,
    "name": "Nikšić",
    "lat": 42.7731,
    "lng": 18.94446
  },
  {
    "id": 3199394,
    "name": "Herceg Novi",
    "lat": 42.45306,
    "lng": 18.5375
  },
  {
    "id": 3193161,
    "name": "Pljevlja",
    "lat": 43.3567,
    "lng": 19.35843
  },
  {
    "id": 3203106,
    "name": "Budva",
    "lat": 42.28721,
    "lng": 18.83922
  },
  {
    "id": 3204509,
    "name": "Bar",
    "lat": 42.0937,
    "lng": 19.09841
  },
  {
    "id": 3204176,
    "name": "Bijelo Polje",
    "lat": 43.03834,
    "lng": 19.74758
  },
  {
    "id": 3202641,
    "name": "Cetinje",
    "lat": 42.39063,
    "lng": 18.91417
  }
]