[
  {
    "id": 3193044,
    "name": "Podgorica",
    "lat": 42.44124,
    "lng": 19.26309
  },
  {
    "id": 3194494,
    "name": "Nikšić",
    "lat": 42.7731,
    "lng": 18.94446
  },
  {
    "id": 3199394,
    "name": "Herceg Novi",
    "lat": 42.45306,
    "lng": 18.5375
  },
  {
    "id": 3193161,
    "name": "Pljevlja",
    "lat": 43.3567,
    "lng": 19.35843
  },
  {
    "id": 3203106,
    "name": "Budva",
    "lat": 42.28721,
    "lng": 18.83922
  },
  {
    "id": 3204509,
    "name": "Bar",
    "lat": 42.0937,
    "lng": 19.09841
  },
  {
    "id": 3204176,
    "name": "Bijelo Polje",
    "lat": 43.03834,
    "lng": 19.74758
  },
  {
    "id": 3202641,
    "name": "Cetinje",
    "lat": 42.39063,
    "lng": 18.91417
  },
  {
    "id": 3199071,
    "name": "Berane",
    "lat": 42.84333,
    "lng": 19.87281
  },
  {
    "id": 3188516,
    "name": "Ulcinj",
    "lat": 41.92936,
    "lng": 19.22436
  },
  {
    "id": 786234,
    "name": "Rožaje",
    "lat": 42.83299,
    "lng": 20.16652
  },
  {
    "id": 3189073,
    "name": "Tivat",
    "lat": 42.43623,
    "lng": 18.69361
  },
  {
    "id": 3201903,
    "name": "Dobrota",
    "lat": 42.45417,
    "lng": 18.76833
  },
  {
    "id": 3197538,
    "name": "Kotor",
    "lat": 42.42067,
    "lng": 18.76825
  },
  {
    "id": 3202194,
    "name": "Danilovgrad",
    "lat": 42.55384,
    "lng": 19.14608
  },
  {
    "id": 3194926,
    "name": "Mojkovac",
    "lat": 42.96044,
    "lng": 19.5833
  },
  {
    "id": 3188584,
    "name": "Tuzi",
    "lat": 42.36578,
    "lng": 19.3297
  },
  {
    "id": 3199161,
    "name": "Igalo",
    "lat": 42.46007,
    "lng": 18.50647
  },
  {
    "id": 3193228,
    "name": "Plav",
    "lat": 42.5969,
    "lng": 19.94415
  },
  {
    "id": 3200422,
    "name": "Golubovci",
    "lat": 42.3352,
    "lng": 19.23104
  },
  {
    "id": 3197896,
    "name": "Kolašin",
    "lat": 42.82229,
    "lng": 19.51653
  },
  {
    "id": 3318488,
    "name": "Šušanj",
    "lat": 42.11556,
    "lng": 19.08833
  },
  {
    "id": 3204214,
    "name": "Bijela",
    "lat": 42.45333,
    "lng": 18.65556
  },
  {
    "id": 3191631,
    "name": "Risan",
    "lat": 42.515,
    "lng": 18.69556
  },
  {
    "id": 3186999,
    "name": "Žabljak",
    "lat": 43.15423,
    "lng": 19.12325
  },
  {
    "id": 3189429,
    "name": "Sutomore",
    "lat": 42.14278,
    "lng": 19.04667
  },
  {
    "id": 3194928,
    "name": "Mojanovići",
    "lat": 42.34167,
    "lng": 19.22139
  },
  {
    "id": 3199463,
    "name": "Gusinje",
    "lat": 42.56194,
    "lng": 19.83389
  },
  {
    "id": 3189979,
    "name": "Stari Bar",
    "lat": 42.097,
    "lng": 19.136
  },
  {
    "id": 3193131,
    "name": "Plužine",
    "lat": 43.15211,
    "lng": 18.83902
  },
  {
    "id": 3193413,
    "name": "Petrovac na Moru",
    "lat": 42.20556,
    "lng": 18.9425
  },
  {
    "id": 3192576,
    "name": "Prčanj",
    "lat": 42.4575,
    "lng": 18.74222
  },
  {
    "id": 3190178,
    "name": "Spuž",
    "lat": 42.515,
    "lng": 19.195
  },
  {
    "id": 3200326,
    "name": "Goričani",
    "lat": 42.33222,
    "lng": 19.21194
  },
  {
    "id": 3196540,
    "name": "Lipci",
    "lat": 42.49722,
    "lng": 18.65806
  },
  {
    "id": 3195390,
    "name": "Mataguži",
    "lat": 42.32361,
    "lng": 19.27278
  },
  {
    "id": 3204816,
    "name": "Andrijevica",
    "lat": 42.73389,
    "lng": 19.79194
  },
  {
    "id": 3201957,
    "name": "Dobra Voda",
    "lat": 42.04889,
    "lng": 19.14389
  },
  {
    "id": 3189528,
    "name": "Šula",
    "lat": 43.38472,
    "lng": 19.07306
  },
  {
    "id": 3192330,
    "name": "Prnjavor",
    "lat": 42.59806,
    "lng": 19.95056
  },
  {
    "id": 3196877,
    "name": "Kuta",
    "lat": 42.74111,
    "lng": 19.11917
  },
  {
    "id": 3187368,
    "name": "Vranj",
    "lat": 42.32583,
    "lng": 19.29778
  },
  {
    "id": 3204388,
    "name": "Bečići",
    "lat": 42.28389,
    "lng": 18.86917
  },
  {
    "id": 3194750,
    "name": "Mrčevac",
    "lat": 42.42,
    "lng": 18.71806
  },
  {
    "id": 3202096,
    "name": "Ðenovići",
    "lat": 42.43694,
    "lng": 18.60222
  },
  {
    "id": 3204177,
    "name": "Bijelo Polje",
    "lat": 42.30306,
    "lng": 19.19806
  },
  {
    "id": 3201675,
    "name": "Donja Lastva",
    "lat": 42.44306,
    "lng": 18.68861
  },
  {
    "id": 3195093,
    "name": "Miločani",
    "lat": 42.82917,
    "lng": 18.90444
  },
  {
    "id": 3194654,
    "name": "Muo",
    "lat": 42.43167,
    "lng": 18.7575
  },
  {
    "id": 3191222,
    "name": "Šavnik",
    "lat": 42.95692,
    "lng": 19.09605
  },
  {
    "id": 3204511,
    "name": "Baošići",
    "lat": 42.4425,
    "lng": 18.63
  },
  {
    "id": 3201044,
    "name": "Dučice",
    "lat": 42.71528,
    "lng": 19.12333
  },
  {
    "id": 3202270,
    "name": "Ćurilac",
    "lat": 42.53472,
    "lng": 19.1175
  },
  {
    "id": 3203616,
    "name": "Botun",
    "lat": 42.385,
    "lng": 19.2
  },
  {
    "id": 3193504,
    "name": "Perast",
    "lat": 42.48694,
    "lng": 18.69917
  },
  {
    "id": 3186901,
    "name": "Zagrad",
    "lat": 42.75,
    "lng": 19.09111
  },
  {
    "id": 3318253,
    "name": "Škaljari",
    "lat": 42.41861,
    "lng": 18.76639
  },
  {
    "id": 3189885,
    "name": "Stijena",
    "lat": 42.51944,
    "lng": 19.25806
  },
  {
    "id": 3201461,
    "name": "Donji Kokoti",
    "lat": 42.40111,
    "lng": 19.19722
  },
  {
    "id": 3204472,
    "name": "Barice",
    "lat": 43.0875,
    "lng": 19.485
  },
  {
    "id": 3194478,
    "name": "Njeguši",
    "lat": 42.43388,
    "lng": 18.81018
  },
  {
    "id": 3202023,
    "name": "Dinoša",
    "lat": 42.41861,
    "lng": 19.33889
  },
  {
    "id": 3199632,
    "name": "Grbe",
    "lat": 42.5,
    "lng": 19.19583
  }
]