[
  {
    "id": 3579247,
    "name": "Grand-Case",
    "lat": 18.10476,
    "lng": -63.05358
  },
  {
    "id": 6984577,
    "name": "Concordia",
    "lat": 18.06489,
    "lng": -63.07794
  },
  {
    "id": 3578851,
    "name": "Marigot",
    "lat": 18.06819,
    "lng": -63.08302
  },
  {
    "id": 6984545,
    "name": "Sandy Ground",
    "lat": 18.05851,
    "lng": -63.09944
  },
  {
    "id": 3578557,
    "name": "Quartier d’Orléans",
    "lat": 18.06912,
    "lng": -63.03542
  },
  {
    "id": 3578556,
    "name": "Colombier",
    "lat": 18.07193,
    "lng": -63.0601
  },
  {
    "id": 6984581,
    "name": "Agrément",
    "lat": 18.07514,
    "lng": -63.07826
  },
  {
    "id": 13535720,
    "name": "Oyster Pond",
    "lat": 18.05947,
    "lng": -63.01626
  },
  {
    "id": 3578434,
    "name": "Saint-James",
    "lat": 18.06454,
    "lng": -63.08554
  }
]