[
  {
    "id": 785842,
    "name": "Skopje",
    "lat": 41.99646,
    "lng": 21.43141
  },
  {
    "id": 788886,
    "name": "Kumanovo",
    "lat": 42.13279,
    "lng": 21.71585
  },
  {
    "id": 786735,
    "name": "Prilep",
    "lat": 41.34558,
    "lng": 21.5537
  },
  {
    "id": 792578,
    "name": "Bitola",
    "lat": 41.03226,
    "lng": 21.33553
  },
  {
    "id": 833262,
    "name": "Čair",
    "lat": 42.01528,
    "lng": 21.44111
  },
  {
    "id": 785082,
    "name": "Tetovo",
    "lat": 42.00989,
    "lng": 20.97138
  },
  {
    "id": 863675,
    "name": "Kisela Voda",
    "lat": 41.94889,
    "lng": 21.50278
  },
  {
    "id": 785058,
    "name": "Veles",
    "lat": 41.71719,
    "lng": 21.77196
  },
  {
    "id": 790295,
    "name": "Gostivar",
    "lat": 41.79627,
    "lng": 20.90799
  },
  {
    "id": 785482,
    "name": "Shtip",
    "lat": 41.74583,
    "lng": 22.19583
  },
  {
    "id": 7886881,
    "name": "Centar Župa",
    "lat": 41.47849,
    "lng": 20.55945
  },
  {
    "id": 787487,
    "name": "Ohrid",
    "lat": 41.11701,
    "lng": 20.80175
  },
  {
    "id": 789541,
    "name": "Kavadarci",
    "lat": 41.43344,
    "lng": 22.01218
  },
  {
    "id": 785387,
    "name": "Struga",
    "lat": 41.17787,
    "lng": 20.67894
  },
  {
    "id": 833260,
    "name": "Butel",
    "lat": 42.03083,
    "lng": 21.44667
  },
  {
    "id": 789403,
    "name": "Kochani",
    "lat": 41.91639,
    "lng": 22.41278
  },
  {
    "id": 785380,
    "name": "Strumica",
    "lat": 41.43763,
    "lng": 22.64288
  },
  {
    "id": 789527,
    "name": "Kičevo",
    "lat": 41.51274,
    "lng": 20.95867
  },
  {
    "id": 788654,
    "name": "Lipkovo",
    "lat": 42.15696,
    "lng": 21.58559
  },
  {
    "id": 783926,
    "name": "Zelino",
    "lat": 41.98028,
    "lng": 21.06417
  },
  {
    "id": 786565,
    "name": "Radovis",
    "lat": 41.63833,
    "lng": 22.46472
  },
  {
    "id": 785113,
    "name": "Tearce",
    "lat": 42.07593,
    "lng": 21.05179
  },
  {
    "id": 789045,
    "name": "Kriva Palanka",
    "lat": 42.20197,
    "lng": 22.33385
  },
  {
    "id": 833258,
    "name": "Šuto Orizare",
    "lat": 42.04,
    "lng": 21.425
  },
  {
    "id": 790744,
    "name": "Gevgelija",
    "lat": 41.14289,
    "lng": 22.50108
  },
  {
    "id": 787716,
    "name": "Negotino",
    "lat": 41.48456,
    "lng": 22.09056
  },
  {
    "id": 785345,
    "name": "Studeničani",
    "lat": 41.92208,
    "lng": 21.53483
  },
  {
    "id": 784424,
    "name": "Vinica",
    "lat": 41.8812,
    "lng": 22.51074
  },
  {
    "id": 791606,
    "name": "Debar",
    "lat": 41.52286,
    "lng": 20.52198
  },
  {
    "id": 787715,
    "name": "Negotino",
    "lat": 41.87792,
    "lng": 20.88389
  },
  {
    "id": 791559,
    "name": "Delcevo",
    "lat": 41.96722,
    "lng": 22.76944
  },
  {
    "id": 786341,
    "name": "Resen",
    "lat": 41.08999,
    "lng": 21.00885
  },
  {
    "id": 833357,
    "name": "Ilinden",
    "lat": 41.99297,
    "lng": 21.58084
  },
  {
    "id": 792227,
    "name": "Brvenica",
    "lat": 41.96707,
    "lng": 20.98091
  },
  {
    "id": 789611,
    "name": "Kamenjane",
    "lat": 41.94568,
    "lng": 20.92894
  },
  {
    "id": 792501,
    "name": "Bogovinje",
    "lat": 41.92235,
    "lng": 20.91533
  },
  {
    "id": 792656,
    "name": "Berovo",
    "lat": 41.70182,
    "lng": 22.85716
  },
  {
    "id": 785201,
    "name": "Sveti Nikole",
    "lat": 41.86956,
    "lng": 21.95274
  },
  {
    "id": 793113,
    "name": "Арачиново",
    "lat": 42.02679,
    "lng": 21.56276
  },
  {
    "id": 786700,
    "name": "Probishtip",
    "lat": 42.00306,
    "lng": 22.17861
  },
  {
    "id": 792019,
    "name": "Cegrane",
    "lat": 41.83889,
    "lng": 20.97583
  },
  {
    "id": 792419,
    "name": "Bosilovo",
    "lat": 41.44064,
    "lng": 22.72786
  },
  {
    "id": 784700,
    "name": "Vasilevo",
    "lat": 41.47423,
    "lng": 22.64506
  },
  {
    "id": 784027,
    "name": "Zajas",
    "lat": 41.60722,
    "lng": 20.93833
  },
  {
    "id": 787574,
    "name": "Novo Selo",
    "lat": 41.41536,
    "lng": 22.88336
  },
  {
    "id": 789339,
    "name": "Kondovo",
    "lat": 42.01151,
    "lng": 21.31427
  },
  {
    "id": 791363,
    "name": "Dolneni",
    "lat": 41.42459,
    "lng": 21.45455
  },
  {
    "id": 791131,
    "name": "Dračevo",
    "lat": 41.93667,
    "lng": 21.52167
  },
  {
    "id": 789091,
    "name": "Kratovo",
    "lat": 42.07906,
    "lng": 22.18167
  },
  {
    "id": 791371,
    "name": "Dolna Banjica",
    "lat": 41.78611,
    "lng": 20.90611
  },
  {
    "id": 785679,
    "name": "Sopište",
    "lat": 41.95561,
    "lng": 21.42942
  },
  {
    "id": 786238,
    "name": "Rostusa",
    "lat": 41.61,
    "lng": 20.6
  },
  {
    "id": 786595,
    "name": "Radishani",
    "lat": 42.06111,
    "lng": 21.44778
  },
  {
    "id": 788819,
    "name": "Labunista",
    "lat": 41.26861,
    "lng": 20.59611
  },
  {
    "id": 784212,
    "name": "Vrapčište",
    "lat": 41.83481,
    "lng": 20.8857
  },
  {
    "id": 791720,
    "name": "Chucher-Sandevo",
    "lat": 42.10361,
    "lng": 21.38222
  },
  {
    "id": 784679,
    "name": "Velesta",
    "lat": 41.24083,
    "lng": 20.64389
  },
  {
    "id": 792523,
    "name": "Bogdanci",
    "lat": 41.20363,
    "lng": 22.57586
  },
  {
    "id": 791548,
    "name": "Delogožda",
    "lat": 41.25728,
    "lng": 20.7218
  },
  {
    "id": 787072,
    "name": "Петровец",
    "lat": 41.93889,
    "lng": 21.615
  },
  {
    "id": 785881,
    "name": "Šipkovica",
    "lat": 42.035,
    "lng": 20.91556
  },
  {
    "id": 790857,
    "name": "Džepčište",
    "lat": 42.03287,
    "lng": 20.99817
  },
  {
    "id": 789629,
    "name": "Makedonska Kamenica",
    "lat": 42.02141,
    "lng": 22.58981
  },
  {
    "id": 789822,
    "name": "Jegunovce",
    "lat": 42.07243,
    "lng": 21.12314
  },
  {
    "id": 784114,
    "name": "Vrutok",
    "lat": 41.76861,
    "lng": 20.83917
  },
  {
    "id": 789028,
    "name": "Krivogashtani",
    "lat": 41.33611,
    "lng": 21.33306
  },
  {
    "id": 792257,
    "name": "Makedonski Brod",
    "lat": 41.51328,
    "lng": 21.21641
  },
  {
    "id": 788961,
    "name": "Krusevo",
    "lat": 41.36889,
    "lng": 21.24889
  },
  {
    "id": 787526,
    "name": "Oblesevo",
    "lat": 41.88333,
    "lng": 22.33389
  },
  {
    "id": 792592,
    "name": "Bistrica",
    "lat": 40.97892,
    "lng": 21.3658
  },
  {
    "id": 792007,
    "name": "Čelopek",
    "lat": 41.93167,
    "lng": 21.01333
  },
  {
    "id": 787016,
    "name": "Plasnica",
    "lat": 41.46786,
    "lng": 21.12272
  },
  {
    "id": 791542,
    "name": "Demir Kapija",
    "lat": 41.40633,
    "lng": 22.24305
  },
  {
    "id": 787877,
    "name": "Mogila",
    "lat": 41.10806,
    "lng": 21.37897
  },
  {
    "id": 788915,
    "name": "Kuklis",
    "lat": 41.40528,
    "lng": 22.66528
  },
  {
    "id": 787416,
    "name": "Orizari",
    "lat": 41.92262,
    "lng": 22.44628
  },
  {
    "id": 791443,
    "name": "Dobri Dol",
    "lat": 41.8652,
    "lng": 20.89009
  },
  {
    "id": 785515,
    "name": "Старо Нагоричане",
    "lat": 42.19806,
    "lng": 21.82861
  },
  {
    "id": 786239,
    "name": "Rosoman",
    "lat": 41.51671,
    "lng": 21.94585
  },
  {
    "id": 786477,
    "name": "Rankovce",
    "lat": 42.16964,
    "lng": 22.11617
  },
  {
    "id": 783938,
    "name": "Zelenikovo",
    "lat": 41.88381,
    "lng": 21.58962
  },
  {
    "id": 789563,
    "name": "Karbinci",
    "lat": 41.81769,
    "lng": 22.23253
  },
  {
    "id": 787052,
    "name": "Pirok",
    "lat": 41.91083,
    "lng": 20.91056
  },
  {
    "id": 784733,
    "name": "Valandovo",
    "lat": 41.31761,
    "lng": 22.56303
  },
  {
    "id": 787448,
    "name": "Oraovica",
    "lat": 41.62583,
    "lng": 22.51333
  },
  {
    "id": 786969,
    "name": "Podareš",
    "lat": 41.61389,
    "lng": 22.54222
  },
  {
    "id": 790248,
    "name": "Gradec",
    "lat": 41.89696,
    "lng": 20.90398
  },
  {
    "id": 790217,
    "name": "Gradsko",
    "lat": 41.57853,
    "lng": 21.94255
  },
  {
    "id": 784205,
    "name": "Vratnica",
    "lat": 42.14333,
    "lng": 21.11694
  },
  {
    "id": 790812,
    "name": "Forino",
    "lat": 41.82334,
    "lng": 20.96174
  },
  {
    "id": 785639,
    "name": "Srbinovo",
    "lat": 41.70586,
    "lng": 20.95859
  },
  {
    "id": 789342,
    "name": "Konče",
    "lat": 41.49528,
    "lng": 22.38547
  },
  {
    "id": 785802,
    "name": "Slatino",
    "lat": 42.06784,
    "lng": 21.03902
  },
  {
    "id": 785537,
    "name": "Star Dojran",
    "lat": 41.18688,
    "lng": 22.71856
  },
  {
    "id": 783845,
    "name": "Zletovo",
    "lat": 41.98861,
    "lng": 22.23611
  },
  {
    "id": 791419,
    "name": "Dobrošte",
    "lat": 42.10333,
    "lng": 21.07778
  },
  {
    "id": 792835,
    "name": "Batinci",
    "lat": 41.91909,
    "lng": 21.47978
  },
  {
    "id": 783809,
    "name": "Zrnovci",
    "lat": 41.85545,
    "lng": 22.44451
  },
  {
    "id": 791009,
    "name": "Drugovo",
    "lat": 41.4849,
    "lng": 20.92636
  },
  {
    "id": 790634,
    "name": "Golema Rečica",
    "lat": 41.98803,
    "lng": 20.94517
  },
  {
    "id": 787692,
    "name": "Nerašte",
    "lat": 42.10711,
    "lng": 21.1081
  },
  {
    "id": 792034,
    "name": "Čaška",
    "lat": 41.65056,
    "lng": 21.66222
  },
  {
    "id": 790848,
    "name": "Lozovo",
    "lat": 41.78364,
    "lng": 21.90615
  },
  {
    "id": 786582,
    "name": "Radolista",
    "lat": 41.16417,
    "lng": 20.62333
  },
  {
    "id": 792767,
    "name": "Belčišta",
    "lat": 41.30346,
    "lng": 20.82991
  },
  {
    "id": 784692,
    "name": "Vataša",
    "lat": 41.41694,
    "lng": 22.01889
  },
  {
    "id": 788105,
    "name": "Matejce",
    "lat": 42.12556,
    "lng": 21.59778
  },
  {
    "id": 785011,
    "name": "Topolčani",
    "lat": 41.22772,
    "lng": 21.43113
  },
  {
    "id": 787475,
    "name": "Oktisi",
    "lat": 41.2325,
    "lng": 20.60722
  },
  {
    "id": 785759,
    "name": "Слупчане",
    "lat": 42.17333,
    "lng": 21.62778
  },
  {
    "id": 787928,
    "name": "Miravci",
    "lat": 41.30925,
    "lng": 22.43641
  },
  {
    "id": 788145,
    "name": "Marino",
    "lat": 41.98776,
    "lng": 21.59148
  },
  {
    "id": 786251,
    "name": "Romanovci",
    "lat": 42.09472,
    "lng": 21.69306
  },
  {
    "id": 788021,
    "name": "Mešeišta",
    "lat": 41.23814,
    "lng": 20.77414
  },
  {
    "id": 787147,
    "name": "Pehčevo",
    "lat": 41.76252,
    "lng": 22.88982
  },
  {
    "id": 784462,
    "name": "Vevčani",
    "lat": 41.24041,
    "lng": 20.59279
  },
  {
    "id": 791332,
    "name": "Dolno Palčište",
    "lat": 41.96859,
    "lng": 20.92899
  },
  {
    "id": 788906,
    "name": "Kukurečani",
    "lat": 41.09562,
    "lng": 21.32454
  },
  {
    "id": 791954,
    "name": "Češinovo",
    "lat": 41.87148,
    "lng": 22.28961
  },
  {
    "id": 795062,
    "name": "Poroj",
    "lat": 42.02913,
    "lng": 20.99266
  },
  {
    "id": 787624,
    "name": "Novaci",
    "lat": 41.04197,
    "lng": 21.45866
  },
  {
    "id": 787301,
    "name": "Otlja",
    "lat": 42.14315,
    "lng": 21.58675
  },
  {
    "id": 790034,
    "name": "Идризово",
    "lat": 41.96083,
    "lng": 21.57556
  },
  {
    "id": 787778,
    "name": "Demir Hisar",
    "lat": 41.22029,
    "lng": 21.20405
  },
  {
    "id": 788516,
    "name": "Lojane",
    "lat": 42.23276,
    "lng": 21.6655
  },
  {
    "id": 787772,
    "name": "Murtino",
    "lat": 41.41537,
    "lng": 22.72589
  },
  {
    "id": 786171,
    "name": "Rusinovo",
    "lat": 41.68728,
    "lng": 22.80849
  },
  {
    "id": 783877,
    "name": "Žitoše",
    "lat": 41.41991,
    "lng": 21.29078
  },
  {
    "id": 785466,
    "name": "Stojakovo",
    "lat": 41.15556,
    "lng": 22.5775
  },
  {
    "id": 785669,
    "name": "Sopotnica",
    "lat": 41.29594,
    "lng": 21.15357
  },
  {
    "id": 791407,
    "name": "Dobruševo",
    "lat": 41.16861,
    "lng": 21.4825
  },
  {
    "id": 784737,
    "name": "Vaksince",
    "lat": 42.20611,
    "lng": 21.66306
  },
  {
    "id": 789734,
    "name": "Јурумлери",
    "lat": 41.96722,
    "lng": 21.55694
  },
  {
    "id": 790018,
    "name": "Ilovica",
    "lat": 41.47224,
    "lng": 22.8048
  },
  {
    "id": 792553,
    "name": "Blatec",
    "lat": 41.83668,
    "lng": 22.57909
  },
  {
    "id": 790319,
    "name": "Gorno Orizari",
    "lat": 41.68583,
    "lng": 21.73475
  },
  {
    "id": 786674,
    "name": "Pršovce",
    "lat": 42.08336,
    "lng": 21.05994
  },
  {
    "id": 786005,
    "name": "Selce",
    "lat": 42.03482,
    "lng": 20.94035
  },
  {
    "id": 787902,
    "name": "Mislesevo",
    "lat": 41.185,
    "lng": 20.70861
  },
  {
    "id": 788774,
    "name": "Lažani",
    "lat": 41.44222,
    "lng": 21.31583
  },
  {
    "id": 785270,
    "name": "Sušica",
    "lat": 41.43982,
    "lng": 22.83676
  },
  {
    "id": 796095,
    "name": "Strimnica",
    "lat": 41.96719,
    "lng": 21.03598
  },
  {
    "id": 787971,
    "name": "Miletino",
    "lat": 41.90753,
    "lng": 21.01601
  },
  {
    "id": 784505,
    "name": "Veljusa",
    "lat": 41.47611,
    "lng": 22.5675
  },
  {
    "id": 787054,
    "name": "Pirava",
    "lat": 41.32042,
    "lng": 22.53047
  },
  {
    "id": 792489,
    "name": "Bojane",
    "lat": 42.00009,
    "lng": 21.19265
  },
  {
    "id": 785427,
    "name": "Strelci",
    "lat": 41.54046,
    "lng": 21.00563
  },
  {
    "id": 785643,
    "name": "Srbica",
    "lat": 41.58672,
    "lng": 21.03027
  },
  {
    "id": 788790,
    "name": "Larce",
    "lat": 41.93319,
    "lng": 21.12628
  },
  {
    "id": 791885,
    "name": "Cresevo",
    "lat": 42.05083,
    "lng": 21.50972
  },
  {
    "id": 789703,
    "name": "Kadino",
    "lat": 41.96889,
    "lng": 21.60139
  },
  {
    "id": 785604,
    "name": "Dolno Srpci",
    "lat": 41.1748,
    "lng": 21.36464
  },
  {
    "id": 786113,
    "name": "Samokov",
    "lat": 41.68331,
    "lng": 21.14625
  },
  {
    "id": 788415,
    "name": "Lukovo",
    "lat": 41.35339,
    "lng": 20.60637
  },
  {
    "id": 784854,
    "name": "Tuin",
    "lat": 41.61944,
    "lng": 21.04528
  },
  {
    "id": 791517,
    "name": "Desovo",
    "lat": 41.46278,
    "lng": 21.49111
  },
  {
    "id": 790183,
    "name": "Grčec",
    "lat": 41.98806,
    "lng": 21.33028
  },
  {
    "id": 787985,
    "name": "Miladinovci",
    "lat": 41.98029,
    "lng": 21.64982
  },
  {
    "id": 792055,
    "name": "Capari",
    "lat": 41.05656,
    "lng": 21.17884
  },
  {
    "id": 796096,
    "name": "Dobarce",
    "lat": 41.9553,
    "lng": 21.08875
  },
  {
    "id": 791819,
    "name": "Crnilište",
    "lat": 41.53025,
    "lng": 21.41416
  },
  {
    "id": 789893,
    "name": "Jankovec",
    "lat": 41.11028,
    "lng": 21.01139
  },
  {
    "id": 784351,
    "name": "Vladimirovo",
    "lat": 41.71,
    "lng": 22.79278
  },
  {
    "id": 789247,
    "name": "Kosel",
    "lat": 41.17444,
    "lng": 20.83556
  },
  {
    "id": 788950,
    "name": "Krušopek",
    "lat": 41.99651,
    "lng": 21.34355
  },
  {
    "id": 791343,
    "name": "Dolno Količani",
    "lat": 41.88639,
    "lng": 21.48556
  },
  {
    "id": 788517,
    "name": "Logovardi",
    "lat": 41.03096,
    "lng": 21.40967
  },
  {
    "id": 786026,
    "name": "Sedlarevo",
    "lat": 41.88306,
    "lng": 21.1275
  },
  {
    "id": 784239,
    "name": "Vraneštica",
    "lat": 41.44496,
    "lng": 21.02683
  },
  {
    "id": 792676,
    "name": "Beranci",
    "lat": 41.15969,
    "lng": 21.35963
  },
  {
    "id": 792150,
    "name": "Bukovik",
    "lat": 41.97103,
    "lng": 21.23905
  },
  {
    "id": 790249,
    "name": "Gradec",
    "lat": 41.85068,
    "lng": 22.51132
  },
  {
    "id": 792197,
    "name": "Bučin",
    "lat": 41.27377,
    "lng": 21.31692
  },
  {
    "id": 791334,
    "name": "Dolno Orizari",
    "lat": 41.05028,
    "lng": 21.37944
  },
  {
    "id": 788564,
    "name": "Ljubin",
    "lat": 42.00139,
    "lng": 21.30917
  },
  {
    "id": 792509,
    "name": "Bogomila",
    "lat": 41.59306,
    "lng": 21.47167
  },
  {
    "id": 786014,
    "name": "Sekirnik",
    "lat": 41.43999,
    "lng": 22.79536
  },
  {
    "id": 790137,
    "name": "Grnčari",
    "lat": 41.01722,
    "lng": 21.05333
  },
  {
    "id": 788610,
    "name": "Lisičani",
    "lat": 41.46139,
    "lng": 21.05444
  },
  {
    "id": 787444,
    "name": "Orashac",
    "lat": 42.0625,
    "lng": 21.79972
  },
  {
    "id": 790084,
    "name": "Gurgurnica",
    "lat": 41.84508,
    "lng": 21.10538
  },
  {
    "id": 787495,
    "name": "Ognjaci",
    "lat": 41.92167,
    "lng": 21.58306
  },
  {
    "id": 787512,
    "name": "Obršani",
    "lat": 41.28168,
    "lng": 21.3615
  },
  {
    "id": 789916,
    "name": "Jakimovo",
    "lat": 41.9,
    "lng": 22.51222
  },
  {
    "id": 787853,
    "name": "Morani",
    "lat": 41.90978,
    "lng": 21.54997
  },
  {
    "id": 785620,
    "name": "Sredno Konjari",
    "lat": 41.95743,
    "lng": 21.71494
  },
  {
    "id": 789101,
    "name": "Krani",
    "lat": 40.93934,
    "lng": 21.10911
  },
  {
    "id": 790305,
    "name": "Gorobinci",
    "lat": 41.87507,
    "lng": 21.87599
  },
  {
    "id": 784747,
    "name": "Usje",
    "lat": 41.95871,
    "lng": 21.45835
  },
  {
    "id": 789603,
    "name": "Kanatlarci",
    "lat": 41.21028,
    "lng": 21.50333
  },
  {
    "id": 792129,
    "name": "Bulacani",
    "lat": 42.07056,
    "lng": 21.50278
  },
  {
    "id": 785792,
    "name": "Slepče",
    "lat": 41.23333,
    "lng": 21.175
  },
  {
    "id": 789962,
    "name": "Izvor",
    "lat": 42.20322,
    "lng": 21.57812
  },
  {
    "id": 789985,
    "name": "Ivankovci",
    "lat": 41.84889,
    "lng": 21.82028
  },
  {
    "id": 829616,
    "name": "Zelenikovo",
    "lat": 41.87333,
    "lng": 21.60306
  },
  {
    "id": 788789,
    "name": "Laskarci",
    "lat": 41.97502,
    "lng": 21.2109
  },
  {
    "id": 787190,
    "name": "Pašino Ruvci",
    "lat": 41.27438,
    "lng": 21.37011
  },
  {
    "id": 790334,
    "name": "Горно Јаболчиште",
    "lat": 41.7225,
    "lng": 21.48583
  },
  {
    "id": 789989,
    "name": "Ivanjevci",
    "lat": 41.20639,
    "lng": 21.35889
  },
  {
    "id": 786801,
    "name": "Preglovo",
    "lat": 41.46544,
    "lng": 21.11939
  },
  {
    "id": 788555,
    "name": "Ljubojno",
    "lat": 40.89417,
    "lng": 21.14083
  },
  {
    "id": 787923,
    "name": "Мирковци",
    "lat": 42.09444,
    "lng": 21.40639
  },
  {
    "id": 792084,
    "name": "Buzalkovo",
    "lat": 41.73858,
    "lng": 21.67578
  },
  {
    "id": 829541,
    "name": "Saračino",
    "lat": 41.98188,
    "lng": 21.04163
  },
  {
    "id": 790312,
    "name": "Gorno Strogomište",
    "lat": 41.60611,
    "lng": 20.96556
  },
  {
    "id": 788099,
    "name": "Mavrovi Anovi",
    "lat": 41.70224,
    "lng": 20.75723
  },
  {
    "id": 785733,
    "name": "Smolari",
    "lat": 41.37496,
    "lng": 22.90399
  },
  {
    "id": 790608,
    "name": "Golemo Konjari",
    "lat": 41.34306,
    "lng": 21.44028
  },
  {
    "id": 791029,
    "name": "Drenovo",
    "lat": 41.41944,
    "lng": 21.89
  },
  {
    "id": 785519,
    "name": "Staro Konjarevo",
    "lat": 41.36749,
    "lng": 22.95624
  },
  {
    "id": 789267,
    "name": "Korito",
    "lat": 41.80583,
    "lng": 21.02667
  },
  {
    "id": 786957,
    "name": "Podmočani",
    "lat": 41.02361,
    "lng": 21.05083
  },
  {
    "id": 791142,
    "name": "Dorfulija",
    "lat": 41.76548,
    "lng": 21.8928
  },
  {
    "id": 784256,
    "name": "Vozarci",
    "lat": 41.42968,
    "lng": 21.92456
  },
  {
    "id": 791929,
    "name": "Čiflik",
    "lat": 41.95139,
    "lng": 21.12056
  },
  {
    "id": 788978,
    "name": "Krušeani",
    "lat": 41.31186,
    "lng": 21.3487
  },
  {
    "id": 791769,
    "name": "Crnobuki",
    "lat": 41.12356,
    "lng": 21.32229
  },
  {
    "id": 788209,
    "name": "Malo Konjari",
    "lat": 41.33638,
    "lng": 21.46387
  },
  {
    "id": 789545,
    "name": "Katlanovo",
    "lat": 41.89214,
    "lng": 21.68087
  },
  {
    "id": 792796,
    "name": "Bela Crkva",
    "lat": 41.28029,
    "lng": 21.34515
  },
  {
    "id": 788023,
    "name": "Merovo",
    "lat": 41.93753,
    "lng": 21.17459
  },
  {
    "id": 787670,
    "name": "Никиштане",
    "lat": 42.06722,
    "lng": 21.335
  },
  {
    "id": 792235,
    "name": "Brusnik",
    "lat": 41.02306,
    "lng": 21.28528
  },
  {
    "id": 786160,
    "name": "’Ržaničino",
    "lat": 41.9271,
    "lng": 21.63117
  },
  {
    "id": 786245,
    "name": "Ropotovo",
    "lat": 41.4498,
    "lng": 21.37218
  },
  {
    "id": 785871,
    "name": "Sirkovo",
    "lat": 41.5055,
    "lng": 21.89033
  },
  {
    "id": 791752,
    "name": "Crn Vrv",
    "lat": 41.81194,
    "lng": 21.37778
  },
  {
    "id": 785251,
    "name": "Šutovo",
    "lat": 41.54775,
    "lng": 21.0235
  },
  {
    "id": 792373,
    "name": "Brajčino",
    "lat": 40.90639,
    "lng": 21.15917
  },
  {
    "id": 790118,
    "name": "Grupčin",
    "lat": 41.96749,
    "lng": 21.13053
  },
  {
    "id": 784906,
    "name": "Trnovci",
    "lat": 41.25068,
    "lng": 21.33037
  },
  {
    "id": 789311,
    "name": "Kopačin Dol",
    "lat": 41.959,
    "lng": 21.13867
  },
  {
    "id": 789026,
    "name": "Krklino",
    "lat": 41.07357,
    "lng": 21.32959
  },
  {
    "id": 788035,
    "name": "Melnica",
    "lat": 41.64167,
    "lng": 21.59
  },
  {
    "id": 787827,
    "name": "Мралино",
    "lat": 41.95694,
    "lng": 21.60194
  },
  {
    "id": 793089,
    "name": "Arnakija",
    "lat": 41.98616,
    "lng": 21.28682
  },
  {
    "id": 783771,
    "name": "Žvan",
    "lat": 41.28997,
    "lng": 21.1189
  },
  {
    "id": 789963,
    "name": "Извор",
    "lat": 41.55472,
    "lng": 21.69722
  },
  {
    "id": 793032,
    "name": "Bač",
    "lat": 40.93173,
    "lng": 21.55763
  },
  {
    "id": 785747,
    "name": "Smilevo",
    "lat": 41.15411,
    "lng": 21.11054
  },
  {
    "id": 790242,
    "name": "Gradešnica",
    "lat": 41.08399,
    "lng": 21.7628
  },
  {
    "id": 790830,
    "name": "Erekovci",
    "lat": 41.21345,
    "lng": 21.48277
  },
  {
    "id": 792841,
    "name": "Bašino Selo",
    "lat": 41.7484,
    "lng": 21.75971
  },
  {
    "id": 788493,
    "name": "Lopatica",
    "lat": 41.15973,
    "lng": 21.25449
  },
  {
    "id": 791342,
    "name": "Dolno Konjari",
    "lat": 41.94288,
    "lng": 21.70917
  },
  {
    "id": 790331,
    "name": "Gorno Količani",
    "lat": 41.88023,
    "lng": 21.47228
  },
  {
    "id": 791492,
    "name": "Dihovo",
    "lat": 41.03028,
    "lng": 21.26389
  },
  {
    "id": 784422,
    "name": "Viničani",
    "lat": 41.60083,
    "lng": 21.89778
  },
  {
    "id": 791076,
    "name": "Draževo",
    "lat": 41.37356,
    "lng": 22.92063
  },
  {
    "id": 787744,
    "name": "Nakolec",
    "lat": 40.89333,
    "lng": 21.10722
  },
  {
    "id": 863699,
    "name": "Prevalec",
    "lat": 41.69833,
    "lng": 21.75472
  },
  {
    "id": 787172,
    "name": "Patiška Reka",
    "lat": 41.8,
    "lng": 21.31694
  },
  {
    "id": 791330,
    "name": "Dolno Sonje",
    "lat": 41.94077,
    "lng": 21.37861
  },
  {
    "id": 785188,
    "name": "Sveto Mitrani",
    "lat": 41.3218,
    "lng": 21.30503
  },
  {
    "id": 796071,
    "name": "Star Karaorman",
    "lat": 41.78167,
    "lng": 22.20361
  },
  {
    "id": 791665,
    "name": "Cvetovo",
    "lat": 41.85773,
    "lng": 21.40985
  },
  {
    "id": 788929,
    "name": "Кучково",
    "lat": 42.05694,
    "lng": 21.305
  },
  {
    "id": 790534,
    "name": "Gorna Bela Crkva",
    "lat": 41.05028,
    "lng": 21.02806
  },
  {
    "id": 798605,
    "name": "Sveta Petka",
    "lat": 41.94122,
    "lng": 21.33365
  },
  {
    "id": 785212,
    "name": "Sveta",
    "lat": 41.26727,
    "lng": 21.27236
  },
  {
    "id": 791132,
    "name": "Dračevica",
    "lat": 41.88217,
    "lng": 21.44213
  },
  {
    "id": 863664,
    "name": "Rakotinci",
    "lat": 41.94089,
    "lng": 21.41371
  },
  {
    "id": 793121,
    "name": "Amzabegovo",
    "lat": 41.81169,
    "lng": 21.99379
  },
  {
    "id": 791756,
    "name": "Crnovec",
    "lat": 41.15574,
    "lng": 21.22399
  },
  {
    "id": 833703,
    "name": "Gorni Dlapkin Dol",
    "lat": 41.55917,
    "lng": 20.93528
  },
  {
    "id": 789566,
    "name": "Karatmanovo",
    "lat": 41.76288,
    "lng": 21.86779
  },
  {
    "id": 789473,
    "name": "Klečevce",
    "lat": 42.11636,
    "lng": 21.85436
  },
  {
    "id": 785223,
    "name": "Suvodol",
    "lat": 41.2104,
    "lng": 21.22247
  },
  {
    "id": 791429,
    "name": "Dobromiri",
    "lat": 41.06944,
    "lng": 21.45583
  },
  {
    "id": 791349,
    "name": "Dolno Dupeni",
    "lat": 40.87556,
    "lng": 21.11972
  },
  {
    "id": 787420,
    "name": "Oreše",
    "lat": 41.61917,
    "lng": 21.41889
  },
  {
    "id": 786769,
    "name": "Presil",
    "lat": 41.29628,
    "lng": 21.31358
  },
  {
    "id": 784309,
    "name": "Voǵani",
    "lat": 41.28253,
    "lng": 21.33992
  },
  {
    "id": 793109,
    "name": "Arangel",
    "lat": 41.59547,
    "lng": 21.02348
  },
  {
    "id": 790846,
    "name": "Edinakovci",
    "lat": 41.26031,
    "lng": 21.24873
  },
  {
    "id": 787563,
    "name": "Novo Selo",
    "lat": 41.96389,
    "lng": 21.15889
  },
  {
    "id": 788602,
    "name": "Lisolaj",
    "lat": 41.14832,
    "lng": 21.30251
  },
  {
    "id": 785605,
    "name": "Srpci",
    "lat": 41.08611,
    "lng": 21.21139
  },
  {
    "id": 791366,
    "name": "Dolna Lešnica",
    "lat": 41.95667,
    "lng": 21.06028
  },
  {
    "id": 787629,
    "name": "Nošpal",
    "lat": 41.18319,
    "lng": 21.45129
  },
  {
    "id": 785445,
    "name": "Strajane",
    "lat": 41.72217,
    "lng": 21.0016
  },
  {
    "id": 785765,
    "name": "Sloeštica",
    "lat": 41.26655,
    "lng": 21.07812
  },
  {
    "id": 785381,
    "name": "Strugovo",
    "lat": 41.19972,
    "lng": 21.18139
  },
  {
    "id": 789574,
    "name": "Karamani",
    "lat": 41.06472,
    "lng": 21.39389
  },
  {
    "id": 783779,
    "name": "Žurče",
    "lat": 41.28296,
    "lng": 21.23432
  },
  {
    "id": 791616,
    "name": "Ǵavato",
    "lat": 41.08224,
    "lng": 21.13654
  },
  {
    "id": 788777,
    "name": "Lavci",
    "lat": 41.01472,
    "lng": 21.3025
  },
  {
    "id": 786237,
    "name": "Rotino",
    "lat": 41.05748,
    "lng": 21.21049
  },
  {
    "id": 796094,
    "name": "Fališe",
    "lat": 41.98103,
    "lng": 21.00647
  },
  {
    "id": 792068,
    "name": "Čajlane",
    "lat": 41.96245,
    "lng": 21.25503
  },
  {
    "id": 788466,
    "name": "Loznani",
    "lat": 41.20778,
    "lng": 21.40389
  },
  {
    "id": 793085,
    "name": "Arvati",
    "lat": 40.94443,
    "lng": 21.1152
  },
  {
    "id": 791355,
    "name": "Dolna Čarlija",
    "lat": 41.14132,
    "lng": 21.43847
  },
  {
    "id": 787641,
    "name": "Nižepole",
    "lat": 41.01057,
    "lng": 21.24548
  },
  {
    "id": 787111,
    "name": "Peštalevo",
    "lat": 41.46319,
    "lng": 21.39613
  }
]