[
  {
    "id": 785842,
    "name": "Skopje",
    "lat": 41.99646,
    "lng": 21.43141
  },
  {
    "id": 788886,
    "name": "Kumanovo",
    "lat": 42.13279,
    "lng": 21.71585
  },
  {
    "id": 786735,
    "name": "Prilep",
    "lat": 41.34558,
    "lng": 21.5537
  },
  {
    "id": 792578,
    "name": "Bitola",
    "lat": 41.03226,
    "lng": 21.33553
  },
  {
    "id": 833262,
    "name": "Čair",
    "lat": 42.01528,
    "lng": 21.44111
  },
  {
    "id": 785082,
    "name": "Tetovo",
    "lat": 42.00989,
    "lng": 20.97138
  },
  {
    "id": 863675,
    "name": "Kisela Voda",
    "lat": 41.94889,
    "lng": 21.50278
  },
  {
    "id": 785058,
    "name": "Veles",
    "lat": 41.71719,
    "lng": 21.77196
  },
  {
    "id": 790295,
    "name": "Gostivar",
    "lat": 41.79627,
    "lng": 20.90799
  },
  {
    "id": 785482,
    "name": "Shtip",
    "lat": 41.74583,
    "lng": 22.19583
  },
  {
    "id": 7886881,
    "name": "Centar Župa",
    "lat": 41.47849,
    "lng": 20.55945
  },
  {
    "id": 787487,
    "name": "Ohrid",
    "lat": 41.11701,
    "lng": 20.80175
  },
  {
    "id": 789541,
    "name": "Kavadarci",
    "lat": 41.43344,
    "lng": 22.01218
  },
  {
    "id": 785387,
    "name": "Struga",
    "lat": 41.17787,
    "lng": 20.67894
  },
  {
    "id": 833260,
    "name": "Butel",
    "lat": 42.03083,
    "lng": 21.44667
  },
  {
    "id": 789403,
    "name": "Kochani",
    "lat": 41.91639,
    "lng": 22.41278
  },
  {
    "id": 785380,
    "name": "Strumica",
    "lat": 41.43763,
    "lng": 22.64288
  },
  {
    "id": 789527,
    "name": "Kičevo",
    "lat": 41.51274,
    "lng": 20.95867
  },
  {
    "id": 788654,
    "name": "Lipkovo",
    "lat": 42.15696,
    "lng": 21.58559
  },
  {
    "id": 783926,
    "name": "Zelino",
    "lat": 41.98028,
    "lng": 21.06417
  },
  {
    "id": 786565,
    "name": "Radovis",
    "lat": 41.63833,
    "lng": 22.46472
  },
  {
    "id": 785113,
    "name": "Tearce",
    "lat": 42.07593,
    "lng": 21.05179
  },
  {
    "id": 789045,
    "name": "Kriva Palanka",
    "lat": 42.20197,
    "lng": 22.33385
  },
  {
    "id": 833258,
    "name": "Šuto Orizare",
    "lat": 42.04,
    "lng": 21.425
  },
  {
    "id": 790744,
    "name": "Gevgelija",
    "lat": 41.14289,
    "lng": 22.50108
  },
  {
    "id": 787716,
    "name": "Negotino",
    "lat": 41.48456,
    "lng": 22.09056
  },
  {
    "id": 785345,
    "name": "Studeničani",
    "lat": 41.92208,
    "lng": 21.53483
  },
  {
    "id": 784424,
    "name": "Vinica",
    "lat": 41.8812,
    "lng": 22.51074
  },
  {
    "id": 791606,
    "name": "Debar",
    "lat": 41.52286,
    "lng": 20.52198
  },
  {
    "id": 787715,
    "name": "Negotino",
    "lat": 41.87792,
    "lng": 20.88389
  },
  {
    "id": 791559,
    "name": "Delcevo",
    "lat": 41.96722,
    "lng": 22.76944
  },
  {
    "id": 786341,
    "name": "Resen",
    "lat": 41.08999,
    "lng": 21.00885
  },
  {
    "id": 833357,
    "name": "Ilinden",
    "lat": 41.99297,
    "lng": 21.58084
  },
  {
    "id": 792227,
    "name": "Brvenica",
    "lat": 41.96707,
    "lng": 20.98091
  },
  {
    "id": 789611,
    "name": "Kamenjane",
    "lat": 41.94568,
    "lng": 20.92894
  },
  {
    "id": 792501,
    "name": "Bogovinje",
    "lat": 41.92235,
    "lng": 20.91533
  }
]