[
  {
    "id": 1821274,
    "name": "Macau",
    "lat": 22.20056,
    "lng": 113.54611
  },
  {
    "id": 1821263,
    "name": "Taipa",
    "lat": 22.15583,
    "lng": 113.55694
  },
  {
    "id": 13527317,
    "name": "Sé",
    "lat": 22.19089,
    "lng": 113.54733
  },
  {
    "id": 1821292,
    "name": "Luhuan",
    "lat": 22.11806,
    "lng": 113.55194
  },
  {
    "id": 1821294,
    "name": "Zhuojiacun",
    "lat": 22.16139,
    "lng": 113.55639
  },
  {
    "id": 1821279,
    "name": "Lai Chi Van",
    "lat": 22.11972,
    "lng": 113.55111
  },
  {
    "id": 6611390,
    "name": "Jiu’ao",
    "lat": 22.13306,
    "lng": 113.58139
  }
]