[
  {
    "id": 3530597,
    "name": "Mexico City",
    "lat": 19.42847,
    "lng": -99.12766
  },
  {
    "id": 3981609,
    "name": "Tijuana",
    "lat": 32.5027,
    "lng": -117.00371
  },
  {
    "id": 3526683,
    "name": "Iztapalapa",
    "lat": 19.35529,
    "lng": -99.06224
  },
  {
    "id": 3521081,
    "name": "Puebla",
    "lat": 19.04778,
    "lng": -98.20723
  },
  {
    "id": 3529612,
    "name": "Ecatepec de Morelos",
    "lat": 19.60492,
    "lng": -99.06064
  },
  {
    "id": 3991164,
    "name": "Santiago de Querétaro",
    "lat": 20.58806,
    "lng": -100.38806
  },
  {
    "id": 3998655,
    "name": "León de los Aldama",
    "lat": 21.12908,
    "lng": -101.67374
  },
  {
    "id": 4013708,
    "name": "Ciudad Juárez",
    "lat": 31.72024,
    "lng": -106.46084
  },
  {
    "id": 3979770,
    "name": "Zapopan",
    "lat": 20.72111,
    "lng": -103.38742
  },
  {
    "id": 4005539,
    "name": "Guadalajara",
    "lat": 20.67738,
    "lng": -103.34749
  },
  {
    "id": 3523349,
    "name": "Mérida",
    "lat": 20.967,
    "lng": -89.62318
  },
  {
    "id": 3514674,
    "name": "Gustavo Adolfo Madero",
    "lat": 19.49392,
    "lng": -99.11075
  },
  {
    "id": 3995465,
    "name": "Monterrey",
    "lat": 25.68435,
    "lng": -100.31721
  },
  {
    "id": 3530589,
    "name": "Ciudad Nezahualcoyotl",
    "lat": 19.40061,
    "lng": -99.01483
  },
  {
    "id": 3996069,
    "name": "Mexicali",
    "lat": 32.62781,
    "lng": -115.45446
  },
  {
    "id": 4014338,
    "name": "Chihuahua",
    "lat": 28.63528,
    "lng": -106.08889
  },
  {
    "id": 3531673,
    "name": "Cancún",
    "lat": 21.17429,
    "lng": -86.84656
  },
  {
    "id": 3522790,
    "name": "Naucalpan de Juárez",
    "lat": 19.47851,
    "lng": -99.23963
  },
  {
    "id": 4004898,
    "name": "Hermosillo",
    "lat": 29.08874,
    "lng": -110.96677
  },
  {
    "id": 4012176,
    "name": "Culiacán",
    "lat": 24.80209,
    "lng": -107.39421
  },
  {
    "id": 3995402,
    "name": "Morelia",
    "lat": 19.70078,
    "lng": -101.18443
  },
  {
    "id": 3981254,
    "name": "Torreón",
    "lat": 25.54389,
    "lng": -103.41898
  },
  {
    "id": 3985606,
    "name": "San Luis Potosí",
    "lat": 22.15234,
    "lng": -100.97135
  },
  {
    "id": 4019233,
    "name": "Aguascalientes",
    "lat": 21.88262,
    "lng": -102.2843
  },
  {
    "id": 3988086,
    "name": "Saltillo",
    "lat": 25.42595,
    "lng": -100.97963
  },
  {
    "id": 4005492,
    "name": "Guadalupe",
    "lat": 25.67678,
    "lng": -100.25646
  },
  {
    "id": 3533462,
    "name": "Acapulco de Juárez",
    "lat": 16.84942,
    "lng": -99.90891
  },
  {
    "id": 3515431,
    "name": "Tlalnepantla",
    "lat": 19.54005,
    "lng": -99.19538
  },
  {
    "id": 3981461,
    "name": "Tlaquepaque",
    "lat": 20.64121,
    "lng": -103.29342
  },
  {
    "id": 3530139,
    "name": "Coyoacán",
    "lat": 19.3467,
    "lng": -99.16174
  },
  {
    "id": 3515001,
    "name": "Tuxtla",
    "lat": 16.75357,
    "lng": -93.11578
  },
  {
    "id": 3520339,
    "name": "Reynosa",
    "lat": 26.08005,
    "lng": -98.28456
  },
  {
    "id": 3515428,
    "name": "Tlalpan",
    "lat": 19.29513,
    "lng": -99.16206
  },
  {
    "id": 3515807,
    "name": "Cuautitlán Izcalli",
    "lat": 19.64388,
    "lng": -99.21598
  },
  {
    "id": 3827409,
    "name": "Cuauhtémoc",
    "lat": 19.44506,
    "lng": -99.14612
  },
  {
    "id": 4011743,
    "name": "Victoria de Durango",
    "lat": 24.02032,
    "lng": -104.65756
  },
  {
    "id": 3523466,
    "name": "Heroica Matamoros",
    "lat": 25.87972,
    "lng": -97.50417
  },
  {
    "id": 3515302,
    "name": "Toluca",
    "lat": 19.28786,
    "lng": -99.65324
  },
  {
    "id": 3532624,
    "name": "Ciudad López Mateos",
    "lat": 19.55793,
    "lng": -99.25675
  },
  {
    "id": 4018390,
    "name": "Ciudad Apodaca",
    "lat": 25.78195,
    "lng": -100.18839
  },
  {
    "id": 4005867,
    "name": "Ciudad General Escobedo",
    "lat": 25.79698,
    "lng": -100.31791
  },
  {
    "id": 4006702,
    "name": "Ensenada",
    "lat": 31.87149,
    "lng": -116.60071
  },
  {
    "id": 3514450,
    "name": "Xochimilco",
    "lat": 19.25465,
    "lng": -99.10356
  },
  {
    "id": 3514783,
    "name": "Veracruz",
    "lat": 19.18095,
    "lng": -96.1429
  },
  {
    "id": 3526617,
    "name": "Xalapa de Enríquez",
    "lat": 19.53124,
    "lng": -96.91589
  },
  {
    "id": 3522551,
    "name": "Nuevo Laredo",
    "lat": 27.47629,
    "lng": -99.51639
  },
  {
    "id": 3532497,
    "name": "Azcapotzalco",
    "lat": 19.48698,
    "lng": -99.18594
  },
  {
    "id": 3985241,
    "name": "San Nicolás de los Garza",
    "lat": 25.74167,
    "lng": -100.30222
  },
  {
    "id": 3981369,
    "name": "Tonalá",
    "lat": 20.62263,
    "lng": -103.24168
  },
  {
    "id": 3827598,
    "name": "Ojo de Agua",
    "lat": 19.68028,
    "lng": -99.01
  },
  {
    "id": 3514519,
    "name": "Xico",
    "lat": 19.27032,
    "lng": -98.95088
  },
  {
    "id": 3526700,
    "name": "Iztacalco",
    "lat": 19.39528,
    "lng": -99.09778
  },
  {
    "id": 3996322,
    "name": "Mazatlán",
    "lat": 23.22163,
    "lng": -106.41885
  },
  {
    "id": 4004330,
    "name": "Irapuato",
    "lat": 20.67675,
    "lng": -101.35628
  },
  {
    "id": 3827408,
    "name": "Miguel Hidalgo",
    "lat": 19.43411,
    "lng": -99.20024
  },
  {
    "id": 3827406,
    "name": "Benito Juarez",
    "lat": 19.3984,
    "lng": -99.15766
  },
  {
    "id": 3516266,
    "name": "Tapachula",
    "lat": 14.90541,
    "lng": -92.25891
  },
  {
    "id": 3514670,
    "name": "Villahermosa",
    "lat": 17.98625,
    "lng": -92.93928
  },
  {
    "id": 4014875,
    "name": "Celaya",
    "lat": 20.52353,
    "lng": -100.8157
  },
  {
    "id": 3529947,
    "name": "Cuernavaca",
    "lat": 18.9261,
    "lng": -99.23075
  },
  {
    "id": 3981941,
    "name": "Tepic",
    "lat": 21.50733,
    "lng": -104.89332
  },
  {
    "id": 3530580,
    "name": "Ciudad Victoria",
    "lat": 23.74061,
    "lng": -99.14364
  },
  {
    "id": 3982912,
    "name": "Soledad de Graciano Sánchez",
    "lat": 22.18912,
    "lng": -100.93792
  },
  {
    "id": 4013704,
    "name": "Ciudad Obregón",
    "lat": 27.48642,
    "lng": -109.94079
  },
  {
    "id": 3526682,
    "name": "Ixtapaluca",
    "lat": 19.31556,
    "lng": -98.88284
  },
  {
    "id": 3530517,
    "name": "Coatzacoalcos",
    "lat": 18.14905,
    "lng": -94.4447
  },
  {
    "id": 3516355,
    "name": "Tampico",
    "lat": 22.28519,
    "lng": -97.87777
  },
  {
    "id": 4003757,
    "name": "Ciudad Benito Juárez",
    "lat": 25.64724,
    "lng": -100.09582
  },
  {
    "id": 3515463,
    "name": "Tláhuac",
    "lat": 19.28689,
    "lng": -99.00507
  },
  {
    "id": 3984583,
    "name": "Santa Catarina",
    "lat": 25.67325,
    "lng": -100.45813
  },
  {
    "id": 3980760,
    "name": "Uruapan",
    "lat": 19.41116,
    "lng": -102.05644
  },
  {
    "id": 3530757,
    "name": "Cholula",
    "lat": 19.06406,
    "lng": -98.30352
  },
  {
    "id": 3522732,
    "name": "Nicolás Romero",
    "lat": 19.64177,
    "lng": -99.3068
  },
  {
    "id": 3513966,
    "name": "Zumpango",
    "lat": 19.7967,
    "lng": -99.09946
  },
  {
    "id": 3530569,
    "name": "Coacalco",
    "lat": 19.62923,
    "lng": -99.10689
  },
  {
    "id": 4004886,
    "name": "Nogales",
    "lat": 31.30862,
    "lng": -110.94217
  },
  {
    "id": 4005775,
    "name": "Gómez Palacio",
    "lat": 25.56871,
    "lng": -103.4996
  },
  {
    "id": 3997479,
    "name": "Los Mochis",
    "lat": 25.79097,
    "lng": -108.99825
  },
  {
    "id": 3522210,
    "name": "Pachuca de Soto",
    "lat": 20.11697,
    "lng": -98.73329
  },
  {
    "id": 3522507,
    "name": "Oaxaca",
    "lat": 17.06025,
    "lng": -96.72544
  },
  {
    "id": 4000900,
    "name": "La Paz",
    "lat": 24.14231,
    "lng": -110.31316
  },
  {
    "id": 3516109,
    "name": "Tehuacán",
    "lat": 18.46422,
    "lng": -97.39735
  },
  {
    "id": 3523760,
    "name": "Magdalena Contreras",
    "lat": 19.33212,
    "lng": -99.21118
  },
  {
    "id": 3991328,
    "name": "Puerto Vallarta",
    "lat": 20.617,
    "lng": -105.23018
  },
  {
    "id": 3531732,
    "name": "Campeche",
    "lat": 19.84073,
    "lng": -90.51676
  },
  {
    "id": 3827606,
    "name": "Buenavista",
    "lat": 19.60833,
    "lng": -99.16944
  },
  {
    "id": 4013728,
    "name": "Ciudad Acuña",
    "lat": 29.32322,
    "lng": -100.95217
  },
  {
    "id": 3519537,
    "name": "San Cristóbal de las Casas",
    "lat": 16.73006,
    "lng": -92.63825
  },
  {
    "id": 3526485,
    "name": "Jiutepec",
    "lat": 18.88139,
    "lng": -99.17778
  },
  {
    "id": 3995523,
    "name": "Monclova",
    "lat": 26.90687,
    "lng": -101.42056
  },
  {
    "id": 3530240,
    "name": "Córdoba",
    "lat": 18.8842,
    "lng": -96.92559
  },
  {
    "id": 3985710,
    "name": "Cabo San Lucas",
    "lat": 22.89088,
    "lng": -109.91238
  },
  {
    "id": 3530594,
    "name": "Ciudad Madero",
    "lat": 22.2475,
    "lng": -97.83665
  },
  {
    "id": 4026082,
    "name": "Ciudad Lázaro Cárdenas",
    "lat": 17.97066,
    "lng": -102.22124
  },
  {
    "id": 3530599,
    "name": "Ciudad del Carmen",
    "lat": 18.64592,
    "lng": -91.82991
  },
  {
    "id": 3530870,
    "name": "Chilpancingo",
    "lat": 17.55228,
    "lng": -99.50124
  },
  {
    "id": 3979802,
    "name": "Zamora",
    "lat": 19.9855,
    "lng": -102.28387
  },
  {
    "id": 3521168,
    "name": "Poza Rica de Hidalgo",
    "lat": 20.53315,
    "lng": -97.45946
  },
  {
    "id": 3529986,
    "name": "Cuautitlán",
    "lat": 19.67052,
    "lng": -99.17989
  },
  {
    "id": 3985604,
    "name": "San Luis Río Colorado",
    "lat": 32.4555,
    "lng": -114.77037
  },
  {
    "id": 3985344,
    "name": "San Miguel de Allende",
    "lat": 20.91528,
    "lng": -100.74389
  },
  {
    "id": 3530937,
    "name": "Chicoloapan",
    "lat": 19.41687,
    "lng": -98.90202
  },
  {
    "id": 4005509,
    "name": "Guadalupe",
    "lat": 22.74678,
    "lng": -102.5188
  },
  {
    "id": 3531023,
    "name": "Chetumal",
    "lat": 18.51957,
    "lng": -88.30397
  },
  {
    "id": 3531200,
    "name": "Chalco",
    "lat": 19.26174,
    "lng": -98.89775
  },
  {
    "id": 4012406,
    "name": "Cuauhtémoc",
    "lat": 28.40688,
    "lng": -106.86658
  },
  {
    "id": 3530367,
    "name": "Comitán",
    "lat": 16.24004,
    "lng": -92.13668
  },
  {
    "id": 3988214,
    "name": "Salamanca",
    "lat": 20.57196,
    "lng": -101.19154
  },
  {
    "id": 3530049,
    "name": "Delegación Cuajimalpa de Morelos",
    "lat": 19.3692,
    "lng": -99.29089
  },
  {
    "id": 3996663,
    "name": "Manzanillo",
    "lat": 19.11695,
    "lng": -104.34214
  },
  {
    "id": 3518723,
    "name": "Tuxtepec",
    "lat": 18.0883,
    "lng": -96.12535
  },
  {
    "id": 3529982,
    "name": "Cuautla",
    "lat": 18.8106,
    "lng": -98.93525
  },
  {
    "id": 3518135,
    "name": "San Pablo de las Salinas",
    "lat": 19.66658,
    "lng": -99.09477
  },
  {
    "id": 3518407,
    "name": "San Martin Texmelucan de Labastida",
    "lat": 19.28431,
    "lng": -98.43885
  },
  {
    "id": 3992619,
    "name": "Piedras Negras",
    "lat": 28.70007,
    "lng": -100.52353
  },
  {
    "id": 3521342,
    "name": "Playa del Carmen",
    "lat": 20.6274,
    "lng": -87.07987
  },
  {
    "id": 4013720,
    "name": "Ciudad Delicias",
    "lat": 28.19013,
    "lng": -105.47012
  },
  {
    "id": 4013516,
    "name": "Colima",
    "lat": 19.24473,
    "lng": -103.7127
  },
  {
    "id": 4006163,
    "name": "Fresnillo",
    "lat": 23.1749,
    "lng": -102.86785
  },
  {
    "id": 3518692,
    "name": "San Juan del Río",
    "lat": 20.38897,
    "lng": -99.99637
  },
  {
    "id": 3986172,
    "name": "San José del Cabo",
    "lat": 23.05406,
    "lng": -109.70367
  },
  {
    "id": 4005937,
    "name": "San Pedro Garza García",
    "lat": 25.6604,
    "lng": -100.40651
  },
  {
    "id": 3979844,
    "name": "Zacatecas",
    "lat": 22.76843,
    "lng": -102.58141
  },
  {
    "id": 3827414,
    "name": "Huixquilucan",
    "lat": 19.35985,
    "lng": -99.35016
  },
  {
    "id": 3483849,
    "name": "Ciudad Valles",
    "lat": 21.99631,
    "lng": -99.01093
  },
  {
    "id": 3522307,
    "name": "Orizaba",
    "lat": 18.85195,
    "lng": -97.09957
  },
  {
    "id": 3523149,
    "name": "Miramar",
    "lat": 22.36094,
    "lng": -97.89997
  },
  {
    "id": 3526798,
    "name": "Iguala de la Independencia",
    "lat": 18.34536,
    "lng": -99.5413
  },
  {
    "id": 3980194,
    "name": "Ciudad de Villa de Álvarez",
    "lat": 19.26722,
    "lng": -103.73778
  },
  {
    "id": 4005143,
    "name": "Heroica Guaymas",
    "lat": 27.91989,
    "lng": -110.89888
  },
  {
    "id": 3995019,
    "name": "Navojoa",
    "lat": 27.07057,
    "lng": -109.44345
  },
  {
    "id": 3523183,
    "name": "Minatitlán",
    "lat": 18.00011,
    "lng": -94.5569
  },
  {
    "id": 4013714,
    "name": "Ciudad Guzmán",
    "lat": 19.70413,
    "lng": -103.46383
  },
  {
    "id": 3514321,
    "name": "Yautepec",
    "lat": 18.88188,
    "lng": -99.06715
  },
  {
    "id": 3515715,
    "name": "Texcoco de Mora",
    "lat": 19.51194,
    "lng": -98.88293
  },
  {
    "id": 4004867,
    "name": "Parral",
    "lat": 26.93022,
    "lng": -105.6664
  },
  {
    "id": 3515696,
    "name": "Teziutlan",
    "lat": 19.8173,
    "lng": -97.35992
  },
  {
    "id": 3817746,
    "name": "Tepexpan",
    "lat": 19.61387,
    "lng": -98.9364
  },
  {
    "id": 3515062,
    "name": "Tulancingo",
    "lat": 20.08355,
    "lng": -98.36288
  },
  {
    "id": 4018400,
    "name": "Apatzingán",
    "lat": 19.08864,
    "lng": -102.35704
  },
  {
    "id": 3988392,
    "name": "Rosarito",
    "lat": 32.36044,
    "lng": -117.04645
  },
  {
    "id": 4002224,
    "name": "Lagos de Moreno",
    "lat": 21.35875,
    "lng": -101.93311
  },
  {
    "id": 3516035,
    "name": "Temixco",
    "lat": 18.85254,
    "lng": -99.22537
  },
  {
    "id": 3520271,
    "name": "Ciudad Río Bravo",
    "lat": 25.98507,
    "lng": -98.08964
  },
  {
    "id": 3532881,
    "name": "Amozoc de Mota",
    "lat": 19.04611,
    "lng": -98.045
  },
  {
    "id": 3980190,
    "name": "García",
    "lat": 25.81201,
    "lng": -100.59874
  },
  {
    "id": 3981984,
    "name": "Tepatitlán de Morelos",
    "lat": 20.81692,
    "lng": -102.76347
  },
  {
    "id": 3531576,
    "name": "Cárdenas",
    "lat": 18.00135,
    "lng": -93.37559
  },
  {
    "id": 3526357,
    "name": "Juchitán de Zaragoza",
    "lat": 16.43603,
    "lng": -95.01975
  },
  {
    "id": 8858085,
    "name": "Hacienda Santa Fe",
    "lat": 20.51806,
    "lng": -103.38056
  },
  {
    "id": 3532592,
    "name": "Atlixco",
    "lat": 18.90815,
    "lng": -98.43613
  },
  {
    "id": 3521912,
    "name": "Paraiso",
    "lat": 18.40116,
    "lng": -93.21406
  },
  {
    "id": 3982213,
    "name": "Tecomán",
    "lat": 18.91614,
    "lng": -103.87713
  },
  {
    "id": 3523908,
    "name": "Los Reyes Acaquilpan",
    "lat": 19.36357,
    "lng": -98.97707
  },
  {
    "id": 3528756,
    "name": "Ciudad Mante",
    "lat": 22.74277,
    "lng": -98.97172
  },
  {
    "id": 3515011,
    "name": "Túxpam de Rodríguez Cano",
    "lat": 20.95777,
    "lng": -97.40805
  },
  {
    "id": 3815415,
    "name": "Tlaxcala",
    "lat": 19.31777,
    "lng": -98.23846
  },
  {
    "id": 3520064,
    "name": "Salina Cruz",
    "lat": 16.17535,
    "lng": -95.19424
  },
  {
    "id": 4004885,
    "name": "Heróica Zitácuaro",
    "lat": 19.43612,
    "lng": -100.35733
  },
  {
    "id": 3994489,
    "name": "Ocotlán",
    "lat": 20.35116,
    "lng": -102.76832
  },
  {
    "id": 4000821,
    "name": "La Piedad",
    "lat": 20.34239,
    "lng": -102.0305
  },
  {
    "id": 3515887,
    "name": "Tepeji del Río de Ocampo",
    "lat": 19.90481,
    "lng": -99.34379
  },
  {
    "id": 4013706,
    "name": "Lerdo",
    "lat": 25.53611,
    "lng": -103.52485
  },
  {
    "id": 3996387,
    "name": "Matehuala",
    "lat": 23.64824,
    "lng": -100.64334
  },
  {
    "id": 4019260,
    "name": "Agua Prieta",
    "lat": 31.3224,
    "lng": -109.54251
  },
  {
    "id": 3526323,
    "name": "Kanasín",
    "lat": 20.93482,
    "lng": -89.55871
  },
  {
    "id": 3530103,
    "name": "Cozumel",
    "lat": 20.50038,
    "lng": -86.94272
  },
  {
    "id": 3983058,
    "name": "Silao",
    "lat": 20.94356,
    "lng": -101.42703
  },
  {
    "id": 8858086,
    "name": "Fuentes del Valle",
    "lat": 19.6325,
    "lng": -99.13861
  },
  {
    "id": 4005297,
    "name": "Guamúchil",
    "lat": 25.4587,
    "lng": -108.07732
  },
  {
    "id": 4005270,
    "name": "Guanajuato",
    "lat": 21.01858,
    "lng": -101.2591
  },
  {
    "id": 3980187,
    "name": "El Pueblito",
    "lat": 20.54006,
    "lng": -100.44093
  },
  {
    "id": 4005219,
    "name": "Guasave",
    "lat": 25.56792,
    "lng": -108.46949
  },
  {
    "id": 3986984,
    "name": "San Francisco del Rincón",
    "lat": 21.01843,
    "lng": -101.85515
  },
  {
    "id": 3517270,
    "name": "Santa María Chimalhuacán",
    "lat": 19.42155,
    "lng": -98.95038
  },
  {
    "id": 3524348,
    "name": "Linares",
    "lat": 24.85798,
    "lng": -99.56768
  },
  {
    "id": 3980180,
    "name": "Frontera",
    "lat": 26.92814,
    "lng": -101.45212
  },
  {
    "id": 3531862,
    "name": "Cadereyta Jiménez",
    "lat": 25.58896,
    "lng": -100.00156
  },
  {
    "id": 3980605,
    "name": "Valle de Santiago",
    "lat": 20.3914,
    "lng": -101.19222
  },
  {
    "id": 3531865,
    "name": "Cadereyta",
    "lat": 25.58333,
    "lng": -99.98333
  },
  {
    "id": 3518387,
    "name": "San Mateo Atenco",
    "lat": 19.26757,
    "lng": -99.53214
  },
  {
    "id": 3516843,
    "name": "Santo Domingo Tehuantepec",
    "lat": 16.32463,
    "lng": -95.24104
  },
  {
    "id": 3523011,
    "name": "Montemorelos",
    "lat": 25.18909,
    "lng": -99.82865
  },
  {
    "id": 3979673,
    "name": "Ixtapa-Zihuatanejo",
    "lat": 17.64344,
    "lng": -101.55212
  },
  {
    "id": 4023117,
    "name": "Dolores Hidalgo",
    "lat": 21.15611,
    "lng": -100.9325
  },
  {
    "id": 3517517,
    "name": "Santa Cruz Xoxocotlán",
    "lat": 17.02958,
    "lng": -96.73518
  },
  {
    "id": 3991043,
    "name": "Ramos Arizpe",
    "lat": 25.53928,
    "lng": -100.94742
  },
  {
    "id": 3515044,
    "name": "Tultepec",
    "lat": 19.685,
    "lng": -99.12806
  },
  {
    "id": 3982266,
    "name": "Tecate",
    "lat": 32.566,
    "lng": -116.63187
  },
  {
    "id": 3988258,
    "name": "Sahuayo de Morelos",
    "lat": 20.05859,
    "lng": -102.71575
  },
  {
    "id": 3991347,
    "name": "Puerto Peñasco",
    "lat": 31.31716,
    "lng": -113.53799
  },
  {
    "id": 3519907,
    "name": "San Andrés Tuxtla",
    "lat": 18.4487,
    "lng": -95.21327
  },
  {
    "id": 4012721,
    "name": "Cortazar",
    "lat": 20.48362,
    "lng": -100.96237
  },
  {
    "id": 8858087,
    "name": "San Salvador Tizatlalli",
    "lat": 19.26028,
    "lng": -99.59083
  },
  {
    "id": 4013712,
    "name": "Ciudad Hidalgo",
    "lat": 19.6927,
    "lng": -100.55445
  },
  {
    "id": 3523513,
    "name": "Martínez de la Torre",
    "lat": 20.07082,
    "lng": -97.06078
  },
  {
    "id": 3815453,
    "name": "Villa Vicente Guerrero",
    "lat": 19.12123,
    "lng": -98.16572
  },
  {
    "id": 4004887,
    "name": "Heroica Caborca",
    "lat": 30.71833,
    "lng": -112.15837
  },
  {
    "id": 3533005,
    "name": "Altamira",
    "lat": 22.39309,
    "lng": -97.93857
  },
  {
    "id": 4019827,
    "name": "Acámbaro",
    "lat": 20.03085,
    "lng": -100.72194
  },
  {
    "id": 3526992,
    "name": "Huauchinango",
    "lat": 20.17376,
    "lng": -98.05491
  },
  {
    "id": 3994616,
    "name": "Nuevo Casas Grandes",
    "lat": 30.41552,
    "lng": -107.91166
  },
  {
    "id": 3993179,
    "name": "Pátzcuaro",
    "lat": 19.51594,
    "lng": -101.60887
  },
  {
    "id": 3988333,
    "name": "Sabinas",
    "lat": 27.85591,
    "lng": -101.11738
  },
  {
    "id": 3515358,
    "name": "San Bernardino Tlaxcalancingo",
    "lat": 19.02867,
    "lng": -98.27698
  },
  {
    "id": 3518221,
    "name": "Zinacantepec",
    "lat": 19.28428,
    "lng": -99.73394
  },
  {
    "id": 4004198,
    "name": "Jacona de Plancarte",
    "lat": 19.95232,
    "lng": -102.30781
  },
  {
    "id": 8858088,
    "name": "Jardines de la Silla",
    "lat": 25.62944,
    "lng": -100.18778
  },
  {
    "id": 3827596,
    "name": "Santiago Teyahualco",
    "lat": 19.65985,
    "lng": -99.12493
  },
  {
    "id": 3530531,
    "name": "Coatepec",
    "lat": 19.45229,
    "lng": -96.96148
  },
  {
    "id": 3521922,
    "name": "Papantla de Olarte",
    "lat": 20.44655,
    "lng": -97.32494
  },
  {
    "id": 3520235,
    "name": "Rioverde",
    "lat": 21.93115,
    "lng": -99.99488
  },
  {
    "id": 3527023,
    "name": "Ciudad de Huajuapan de León",
    "lat": 17.80787,
    "lng": -97.77956
  },
  {
    "id": 3996426,
    "name": "Matamoros",
    "lat": 25.52699,
    "lng": -103.2285
  },
  {
    "id": 4018348,
    "name": "Arandas",
    "lat": 20.70551,
    "lng": -102.34514
  },
  {
    "id": 3815324,
    "name": "Huamantla",
    "lat": 19.31451,
    "lng": -97.9252
  },
  {
    "id": 3980777,
    "name": "Uriangato",
    "lat": 20.14085,
    "lng": -101.18251
  },
  {
    "id": 3515942,
    "name": "Teoloyucan",
    "lat": 19.74423,
    "lng": -99.18113
  },
  {
    "id": 3533426,
    "name": "Acayucan",
    "lat": 17.94979,
    "lng": -94.91386
  },
  {
    "id": 3516225,
    "name": "Taxco de Alarcón",
    "lat": 18.55462,
    "lng": -99.60592
  },
  {
    "id": 3979846,
    "name": "Zacapú",
    "lat": 19.81396,
    "lng": -101.79157
  },
  {
    "id": 3521476,
    "name": "Pijijiapan",
    "lat": 15.68618,
    "lng": -93.20938
  },
  {
    "id": 3985621,
    "name": "San Luis de la Paz",
    "lat": 21.29771,
    "lng": -100.51736
  },
  {
    "id": 3532792,
    "name": "Apizaco",
    "lat": 19.41333,
    "lng": -98.14358
  },
  {
    "id": 3527879,
    "name": "Emiliano Zapata",
    "lat": 18.84065,
    "lng": -99.18463
  },
  {
    "id": 3514876,
    "name": "Valladolid",
    "lat": 20.68812,
    "lng": -88.19936
  },
  {
    "id": 3514868,
    "name": "Valle Hermoso",
    "lat": 25.67317,
    "lng": -97.81272
  },
  {
    "id": 3985035,
    "name": "San Pedro",
    "lat": 25.75602,
    "lng": -102.98385
  },
  {
    "id": 3985865,
    "name": "San Juan de los Lagos",
    "lat": 21.24893,
    "lng": -102.33036
  },
  {
    "id": 11121204,
    "name": "Colonia del Sol",
    "lat": 22.91273,
    "lng": -109.92655
  },
  {
    "id": 3517742,
    "name": "Santa Ana Chiautempan",
    "lat": 19.30661,
    "lng": -98.18773
  },
  {
    "id": 3801276,
    "name": "Tierra Blanca",
    "lat": 18.44771,
    "lng": -96.35912
  },
  {
    "id": 3515384,
    "name": "Tlapa de Comonfort",
    "lat": 17.54528,
    "lng": -98.57599
  },
  {
    "id": 3515504,
    "name": "Tizimín",
    "lat": 21.14268,
    "lng": -88.15101
  },
  {
    "id": 4017957,
    "name": "Autlán de Navarro",
    "lat": 19.77189,
    "lng": -104.36644
  },
  {
    "id": 3531013,
    "name": "Chiapa de Corzo",
    "lat": 16.7075,
    "lng": -93.01216
  },
  {
    "id": 8858089,
    "name": "San Buenaventura",
    "lat": 19.3025,
    "lng": -98.86306
  },
  {
    "id": 3991226,
    "name": "Purísima de Bustos",
    "lat": 21.0315,
    "lng": -101.87833
  },
  {
    "id": 3515505,
    "name": "Tizayuca",
    "lat": 19.83721,
    "lng": -98.97607
  },
  {
    "id": 3995343,
    "name": "Moroleón",
    "lat": 20.12571,
    "lng": -101.19208
  },
  {
    "id": 4004024,
    "name": "Jerez de García Salinas",
    "lat": 22.6497,
    "lng": -102.98979
  },
  {
    "id": 4003995,
    "name": "Jesús María",
    "lat": 21.96111,
    "lng": -102.34333
  },
  {
    "id": 3522164,
    "name": "Palenque",
    "lat": 17.50914,
    "lng": -91.98125
  },
  {
    "id": 3526657,
    "name": "Izúcar de Matamoros",
    "lat": 18.60157,
    "lng": -98.46152
  },
  {
    "id": 3524903,
    "name": "Las Choapas",
    "lat": 17.91177,
    "lng": -94.09646
  },
  {
    "id": 4006806,
    "name": "Empalme",
    "lat": 27.96166,
    "lng": -110.81411
  },
  {
    "id": 3530617,
    "name": "Cintalapa de Figueroa",
    "lat": 16.68393,
    "lng": -93.71814
  },
  {
    "id": 4003662,
    "name": "Juventino Rosas",
    "lat": 20.64337,
    "lng": -100.99286
  },
  {
    "id": 3815392,
    "name": "Zacatelco",
    "lat": 19.21583,
    "lng": -98.23972
  },
  {
    "id": 3522484,
    "name": "Ocosingo",
    "lat": 16.90634,
    "lng": -92.09349
  },
  {
    "id": 3530385,
    "name": "Comalcalco",
    "lat": 18.26496,
    "lng": -93.22432
  },
  {
    "id": 3985129,
    "name": "San Pedro",
    "lat": 25.43333,
    "lng": -103.21667
  },
  {
    "id": 4013723,
    "name": "Ciudad Constitución",
    "lat": 25.0321,
    "lng": -111.66256
  },
  {
    "id": 3824996,
    "name": "Loma Bonita",
    "lat": 18.10721,
    "lng": -95.87904
  },
  {
    "id": 3521941,
    "name": "Pánuco",
    "lat": 22.05378,
    "lng": -98.18192
  },
  {
    "id": 3520274,
    "name": "Río Blanco",
    "lat": 18.83036,
    "lng": -97.156
  },
  {
    "id": 4013724,
    "name": "Camargo",
    "lat": 27.67891,
    "lng": -105.17158
  },
  {
    "id": 3976999,
    "name": "Cihuatlán",
    "lat": 19.2366,
    "lng": -104.56512
  },
  {
    "id": 3992986,
    "name": "Pénjamo",
    "lat": 20.43108,
    "lng": -101.72261
  },
  {
    "id": 3526952,
    "name": "Huejutla de Reyes",
    "lat": 21.14,
    "lng": -98.41944
  },
  {
    "id": 3818742,
    "name": "San Andrés Cholula",
    "lat": 19.05144,
    "lng": -98.29526
  },
  {
    "id": 3514510,
    "name": "Xicotepec de Juárez",
    "lat": 20.27605,
    "lng": -97.96111
  },
  {
    "id": 3514929,
    "name": "Umán",
    "lat": 20.88136,
    "lng": -89.74728
  },
  {
    "id": 3986165,
    "name": "San José del Castillo",
    "lat": 20.51167,
    "lng": -103.23689
  },
  {
    "id": 3997211,
    "name": "Los Reyes de Salgado",
    "lat": 19.59042,
    "lng": -102.47242
  },
  {
    "id": 3522444,
    "name": "Ocozocoautla de Espinosa",
    "lat": 16.7612,
    "lng": -93.37426
  },
  {
    "id": 4011668,
    "name": "Esperanza",
    "lat": 27.58046,
    "lng": -109.93119
  },
  {
    "id": 3827586,
    "name": "Melchor Ocampo",
    "lat": 19.70186,
    "lng": -99.14485
  },
  {
    "id": 3994667,
    "name": "Nueva Rosita",
    "lat": 27.93712,
    "lng": -101.21746
  },
  {
    "id": 3515827,
    "name": "Tepotzotlán",
    "lat": 19.72116,
    "lng": -99.22391
  },
  {
    "id": 4026075,
    "name": "Guacamayas",
    "lat": 18.01932,
    "lng": -102.21225
  },
  {
    "id": 3521628,
    "name": "Perote",
    "lat": 19.56233,
    "lng": -97.24235
  },
  {
    "id": 3993457,
    "name": "Paracho de Verduzco",
    "lat": 19.64745,
    "lng": -102.04897
  },
  {
    "id": 3521108,
    "name": "Progreso",
    "lat": 21.28298,
    "lng": -89.66416
  },
  {
    "id": 3514677,
    "name": "Villaflores",
    "lat": 16.23377,
    "lng": -93.27006
  },
  {
    "id": 3988050,
    "name": "Salvatierra",
    "lat": 20.21322,
    "lng": -100.88023
  },
  {
    "id": 8858090,
    "name": "Santa Teresa",
    "lat": 19.845,
    "lng": -99.23333
  },
  {
    "id": 3983671,
    "name": "Santiago",
    "lat": 25.42533,
    "lng": -100.15205
  },
  {
    "id": 8858091,
    "name": "San Jerónimo Cuatro Vientos",
    "lat": 19.29306,
    "lng": -98.84167
  },
  {
    "id": 4018582,
    "name": "Ameca",
    "lat": 20.54783,
    "lng": -104.0461
  },
  {
    "id": 3533269,
    "name": "Agua Dulce",
    "lat": 18.13909,
    "lng": -94.14527
  },
  {
    "id": 4004159,
    "name": "Xalisco",
    "lat": 21.451,
    "lng": -104.8983
  },
  {
    "id": 3530123,
    "name": "Coyotepec",
    "lat": 19.77722,
    "lng": -99.21295
  },
  {
    "id": 3530592,
    "name": "Ciudad Mendoza",
    "lat": 18.80645,
    "lng": -97.1787
  },
  {
    "id": 3982616,
    "name": "Tala",
    "lat": 20.65267,
    "lng": -103.70148
  },
  {
    "id": 8858092,
    "name": "San Martín Azcatepec",
    "lat": 19.68667,
    "lng": -98.97278
  },
  {
    "id": 3515386,
    "name": "Tlapacoyan",
    "lat": 19.96268,
    "lng": -97.21141
  },
  {
    "id": 3816721,
    "name": "Tonalá",
    "lat": 16.09007,
    "lng": -93.7546
  },
  {
    "id": 4003526,
    "name": "La Barca",
    "lat": 20.28988,
    "lng": -102.54198
  },
  {
    "id": 3518138,
    "name": "San Pablo Autopan",
    "lat": 19.35638,
    "lng": -99.65724
  },
  {
    "id": 3996271,
    "name": "Ciudad Melchor Múzquiz",
    "lat": 27.87933,
    "lng": -101.51615
  },
  {
    "id": 3526708,
    "name": "Ixmiquilpan",
    "lat": 20.47841,
    "lng": -99.21697
  },
  {
    "id": 8858093,
    "name": "Fraccionamiento Real Palmas",
    "lat": 25.90417,
    "lng": -100.15972
  },
  {
    "id": 3515259,
    "name": "San Miguel Topilejo",
    "lat": 19.20264,
    "lng": -99.14193
  },
  {
    "id": 3996626,
    "name": "Maravatío de Ocampo",
    "lat": 19.89113,
    "lng": -100.44443
  },
  {
    "id": 8858094,
    "name": "Pórticos de San Antonio",
    "lat": 32.4425,
    "lng": -117.03417
  },
  {
    "id": 3530513,
    "name": "Coatzintla",
    "lat": 20.48699,
    "lng": -97.46823
  },
  {
    "id": 3993335,
    "name": "Parras de la Fuente",
    "lat": 25.44185,
    "lng": -102.17808
  },
  {
    "id": 8858095,
    "name": "San Isidro",
    "lat": 19.33972,
    "lng": -98.95056
  },
  {
    "id": 3514148,
    "name": "Zacatlán",
    "lat": 19.9355,
    "lng": -97.96125
  },
  {
    "id": 3531784,
    "name": "Calpulalpan",
    "lat": 19.58867,
    "lng": -98.56972
  },
  {
    "id": 3988327,
    "name": "Ciudad Sabinas Hidalgo",
    "lat": 26.50358,
    "lng": -100.18187
  },
  {
    "id": 3988594,
    "name": "Río Grande",
    "lat": 23.82733,
    "lng": -103.03408
  },
  {
    "id": 3515665,
    "name": "Ticul",
    "lat": 20.39833,
    "lng": -89.53541
  },
  {
    "id": 3526593,
    "name": "Jáltipan de Morelos",
    "lat": 17.96542,
    "lng": -94.71396
  },
  {
    "id": 4016132,
    "name": "Víctor Rosales",
    "lat": 22.94889,
    "lng": -102.70222
  },
  {
    "id": 3515956,
    "name": "Tenosique",
    "lat": 17.4729,
    "lng": -91.4236
  },
  {
    "id": 3994674,
    "name": "Nueva Italia de Ruiz",
    "lat": 19.02492,
    "lng": -102.09318
  },
  {
    "id": 3979717,
    "name": "Zapotlanejo",
    "lat": 20.62268,
    "lng": -103.06813
  },
  {
    "id": 3533389,
    "name": "Actopan",
    "lat": 20.26961,
    "lng": -98.94377
  },
  {
    "id": 3523791,
    "name": "Macuspana",
    "lat": 17.76052,
    "lng": -92.59539
  },
  {
    "id": 8858096,
    "name": "Centro Familiar la Soledad",
    "lat": 21.135,
    "lng": -101.74972
  },
  {
    "id": 3526855,
    "name": "Huixtla",
    "lat": 15.13924,
    "lng": -92.4634
  },
  {
    "id": 3530596,
    "name": "Ciudad Fernández",
    "lat": 21.94045,
    "lng": -100.01153
  },
  {
    "id": 3532899,
    "name": "Amecameca",
    "lat": 19.12384,
    "lng": -98.76649
  },
  {
    "id": 4015700,
    "name": "Cananea",
    "lat": 30.98352,
    "lng": -110.29758
  },
  {
    "id": 3526993,
    "name": "Huatusco",
    "lat": 19.14876,
    "lng": -96.9676
  },
  {
    "id": 8858097,
    "name": "San José Guadalupe Otzacatipan",
    "lat": 19.34472,
    "lng": -99.59194
  },
  {
    "id": 3530886,
    "name": "Chilapa de Álvarez",
    "lat": 17.59917,
    "lng": -99.17389
  },
  {
    "id": 3531177,
    "name": "Champotón",
    "lat": 19.34745,
    "lng": -90.72039
  },
  {
    "id": 3970972,
    "name": "Miguel Alemán (La Doce)",
    "lat": 28.84028,
    "lng": -111.4775
  },
  {
    "id": 4006622,
    "name": "Escuinapa de Hidalgo",
    "lat": 22.83474,
    "lng": -105.77766
  },
  {
    "id": 3516271,
    "name": "Tantoyuca",
    "lat": 21.35064,
    "lng": -98.2257
  },
  {
    "id": 3530177,
    "name": "Cosamaloapan",
    "lat": 18.36759,
    "lng": -95.79857
  },
  {
    "id": 3991219,
    "name": "Puruándiro",
    "lat": 20.08886,
    "lng": -101.51579
  },
  {
    "id": 4004647,
    "name": "Huatabampo",
    "lat": 26.82649,
    "lng": -109.64206
  },
  {
    "id": 3981467,
    "name": "Tlajomulco de Zúñiga",
    "lat": 20.47421,
    "lng": -103.44654
  },
  {
    "id": 3520994,
    "name": "Puerto Escondido",
    "lat": 15.86275,
    "lng": -97.06835
  },
  {
    "id": 3515796,
    "name": "Tequisquiapan",
    "lat": 20.5225,
    "lng": -99.89167
  },
  {
    "id": 3518293,
    "name": "San Miguel Ajusco",
    "lat": 19.22201,
    "lng": -99.20242
  },
  {
    "id": 4012605,
    "name": "Coyula",
    "lat": 20.6614,
    "lng": -103.22846
  },
  {
    "id": 3516926,
    "name": "Pinotepa Nacional",
    "lat": 16.34014,
    "lng": -98.05297
  },
  {
    "id": 3527795,
    "name": "Escárcega",
    "lat": 18.60891,
    "lng": -90.74544
  },
  {
    "id": 3996595,
    "name": "Marfil",
    "lat": 20.99165,
    "lng": -101.28434
  },
  {
    "id": 3979442,
    "name": "Santa Isabel",
    "lat": 32.63075,
    "lng": -115.57039
  },
  {
    "id": 4013579,
    "name": "Cocula",
    "lat": 20.36517,
    "lng": -103.82215
  },
  {
    "id": 3981885,
    "name": "Tequila",
    "lat": 20.88205,
    "lng": -103.83599
  },
  {
    "id": 3483197,
    "name": "San Fernando",
    "lat": 24.84713,
    "lng": -98.14885
  },
  {
    "id": 3995017,
    "name": "Navolato",
    "lat": 24.7668,
    "lng": -107.69768
  },
  {
    "id": 4004293,
    "name": "Ixtapa",
    "lat": 20.71598,
    "lng": -105.20508
  },
  {
    "id": 3516188,
    "name": "Tecamachalco",
    "lat": 18.88352,
    "lng": -97.73344
  },
  {
    "id": 3993985,
    "name": "Pabellón de Arteaga",
    "lat": 22.14642,
    "lng": -102.2769
  },
  {
    "id": 3530587,
    "name": "Ciudad Sahagun",
    "lat": 19.77557,
    "lng": -98.57471
  },
  {
    "id": 3515064,
    "name": "Tula de Allende",
    "lat": 20.05161,
    "lng": -99.34397
  },
  {
    "id": 3987246,
    "name": "San Felipe",
    "lat": 21.47831,
    "lng": -101.21566
  },
  {
    "id": 3523303,
    "name": "Metepec",
    "lat": 19.25934,
    "lng": -99.60175
  },
  {
    "id": 3994604,
    "name": "Nuevo México",
    "lat": 20.7565,
    "lng": -103.44297
  },
  {
    "id": 3532254,
    "name": "Berriozábal",
    "lat": 16.79944,
    "lng": -93.27219
  },
  {
    "id": 3994469,
    "name": "Ojinaga",
    "lat": 29.56689,
    "lng": -104.54487
  },
  {
    "id": 3533126,
    "name": "Ajalpan",
    "lat": 18.37908,
    "lng": -97.25867
  },
  {
    "id": 3515042,
    "name": "Tultitlán de Mariano Escobedo",
    "lat": 19.64655,
    "lng": -99.16787
  },
  {
    "id": 4018404,
    "name": "Apaseo el Alto",
    "lat": 20.45798,
    "lng": -100.62081
  },
  {
    "id": 3988651,
    "name": "Rincón de Romos",
    "lat": 22.22819,
    "lng": -102.32216
  },
  {
    "id": 3519290,
    "name": "San Francisco Acuautla",
    "lat": 19.34564,
    "lng": -98.86034
  },
  {
    "id": 3519531,
    "name": "Sanctorum",
    "lat": 19.09917,
    "lng": -98.25417
  },
  {
    "id": 3531416,
    "name": "Catemaco",
    "lat": 18.42131,
    "lng": -95.11398
  },
  {
    "id": 3530276,
    "name": "Contla",
    "lat": 19.32932,
    "lng": -98.1664
  },
  {
    "id": 3976775,
    "name": "Gabriel Leyva Solano",
    "lat": 25.66157,
    "lng": -108.63657
  },
  {
    "id": 3980844,
    "name": "Tuxpan",
    "lat": 19.55555,
    "lng": -103.37587
  },
  {
    "id": 3515904,
    "name": "Tepeaca",
    "lat": 18.96688,
    "lng": -97.8998
  },
  {
    "id": 4019869,
    "name": "Abasolo",
    "lat": 20.44997,
    "lng": -101.53073
  },
  {
    "id": 3526908,
    "name": "Huimanguillo",
    "lat": 17.83498,
    "lng": -93.38902
  },
  {
    "id": 3517231,
    "name": "Moyotzingo",
    "lat": 19.24811,
    "lng": -98.40486
  },
  {
    "id": 3980174,
    "name": "Villagrán",
    "lat": 20.51452,
    "lng": -100.99745
  },
  {
    "id": 4017992,
    "name": "Atotonilco el Alto",
    "lat": 20.55084,
    "lng": -102.50822
  },
  {
    "id": 3990040,
    "name": "La Joya",
    "lat": 32.44363,
    "lng": -117.00371
  },
  {
    "id": 3523141,
    "name": "Misantla",
    "lat": 19.92992,
    "lng": -96.85194
  },
  {
    "id": 3983216,
    "name": "Sayula",
    "lat": 19.88372,
    "lng": -103.60073
  },
  {
    "id": 3532815,
    "name": "Apan",
    "lat": 19.71128,
    "lng": -98.45086
  },
  {
    "id": 4006194,
    "name": "Francisco I. Madero",
    "lat": 25.773,
    "lng": -103.27127
  },
  {
    "id": 3996893,
    "name": "Magdalena de Kino",
    "lat": 30.62681,
    "lng": -110.96151
  },
  {
    "id": 3516210,
    "name": "Teapa",
    "lat": 17.55602,
    "lng": -92.94788
  },
  {
    "id": 8858098,
    "name": "Las Pintitas",
    "lat": 20.56444,
    "lng": -103.30222
  },
  {
    "id": 3802739,
    "name": "Río de Teapa",
    "lat": 17.77473,
    "lng": -92.90217
  },
  {
    "id": 3825011,
    "name": "Isla",
    "lat": 18.0278,
    "lng": -95.52946
  },
  {
    "id": 3520407,
    "name": "Reforma",
    "lat": 17.85904,
    "lng": -93.15381
  },
  {
    "id": 3526696,
    "name": "Ixtaczoquitlán",
    "lat": 18.85364,
    "lng": -97.06229
  },
  {
    "id": 4018403,
    "name": "Apaseo el Grande",
    "lat": 20.54495,
    "lng": -100.68462
  },
  {
    "id": 3983631,
    "name": "Santiago Papasquiaro",
    "lat": 25.04389,
    "lng": -105.41917
  },
  {
    "id": 4018762,
    "name": "Ciudad de Allende",
    "lat": 25.27673,
    "lng": -100.01442
  },
  {
    "id": 3522445,
    "name": "Ocoyoacac",
    "lat": 19.27127,
    "lng": -99.45787
  },
  {
    "id": 3533433,
    "name": "Acatzingo",
    "lat": 18.98196,
    "lng": -97.78363
  },
  {
    "id": 3516076,
    "name": "Tecax",
    "lat": 20.2052,
    "lng": -89.28522
  },
  {
    "id": 3527639,
    "name": "Felipe Carrillo Puerto",
    "lat": 19.5775,
    "lng": -88.04529
  },
  {
    "id": 3761202,
    "name": "Valente Diaz",
    "lat": 19.16347,
    "lng": -96.21648
  },
  {
    "id": 3526953,
    "name": "Huejotzingo",
    "lat": 19.15892,
    "lng": -98.40824
  },
  {
    "id": 3982693,
    "name": "Tacámbaro de Codallos",
    "lat": 19.23502,
    "lng": -101.45824
  },
  {
    "id": 3982121,
    "name": "Tejupilco de Hidalgo",
    "lat": 18.90475,
    "lng": -100.15275
  },
  {
    "id": 3980621,
    "name": "Valle de Bravo",
    "lat": 19.19501,
    "lng": -100.13132
  },
  {
    "id": 3523127,
    "name": "Mixquiahuala de Juarez",
    "lat": 20.23031,
    "lng": -99.21396
  },
  {
    "id": 3526674,
    "name": "Ixtepec",
    "lat": 16.56052,
    "lng": -95.10375
  },
  {
    "id": 8858099,
    "name": "Emiliano Zapata",
    "lat": 19.34361,
    "lng": -98.97472
  },
  {
    "id": 3522845,
    "name": "Nanchital de Lázaro Cárdenas del Río",
    "lat": 18.07117,
    "lng": -94.40756
  },
  {
    "id": 3979855,
    "name": "Yuriria",
    "lat": 20.21081,
    "lng": -101.13212
  },
  {
    "id": 4013727,
    "name": "Ciudad Altamirano",
    "lat": 18.3582,
    "lng": -100.66965
  },
  {
    "id": 3533107,
    "name": "Álamo",
    "lat": 20.91154,
    "lng": -97.67554
  },
  {
    "id": 3529981,
    "name": "Cuautlancingo",
    "lat": 19.08995,
    "lng": -98.27319
  },
  {
    "id": 4006783,
    "name": "Encarnación de Díaz",
    "lat": 21.52631,
    "lng": -102.24024
  },
  {
    "id": 3526838,
    "name": "Hunucmá",
    "lat": 21.0173,
    "lng": -89.87559
  },
  {
    "id": 4012693,
    "name": "Costa Rica",
    "lat": 24.5907,
    "lng": -107.38992
  },
  {
    "id": 3513967,
    "name": "Zumpango del Río",
    "lat": 17.65437,
    "lng": -99.52725
  },
  {
    "id": 3516385,
    "name": "Tamazunchale",
    "lat": 21.25993,
    "lng": -98.78935
  },
  {
    "id": 3525596,
    "name": "La Isla",
    "lat": 18.6,
    "lng": -96.15
  },
  {
    "id": 3816739,
    "name": "Arriaga",
    "lat": 16.23557,
    "lng": -93.89972
  },
  {
    "id": 4004153,
    "name": "Jalostotitlán",
    "lat": 21.16813,
    "lng": -102.46097
  },
  {
    "id": 8858100,
    "name": "San Antonio Tecómitl",
    "lat": 19.21778,
    "lng": -98.98806
  },
  {
    "id": 3529619,
    "name": "Ébano",
    "lat": 22.21808,
    "lng": -98.37706
  },
  {
    "id": 3998291,
    "name": "Loreto",
    "lat": 22.27194,
    "lng": -101.98602
  },
  {
    "id": 4007673,
    "name": "El Salto",
    "lat": 23.77846,
    "lng": -105.36038
  },
  {
    "id": 4003923,
    "name": "Jiquílpan de Juárez",
    "lat": 19.99482,
    "lng": -102.71969
  },
  {
    "id": 8858101,
    "name": "Licenciado Benito Juárez",
    "lat": 24.65667,
    "lng": -107.545
  },
  {
    "id": 3522343,
    "name": "Ometepec",
    "lat": 16.69008,
    "lng": -98.40797
  },
  {
    "id": 3518650,
    "name": "San Juan Ixtayopan",
    "lat": 19.23187,
    "lng": -98.99867
  },
  {
    "id": 3985323,
    "name": "San Miguel el Alto",
    "lat": 21.03053,
    "lng": -102.40227
  },
  {
    "id": 3523240,
    "name": "Miahuatlán de Porfirio Díaz",
    "lat": 16.33276,
    "lng": -96.59562
  },
  {
    "id": 3979856,
    "name": "Yurécuaro",
    "lat": 20.33606,
    "lng": -102.28382
  },
  {
    "id": 3530584,
    "name": "Ciudad Serdán",
    "lat": 18.98856,
    "lng": -97.44643
  },
  {
    "id": 3522926,
    "name": "Motozintla",
    "lat": 15.36615,
    "lng": -92.24673
  },
  {
    "id": 3982034,
    "name": "Teocaltiche",
    "lat": 21.43434,
    "lng": -102.57427
  },
  {
    "id": 3991253,
    "name": "Purépero de Echáiz",
    "lat": 19.91039,
    "lng": -102.00625
  },
  {
    "id": 4013094,
    "name": "Comonfort",
    "lat": 20.72278,
    "lng": -100.75946
  },
  {
    "id": 4015022,
    "name": "Castaños",
    "lat": 26.78932,
    "lng": -101.43211
  },
  {
    "id": 3533056,
    "name": "Allende",
    "lat": 18.15514,
    "lng": -94.39289
  },
  {
    "id": 4005864,
    "name": "Juan José Ríos",
    "lat": 25.75714,
    "lng": -108.8242
  },
  {
    "id": 3516060,
    "name": "Teloloapan",
    "lat": 18.36663,
    "lng": -99.87185
  },
  {
    "id": 3817649,
    "name": "San Martín Cuautlalpan",
    "lat": 19.27618,
    "lng": -98.83167
  },
  {
    "id": 3986088,
    "name": "San José Iturbide",
    "lat": 21.00153,
    "lng": -100.38416
  },
  {
    "id": 8858102,
    "name": "Teotihuacán de Arista",
    "lat": 19.68972,
    "lng": -98.86083
  },
  {
    "id": 4004267,
    "name": "Ixtlán del Río",
    "lat": 21.03907,
    "lng": -104.37116
  },
  {
    "id": 3522924,
    "name": "Motul",
    "lat": 21.09571,
    "lng": -89.28332
  },
  {
    "id": 8858103,
    "name": "Jesús del Monte",
    "lat": 19.375,
    "lng": -99.29444
  },
  {
    "id": 3532964,
    "name": "Alvarado",
    "lat": 18.77143,
    "lng": -95.76181
  },
  {
    "id": 3514134,
    "name": "Zacualtipán",
    "lat": 20.65002,
    "lng": -98.65628
  },
  {
    "id": 8858104,
    "name": "San Jorge Pueblo Nuevo",
    "lat": 19.25417,
    "lng": -99.62778
  },
  {
    "id": 3522251,
    "name": "Oxkutzkab",
    "lat": 20.30734,
    "lng": -89.41809
  },
  {
    "id": 3815447,
    "name": "Papalotla",
    "lat": 19.16861,
    "lng": -98.20389
  },
  {
    "id": 3996737,
    "name": "Rodolfo Sánchez Taboada",
    "lat": 31.72294,
    "lng": -116.57196
  },
  {
    "id": 3979727,
    "name": "Zapotiltic",
    "lat": 19.62749,
    "lng": -103.41752
  },
  {
    "id": 3515510,
    "name": "Tixtla de Guerrero",
    "lat": 17.56732,
    "lng": -99.39799
  },
  {
    "id": 3527545,
    "name": "Frontera",
    "lat": 18.54326,
    "lng": -92.6453
  },
  {
    "id": 3532617,
    "name": "Atlacomulco de Fabela",
    "lat": 19.79919,
    "lng": -99.875
  },
  {
    "id": 8858105,
    "name": "Manuel Ojinaga",
    "lat": 29.56444,
    "lng": -104.41639
  },
  {
    "id": 3524389,
    "name": "Lerma de Villada",
    "lat": 19.28881,
    "lng": -99.51163
  },
  {
    "id": 3515794,
    "name": "Tequixquiac",
    "lat": 19.90944,
    "lng": -99.14472
  },
  {
    "id": 3827254,
    "name": "San Mateo Otzacatipan",
    "lat": 19.33273,
    "lng": -99.60345
  },
  {
    "id": 3518277,
    "name": "San Miguel Coatlinchán",
    "lat": 19.44999,
    "lng": -98.87274
  },
  {
    "id": 3996234,
    "name": "Meoqui",
    "lat": 28.26701,
    "lng": -105.48093
  },
  {
    "id": 4007684,
    "name": "El Salto",
    "lat": 20.33333,
    "lng": -104.5
  },
  {
    "id": 4029308,
    "name": "San José del Valle",
    "lat": 20.76376,
    "lng": -105.22813
  },
  {
    "id": 3530167,
    "name": "Cosoleacaque",
    "lat": 17.99913,
    "lng": -94.6359
  },
  {
    "id": 3531321,
    "name": "Cerro Azul",
    "lat": 21.192,
    "lng": -97.74088
  },
  {
    "id": 3995050,
    "name": "Nava",
    "lat": 28.42071,
    "lng": -100.76565
  },
  {
    "id": 3522696,
    "name": "Nogales",
    "lat": 18.82776,
    "lng": -97.16311
  },
  {
    "id": 3523900,
    "name": "Reyes Acozac",
    "lat": 19.7755,
    "lng": -98.98079
  },
  {
    "id": 3802723,
    "name": "Playas del Rosario",
    "lat": 17.85289,
    "lng": -92.93243
  },
  {
    "id": 4004555,
    "name": "Huetamo de Núñez",
    "lat": 18.62926,
    "lng": -100.897
  },
  {
    "id": 3517280,
    "name": "Santa María Atzompa",
    "lat": 17.10165,
    "lng": -96.77686
  },
  {
    "id": 3515993,
    "name": "Tenango de Arista",
    "lat": 19.10446,
    "lng": -99.5898
  },
  {
    "id": 3530932,
    "name": "Chiconcuac",
    "lat": 19.55939,
    "lng": -98.89884
  },
  {
    "id": 3980841,
    "name": "Tuxpan",
    "lat": 21.94221,
    "lng": -105.2987
  },
  {
    "id": 3982887,
    "name": "Sombrerete",
    "lat": 23.63138,
    "lng": -103.64134
  },
  {
    "id": 3992842,
    "name": "Petatlán",
    "lat": 17.53768,
    "lng": -101.26798
  },
  {
    "id": 4007682,
    "name": "El Salto",
    "lat": 20.51853,
    "lng": -103.18159
  },
  {
    "id": 4014553,
    "name": "Chapala",
    "lat": 20.29246,
    "lng": -103.18963
  },
  {
    "id": 3514163,
    "name": "Zacatepec",
    "lat": 18.65409,
    "lng": -99.18981
  },
  {
    "id": 4017984,
    "name": "Atoyac de Álvarez",
    "lat": 17.20667,
    "lng": -100.43306
  },
  {
    "id": 3527596,
    "name": "Fortín de las Flores",
    "lat": 18.90806,
    "lng": -97.0
  },
  {
    "id": 3988462,
    "name": "Romita",
    "lat": 20.87127,
    "lng": -101.51683
  },
  {
    "id": 3521051,
    "name": "Puente de Ixtla",
    "lat": 18.61472,
    "lng": -99.31806
  },
  {
    "id": 3827255,
    "name": "San Pedro Totoltepec",
    "lat": 19.31108,
    "lng": -99.57197
  },
  {
    "id": 3514398,
    "name": "Xoxocotla",
    "lat": 18.68415,
    "lng": -99.24577
  },
  {
    "id": 4009697,
    "name": "El Grullo",
    "lat": 19.80665,
    "lng": -104.21626
  },
  {
    "id": 3533486,
    "name": "Acajete",
    "lat": 19.11154,
    "lng": -97.95231
  },
  {
    "id": 3517917,
    "name": "San Rafael",
    "lat": 19.20959,
    "lng": -98.75636
  },
  {
    "id": 3524744,
    "name": "Las Margaritas",
    "lat": 16.31281,
    "lng": -91.98224
  },
  {
    "id": 3531598,
    "name": "Capulhuac de Mirafuentes",
    "lat": 19.19354,
    "lng": -99.46585
  },
  {
    "id": 4018761,
    "name": "Allende",
    "lat": 28.34124,
    "lng": -100.85111
  },
  {
    "id": 3514409,
    "name": "Xonacatlán",
    "lat": 19.40513,
    "lng": -99.52807
  },
  {
    "id": 3987500,
    "name": "San Buenaventura",
    "lat": 27.06193,
    "lng": -101.54891
  },
  {
    "id": 4004092,
    "name": "Jaral del Progreso",
    "lat": 20.37237,
    "lng": -101.06249
  },
  {
    "id": 8858106,
    "name": "Terrazas del Valle",
    "lat": 32.4875,
    "lng": -116.82667
  },
  {
    "id": 3984679,
    "name": "Santa Anita",
    "lat": 20.55005,
    "lng": -103.4435
  },
  {
    "id": 3526138,
    "name": "San Antonio de la Cal",
    "lat": 17.02921,
    "lng": -96.70094
  },
  {
    "id": 4001056,
    "name": "La Orilla",
    "lat": 17.99583,
    "lng": -102.22694
  },
  {
    "id": 3996030,
    "name": "Mezcales",
    "lat": 20.73072,
    "lng": -105.28257
  },
  {
    "id": 3522804,
    "name": "Naranjos",
    "lat": 21.35087,
    "lng": -97.68656
  },
  {
    "id": 3527880,
    "name": "Emiliano Zapata",
    "lat": 17.74058,
    "lng": -91.76635
  },
  {
    "id": 3530590,
    "name": "Ciudad Miguel Alemán",
    "lat": 26.39823,
    "lng": -99.02857
  },
  {
    "id": 3529886,
    "name": "Cunduacán",
    "lat": 18.06557,
    "lng": -93.17302
  },
  {
    "id": 3521596,
    "name": "Peto",
    "lat": 20.12776,
    "lng": -88.92282
  },
  {
    "id": 4016086,
    "name": "Calvillo",
    "lat": 21.84583,
    "lng": -102.71849
  },
  {
    "id": 3532969,
    "name": "Altotonga",
    "lat": 19.76613,
    "lng": -97.24514
  },
  {
    "id": 8858107,
    "name": "La Ermita",
    "lat": 21.15194,
    "lng": -101.73306
  },
  {
    "id": 3532414,
    "name": "Banderilla",
    "lat": 19.58893,
    "lng": -96.93727
  },
  {
    "id": 3530908,
    "name": "Chignahuapan",
    "lat": 19.83866,
    "lng": -98.03171
  },
  {
    "id": 3518593,
    "name": "San Juan Zitlaltepec",
    "lat": 19.81207,
    "lng": -99.14526
  },
  {
    "id": 8858108,
    "name": "Lomas del Sur",
    "lat": 20.4925,
    "lng": -103.4175
  },
  {
    "id": 4007676,
    "name": "Pueblo Nuevo",
    "lat": 23.38359,
    "lng": -105.37084
  },
  {
    "id": 3533440,
    "name": "Acatlán de Osorio",
    "lat": 18.2025,
    "lng": -98.04864
  },
  {
    "id": 3514437,
    "name": "Xochitepec",
    "lat": 18.7808,
    "lng": -99.23049
  },
  {
    "id": 4019819,
    "name": "Acaponeta",
    "lat": 22.49396,
    "lng": -105.36369
  },
  {
    "id": 3526446,
    "name": "José Cardel",
    "lat": 19.3681,
    "lng": -96.36951
  },
  {
    "id": 3523450,
    "name": "Matías Romero",
    "lat": 16.87902,
    "lng": -95.03939
  },
  {
    "id": 3526467,
    "name": "Jojutla",
    "lat": 18.61472,
    "lng": -99.18028
  },
  {
    "id": 4003908,
    "name": "Jocotepec",
    "lat": 20.28566,
    "lng": -103.42908
  },
  {
    "id": 3529989,
    "name": "Cuautepec de Hinojosa",
    "lat": 20.03557,
    "lng": -98.31015
  },
  {
    "id": 3524618,
    "name": "Las Rosas",
    "lat": 16.36554,
    "lng": -92.37063
  },
  {
    "id": 3982567,
    "name": "Tamazula de Gordiano",
    "lat": 19.68006,
    "lng": -103.2514
  },
  {
    "id": 3524391,
    "name": "Lerdo de Tejada",
    "lat": 18.62936,
    "lng": -95.51968
  },
  {
    "id": 3527542,
    "name": "Comalapa",
    "lat": 15.65995,
    "lng": -92.14111
  },
  {
    "id": 4018320,
    "name": "Arcelia",
    "lat": 18.31847,
    "lng": -100.28148
  },
  {
    "id": 3514518,
    "name": "Xico",
    "lat": 19.42178,
    "lng": -97.00819
  },
  {
    "id": 4018831,
    "name": "Aldama",
    "lat": 28.83826,
    "lng": -105.91214
  },
  {
    "id": 3983820,
    "name": "Santa Rosa Jáuregui",
    "lat": 20.7421,
    "lng": -100.44783
  },
  {
    "id": 9511750,
    "name": "San José de los Olvera",
    "lat": 20.55257,
    "lng": -100.41511
  },
  {
    "id": 3515373,
    "name": "Tlaquiltenango",
    "lat": 18.63429,
    "lng": -99.1632
  },
  {
    "id": 8858109,
    "name": "Parque Industrial Ciudad Mitras",
    "lat": 25.78861,
    "lng": -100.44778
  },
  {
    "id": 3523202,
    "name": "Milpa Alta",
    "lat": 19.19251,
    "lng": -99.02317
  },
  {
    "id": 8858110,
    "name": "Mitras Poniente",
    "lat": 25.77583,
    "lng": -100.42583
  },
  {
    "id": 3983636,
    "name": "Santiago Ixcuintla",
    "lat": 21.81295,
    "lng": -105.20844
  },
  {
    "id": 3515040,
    "name": "Tulum",
    "lat": 20.21173,
    "lng": -87.46325
  },
  {
    "id": 8858111,
    "name": "Villa del Prado 2da Sección",
    "lat": 32.42389,
    "lng": -116.97167
  },
  {
    "id": 3532989,
    "name": "Altepexi",
    "lat": 18.37035,
    "lng": -97.29966
  },
  {
    "id": 3979822,
    "name": "Zacoalco de Torres",
    "lat": 20.22627,
    "lng": -103.56981
  },
  {
    "id": 4013669,
    "name": "Coalcomán de Vázquez Pallares",
    "lat": 18.7775,
    "lng": -103.16
  },
  {
    "id": 3827248,
    "name": "San Andrés Cuexcontitlán",
    "lat": 19.35892,
    "lng": -99.62151
  },
  {
    "id": 3530978,
    "name": "Chichén-Itzá",
    "lat": 20.66667,
    "lng": -88.56667
  },
  {
    "id": 3531556,
    "name": "Carlos A. Carrillo",
    "lat": 18.37477,
    "lng": -95.75444
  },
  {
    "id": 8858112,
    "name": "Tres de Mayo",
    "lat": 18.86861,
    "lng": -99.20833
  },
  {
    "id": 3523590,
    "name": "Mapastepec",
    "lat": 15.43358,
    "lng": -92.90039
  },
  {
    "id": 3817809,
    "name": "Santa María Ajoloapan",
    "lat": 19.7636,
    "lng": -98.95908
  },
  {
    "id": 8858113,
    "name": "Don Antonio",
    "lat": 19.87444,
    "lng": -98.93472
  },
  {
    "id": 3526681,
    "name": "Ixtapan de la Sal",
    "lat": 18.84369,
    "lng": -99.67671
  },
  {
    "id": 3523061,
    "name": "Santiago Momoxpan",
    "lat": 19.07361,
    "lng": -98.26694
  },
  {
    "id": 4013085,
    "name": "Compostela",
    "lat": 21.23777,
    "lng": -104.9001
  },
  {
    "id": 3517285,
    "name": "Heroica Ciudad de Tlaxiaco",
    "lat": 17.26916,
    "lng": -97.68053
  },
  {
    "id": 3532545,
    "name": "Axochiapan",
    "lat": 18.50246,
    "lng": -98.75358
  },
  {
    "id": 3521103,
    "name": "Progreso de Alvaro Obregon",
    "lat": 20.24929,
    "lng": -99.18988
  },
  {
    "id": 3526864,
    "name": "Ciudad de Huitzuco",
    "lat": 18.30334,
    "lng": -99.33376
  },
  {
    "id": 3827588,
    "name": "Huilango",
    "lat": 19.68056,
    "lng": -99.25639
  },
  {
    "id": 11839902,
    "name": "Tres Valles",
    "lat": 18.23915,
    "lng": -96.13569
  },
  {
    "id": 3517831,
    "name": "San Salvador El Seco",
    "lat": 19.13325,
    "lng": -97.64167
  },
  {
    "id": 8858116,
    "name": "Casa Blanca",
    "lat": 19.04222,
    "lng": -98.11889
  },
  {
    "id": 3522118,
    "name": "Palmarito Tochapan",
    "lat": 18.90135,
    "lng": -97.63833
  },
  {
    "id": 4004126,
    "name": "Jamay",
    "lat": 20.29479,
    "lng": -102.7094
  },
  {
    "id": 3517832,
    "name": "San Salvador Atenco",
    "lat": 19.5517,
    "lng": -98.91867
  },
  {
    "id": 3979505,
    "name": "Guadalupe Victoria",
    "lat": 32.28924,
    "lng": -115.10534
  },
  {
    "id": 3993893,
    "name": "Palau",
    "lat": 27.89232,
    "lng": -101.42319
  },
  {
    "id": 3817731,
    "name": "Tezoyuca",
    "lat": 19.59283,
    "lng": -98.91084
  },
  {
    "id": 3815375,
    "name": "La Magdalena Tlaltelulco",
    "lat": 19.28287,
    "lng": -98.19609
  },
  {
    "id": 3988169,
    "name": "Salinas de Hidalgo",
    "lat": 22.62795,
    "lng": -101.71417
  },
  {
    "id": 3514278,
    "name": "Yecapixtla",
    "lat": 18.88333,
    "lng": -98.865
  },
  {
    "id": 3514051,
    "name": "Zaragoza",
    "lat": 19.77097,
    "lng": -97.55506
  },
  {
    "id": 8858117,
    "name": "La Providencia Siglo XXI",
    "lat": 20.06417,
    "lng": -98.71722
  },
  {
    "id": 3987224,
    "name": "San Felipe",
    "lat": 31.02526,
    "lng": -114.84173
  },
  {
    "id": 3522232,
    "name": "Ozumba de Alzate",
    "lat": 19.03689,
    "lng": -98.79516
  },
  {
    "id": 3515163,
    "name": "Santa Rosa Treinta",
    "lat": 18.70025,
    "lng": -99.18357
  },
  {
    "id": 3523909,
    "name": "Los Reyes de Juárez",
    "lat": 18.94918,
    "lng": -97.80379
  },
  {
    "id": 3516499,
    "name": "Suchiapa",
    "lat": 16.62473,
    "lng": -93.09894
  },
  {
    "id": 4013726,
    "name": "Anáhuac",
    "lat": 27.24457,
    "lng": -100.13229
  },
  {
    "id": 3514349,
    "name": "Yajalón",
    "lat": 17.17291,
    "lng": -92.33392
  },
  {
    "id": 4018254,
    "name": "Ario de Rosales",
    "lat": 19.209,
    "lng": -101.70743
  },
  {
    "id": 3531904,
    "name": "Cacahoatán",
    "lat": 14.99199,
    "lng": -92.16417
  },
  {
    "id": 3994912,
    "name": "Nochistlán de Mejía",
    "lat": 21.36355,
    "lng": -102.84754
  },
  {
    "id": 4022735,
    "name": "Hidalgo",
    "lat": 25.97205,
    "lng": -100.45029
  },
  {
    "id": 3519249,
    "name": "San Francisco Tlalcilalcalpan",
    "lat": 19.29474,
    "lng": -99.76771
  },
  {
    "id": 4005380,
    "name": "Guadalupe Victoria",
    "lat": 24.44676,
    "lng": -104.12336
  },
  {
    "id": 3533490,
    "name": "San Antonio Acahualco",
    "lat": 19.274,
    "lng": -99.77169
  },
  {
    "id": 3987402,
    "name": "Tlaltenango de Sánchez Román",
    "lat": 21.78129,
    "lng": -103.30436
  },
  {
    "id": 3516347,
    "name": "Tamuín",
    "lat": 22.00554,
    "lng": -98.77972
  },
  {
    "id": 3979174,
    "name": "Lázaro Cárdenas",
    "lat": 30.52663,
    "lng": -115.93137
  },
  {
    "id": 8858118,
    "name": "Ampliación San Mateo",
    "lat": 19.61639,
    "lng": -99.14722
  },
  {
    "id": 3518475,
    "name": "Teolocholco",
    "lat": 19.24333,
    "lng": -98.19083
  },
  {
    "id": 3515938,
    "name": "Teopisca",
    "lat": 16.54144,
    "lng": -92.47288
  },
  {
    "id": 3996910,
    "name": "Magdalena",
    "lat": 20.90686,
    "lng": -103.9769
  },
  {
    "id": 3526662,
    "name": "Izamal",
    "lat": 20.93537,
    "lng": -89.01802
  },
  {
    "id": 3996299,
    "name": "Medina",
    "lat": 21.14972,
    "lng": -101.6225
  },
  {
    "id": 4016734,
    "name": "Bucerías",
    "lat": 20.75626,
    "lng": -105.33438
  },
  {
    "id": 3514597,
    "name": "Santa Ana Xalmimilulco",
    "lat": 19.21287,
    "lng": -98.38207
  },
  {
    "id": 3986985,
    "name": "San Francisco de los Romo",
    "lat": 22.07748,
    "lng": -102.2714
  },
  {
    "id": 3515906,
    "name": "Tepatlaxco de Hidalgo",
    "lat": 19.08067,
    "lng": -97.97338
  },
  {
    "id": 3516982,
    "name": "Santiago Tulantepec",
    "lat": 20.03618,
    "lng": -98.35563
  },
  {
    "id": 8858119,
    "name": "Fraccionamiento Ciudad Olmeca",
    "lat": 18.15056,
    "lng": -94.5525
  },
  {
    "id": 3526355,
    "name": "Juchitepec",
    "lat": 19.10059,
    "lng": -98.8788
  },
  {
    "id": 3988416,
    "name": "El Rosario",
    "lat": 22.99032,
    "lng": -105.85419
  },
  {
    "id": 8858120,
    "name": "San Rafael Tlanalapan",
    "lat": 19.29167,
    "lng": -98.46806
  },
  {
    "id": 4005857,
    "name": "Vicente Guerrero",
    "lat": 23.73267,
    "lng": -103.98247
  },
  {
    "id": 4018227,
    "name": "Ciudad de Armería",
    "lat": 18.9378,
    "lng": -103.96417
  },
  {
    "id": 8858121,
    "name": "Tecámac de Felipe Villanueva",
    "lat": 19.71306,
    "lng": -98.96833
  },
  {
    "id": 3979665,
    "name": "Zinapécuaro",
    "lat": 19.86006,
    "lng": -100.82857
  },
  {
    "id": 3762210,
    "name": "Santiago Tlacotepec",
    "lat": 19.22708,
    "lng": -99.67083
  },
  {
    "id": 3526603,
    "name": "Jalpa de Méndez",
    "lat": 18.17678,
    "lng": -93.06376
  },
  {
    "id": 4002745,
    "name": "La Cruz",
    "lat": 23.92126,
    "lng": -106.8925
  },
  {
    "id": 3517795,
    "name": "Zinacatepec",
    "lat": 18.33516,
    "lng": -97.24621
  },
  {
    "id": 3817714,
    "name": "Tulantongo",
    "lat": 19.53159,
    "lng": -98.87464
  },
  {
    "id": 8858122,
    "name": "Venceremos",
    "lat": 20.55083,
    "lng": -100.39806
  },
  {
    "id": 3524374,
    "name": "Libres",
    "lat": 19.46574,
    "lng": -97.68737
  },
  {
    "id": 4019082,
    "name": "Ahualulco de Mercado",
    "lat": 20.70137,
    "lng": -103.97461
  },
  {
    "id": 3522246,
    "name": "San Pablo Oztotepec",
    "lat": 19.18652,
    "lng": -99.07361
  },
  {
    "id": 3514785,
    "name": "Venustiano Carranza",
    "lat": 16.33851,
    "lng": -92.56317
  },
  {
    "id": 8599061,
    "name": "Las Delicias",
    "lat": 32.40889,
    "lng": -116.94361
  },
  {
    "id": 3531574,
    "name": "Cárdenas",
    "lat": 22.00144,
    "lng": -99.64247
  },
  {
    "id": 3516912,
    "name": "Santiago Tuxtla",
    "lat": 18.46576,
    "lng": -95.3006
  },
  {
    "id": 3996956,
    "name": "Madera",
    "lat": 29.19039,
    "lng": -108.14123
  },
  {
    "id": 3992919,
    "name": "Peribán de Ramos",
    "lat": 19.5201,
    "lng": -102.41397
  },
  {
    "id": 4003804,
    "name": "Juan Aldama",
    "lat": 24.29072,
    "lng": -103.39339
  },
  {
    "id": 3817641,
    "name": "San Mateo Huitzilzingo",
    "lat": 19.22906,
    "lng": -98.92504
  },
  {
    "id": 3532499,
    "name": "Ayutla de los Libres",
    "lat": 16.96376,
    "lng": -99.09616
  },
  {
    "id": 3980833,
    "name": "Tuzantla",
    "lat": 19.20289,
    "lng": -100.56679
  },
  {
    "id": 3526785,
    "name": "Villa Independencia",
    "lat": 20.05523,
    "lng": -97.05214
  },
  {
    "id": 3530175,
    "name": "Coscomatepec de Bravo",
    "lat": 19.07275,
    "lng": -97.04685
  },
  {
    "id": 3517524,
    "name": "Tecámac",
    "lat": 19.71288,
    "lng": -98.96895
  },
  {
    "id": 3515902,
    "name": "Tepeapulco",
    "lat": 19.7884,
    "lng": -98.55266
  },
  {
    "id": 8858123,
    "name": "Alborada Jaltenco",
    "lat": 19.66194,
    "lng": -99.06889
  },
  {
    "id": 3982007,
    "name": "Tepalcatepec",
    "lat": 19.18666,
    "lng": -102.8493
  },
  {
    "id": 3980169,
    "name": "Villa Hidalgo",
    "lat": 21.67616,
    "lng": -102.58803
  },
  {
    "id": 4011469,
    "name": "Puebla",
    "lat": 32.56645,
    "lng": -115.35387
  },
  {
    "id": 4013892,
    "name": "Ciénega de Flores",
    "lat": 25.95467,
    "lng": -100.16695
  },
  {
    "id": 3516919,
    "name": "Tetla",
    "lat": 19.44204,
    "lng": -98.10325
  },
  {
    "id": 8858124,
    "name": "Crucecita",
    "lat": 15.76889,
    "lng": -96.135
  },
  {
    "id": 3982170,
    "name": "Técpan de Galeana",
    "lat": 17.21976,
    "lng": -100.63032
  },
  {
    "id": 3982545,
    "name": "Tangancícuaro de Arista",
    "lat": 19.88733,
    "lng": -102.20636
  },
  {
    "id": 3526611,
    "name": "Xalatlaco",
    "lat": 19.18314,
    "lng": -99.41844
  },
  {
    "id": 3522451,
    "name": "Ocotlán de Morelos",
    "lat": 16.79151,
    "lng": -96.67455
  },
  {
    "id": 3824536,
    "name": "Alto Lucero",
    "lat": 20.95361,
    "lng": -97.44194
  },
  {
    "id": 3824169,
    "name": "Benito Juárez",
    "lat": 22.20067,
    "lng": -97.84085
  },
  {
    "id": 3531793,
    "name": "Calkiní",
    "lat": 20.36905,
    "lng": -90.05119
  },
  {
    "id": 3522279,
    "name": "Oteapan",
    "lat": 18.00173,
    "lng": -94.66615
  },
  {
    "id": 3822723,
    "name": "Alfredo V. Bonfil",
    "lat": 21.08776,
    "lng": -86.84706
  },
  {
    "id": 3531042,
    "name": "Chemax",
    "lat": 20.65613,
    "lng": -87.9364
  },
  {
    "id": 3981491,
    "name": "Tizapán el Alto",
    "lat": 20.15942,
    "lng": -103.0447
  },
  {
    "id": 3517731,
    "name": "Santa Ana Nextlalpan",
    "lat": 19.74171,
    "lng": -99.07496
  },
  {
    "id": 3518281,
    "name": "San Miguel Canoa",
    "lat": 19.15194,
    "lng": -98.10306
  },
  {
    "id": 3517265,
    "name": "Coronango",
    "lat": 19.1209,
    "lng": -98.30594
  },
  {
    "id": 3515349,
    "name": "Tlaxco",
    "lat": 19.61442,
    "lng": -98.11997
  },
  {
    "id": 4014795,
    "name": "Cerritos",
    "lat": 22.42835,
    "lng": -100.28474
  },
  {
    "id": 3515438,
    "name": "Tlalmanalco",
    "lat": 19.20521,
    "lng": -98.80115
  },
  {
    "id": 3994594,
    "name": "Nuevo San Juan Parangaricutiro",
    "lat": 19.41857,
    "lng": -102.13087
  },
  {
    "id": 3998287,
    "name": "Loreto",
    "lat": 26.01217,
    "lng": -111.34888
  },
  {
    "id": 3991110,
    "name": "Quiroga",
    "lat": 19.66557,
    "lng": -101.52287
  },
  {
    "id": 3984437,
    "name": "Santa Cruz del Valle",
    "lat": 20.53333,
    "lng": -103.43333
  },
  {
    "id": 3520214,
    "name": "Juan Rodríguez Clara",
    "lat": 17.99283,
    "lng": -95.40099
  },
  {
    "id": 3530595,
    "name": "Ciudad Hidalgo",
    "lat": 14.68018,
    "lng": -92.15195
  },
  {
    "id": 4007812,
    "name": "El Rosario",
    "lat": 24.25556,
    "lng": -107.18278
  },
  {
    "id": 3528788,
    "name": "El Llano",
    "lat": 20.06537,
    "lng": -99.31976
  },
  {
    "id": 3823668,
    "name": "Las Amapolas",
    "lat": 19.15194,
    "lng": -96.19778
  },
  {
    "id": 8858125,
    "name": "Progreso",
    "lat": 18.88008,
    "lng": -99.1526
  },
  {
    "id": 4005545,
    "name": "Guachochi",
    "lat": 26.81906,
    "lng": -107.06903
  },
  {
    "id": 3982168,
    "name": "Tecuala",
    "lat": 22.39815,
    "lng": -105.45808
  },
  {
    "id": 3532281,
    "name": "Benito Juárez",
    "lat": 17.83316,
    "lng": -92.5302
  },
  {
    "id": 3999162,
    "name": "Las Varas",
    "lat": 21.18021,
    "lng": -105.13595
  },
  {
    "id": 3515603,
    "name": "Tihuatlan",
    "lat": 20.71449,
    "lng": -97.53335
  },
  {
    "id": 3980184,
    "name": "Santa Clara del Cobre",
    "lat": 19.4058,
    "lng": -101.63998
  },
  {
    "id": 4029310,
    "name": "San Vicente",
    "lat": 20.74879,
    "lng": -105.25018
  },
  {
    "id": 3823806,
    "name": "General Miguel Alemán",
    "lat": 18.89346,
    "lng": -96.79239
  },
  {
    "id": 8858127,
    "name": "Palmira",
    "lat": 18.88278,
    "lng": -97.11139
  },
  {
    "id": 3815299,
    "name": "Villa de El Carmen Tequexquitla",
    "lat": 19.32426,
    "lng": -97.6535
  },
  {
    "id": 4014409,
    "name": "Cherán",
    "lat": 19.68536,
    "lng": -101.95368
  },
  {
    "id": 3515351,
    "name": "Tlaxcoapan",
    "lat": 20.09163,
    "lng": -99.22042
  },
  {
    "id": 3991547,
    "name": "Pueblo Yaqui",
    "lat": 27.35515,
    "lng": -110.034
  },
  {
    "id": 3521574,
    "name": "Pichucalco",
    "lat": 17.51,
    "lng": -93.11591
  },
  {
    "id": 4004148,
    "name": "Jalpa",
    "lat": 21.63241,
    "lng": -102.97906
  },
  {
    "id": 3516006,
    "name": "Tenancingo de Degollado",
    "lat": 18.96136,
    "lng": -99.5903
  },
  {
    "id": 3515811,
    "name": "Tepoztlán",
    "lat": 18.98622,
    "lng": -99.10051
  },
  {
    "id": 3532870,
    "name": "Anahuac",
    "lat": 22.20275,
    "lng": -97.85506
  },
  {
    "id": 3986090,
    "name": "San José el Alto",
    "lat": 20.65345,
    "lng": -100.38221
  },
  {
    "id": 3527656,
    "name": "Ezequiel Montes",
    "lat": 20.6657,
    "lng": -99.89872
  },
  {
    "id": 3988361,
    "name": "Ruíz",
    "lat": 21.95107,
    "lng": -105.1438
  },
  {
    "id": 3981145,
    "name": "Trancoso",
    "lat": 22.73566,
    "lng": -102.36588
  },
  {
    "id": 3516723,
    "name": "Sayula de Alemán",
    "lat": 17.88191,
    "lng": -94.95986
  },
  {
    "id": 3514189,
    "name": "Villa de Zaachila",
    "lat": 16.95098,
    "lng": -96.74938
  },
  {
    "id": 4013705,
    "name": "Ciudad Manuel Doblado",
    "lat": 20.72888,
    "lng": -101.95226
  },
  {
    "id": 8858129,
    "name": "Real del Valle (El Paraíso) [Fraccionamiento]",
    "lat": 20.54556,
    "lng": -103.36972
  },
  {
    "id": 4012341,
    "name": "Cuerámaro",
    "lat": 20.62546,
    "lng": -101.67242
  },
  {
    "id": 3516936,
    "name": "Miahuatlán",
    "lat": 18.54983,
    "lng": -97.43953
  },
  {
    "id": 8858130,
    "name": "Villa del Campo",
    "lat": 32.5075,
    "lng": -116.73833
  },
  {
    "id": 3533483,
    "name": "Acala",
    "lat": 16.5561,
    "lng": -92.80772
  },
  {
    "id": 3801595,
    "name": "San Jacinto Amilpas",
    "lat": 17.10188,
    "lng": -96.76228
  },
  {
    "id": 3827382,
    "name": "San Salvador Cuauhtenco",
    "lat": 19.19276,
    "lng": -99.08983
  },
  {
    "id": 3532803,
    "name": "Apaxco de Ocampo",
    "lat": 19.97512,
    "lng": -99.17112
  },
  {
    "id": 3515484,
    "name": "Tlacolula de Matamoros",
    "lat": 16.95471,
    "lng": -96.4759
  },
  {
    "id": 8858131,
    "name": "Vicente Guerrero",
    "lat": 16.93306,
    "lng": -96.70139
  },
  {
    "id": 3980161,
    "name": "Villa Juárez",
    "lat": 27.12981,
    "lng": -109.83707
  },
  {
    "id": 3517284,
    "name": "Atarasquillo",
    "lat": 19.32831,
    "lng": -99.46899
  },
  {
    "id": 3516497,
    "name": "Brisas Barra de Suchiate",
    "lat": 14.53588,
    "lng": -92.22414
  },
  {
    "id": 11228715,
    "name": "La Joya",
    "lat": 18.89064,
    "lng": -99.12337
  },
  {
    "id": 3517970,
    "name": "San Pedro Pochutla",
    "lat": 15.74587,
    "lng": -96.46601
  },
  {
    "id": 3514916,
    "name": "Unión Hidalgo",
    "lat": 16.4723,
    "lng": -94.82952
  },
  {
    "id": 3517190,
    "name": "Santa María Xonacatepec",
    "lat": 19.08944,
    "lng": -98.10361
  },
  {
    "id": 3533079,
    "name": "Aldama",
    "lat": 22.92096,
    "lng": -98.07523
  },
  {
    "id": 3979982,
    "name": "Yahualica de González Gallo",
    "lat": 21.17978,
    "lng": -102.88611
  },
  {
    "id": 3529911,
    "name": "Cuitláhuac",
    "lat": 18.81429,
    "lng": -96.72281
  },
  {
    "id": 3527186,
    "name": "Gutiérrez Zamora",
    "lat": 20.45347,
    "lng": -97.08588
  },
  {
    "id": 3827267,
    "name": "San Pedro Tultepec",
    "lat": 19.26514,
    "lng": -99.50934
  },
  {
    "id": 3992212,
    "name": "Poncitlán",
    "lat": 20.38111,
    "lng": -102.92395
  },
  {
    "id": 4012608,
    "name": "Coyuca de Benítez",
    "lat": 17.00895,
    "lng": -100.08714
  },
  {
    "id": 8858132,
    "name": "Morelos",
    "lat": 19.64889,
    "lng": -101.23889
  },
  {
    "id": 4012685,
    "name": "Cotija de la Paz",
    "lat": 19.80922,
    "lng": -102.70198
  },
  {
    "id": 3995943,
    "name": "Miguel Auza",
    "lat": 24.29445,
    "lng": -103.45113
  },
  {
    "id": 4006380,
    "name": "Etzatlán",
    "lat": 20.76652,
    "lng": -104.07899
  },
  {
    "id": 4003582,
    "name": "Ascensión",
    "lat": 31.0926,
    "lng": -107.99687
  },
  {
    "id": 4026074,
    "name": "La Mira",
    "lat": 18.03349,
    "lng": -102.32566
  },
  {
    "id": 3521833,
    "name": "Paso del Macho",
    "lat": 18.97098,
    "lng": -96.72419
  },
  {
    "id": 3980125,
    "name": "Villa Unión",
    "lat": 23.18992,
    "lng": -106.21947
  },
  {
    "id": 3533380,
    "name": "Acuitlapilco",
    "lat": 19.27333,
    "lng": -98.23542
  },
  {
    "id": 4006804,
    "name": "Empalme Escobedo",
    "lat": 20.6725,
    "lng": -100.74675
  },
  {
    "id": 4012905,
    "name": "Coquimatlán",
    "lat": 19.20625,
    "lng": -103.80952
  },
  {
    "id": 3531863,
    "name": "Cadereyta de Montes",
    "lat": 20.6948,
    "lng": -99.81511
  },
  {
    "id": 3526625,
    "name": "Jalacingo",
    "lat": 19.80333,
    "lng": -97.3083
  },
  {
    "id": 3523124,
    "name": "San Andrés Mixquic",
    "lat": 19.22512,
    "lng": -98.96408
  },
  {
    "id": 4003675,
    "name": "Juriquilla",
    "lat": 20.7114,
    "lng": -100.45705
  },
  {
    "id": 4015546,
    "name": "Capilla de Guadalupe",
    "lat": 20.82718,
    "lng": -102.59136
  },
  {
    "id": 3527624,
    "name": "Filomeno Mata",
    "lat": 20.20004,
    "lng": -97.70392
  },
  {
    "id": 3985307,
    "name": "San Miguel Octopan",
    "lat": 20.57428,
    "lng": -100.7478
  },
  {
    "id": 3532656,
    "name": "Asunción Nochixtlán",
    "lat": 17.45916,
    "lng": -97.22605
  },
  {
    "id": 3518461,
    "name": "San Marcos",
    "lat": 16.79772,
    "lng": -99.38921
  },
  {
    "id": 4013136,
    "name": "Colotlán",
    "lat": 22.11316,
    "lng": -103.26658
  },
  {
    "id": 3514031,
    "name": "Zimapan",
    "lat": 20.73814,
    "lng": -99.3818
  },
  {
    "id": 3817608,
    "name": "Tepetlixpa",
    "lat": 19.02893,
    "lng": -98.82129
  },
  {
    "id": 3518543,
    "name": "Almecatla",
    "lat": 19.14286,
    "lng": -98.23597
  },
  {
    "id": 3976535,
    "name": "Eldorado",
    "lat": 24.32444,
    "lng": -107.36722
  },
  {
    "id": 3525570,
    "name": "La Joya",
    "lat": 18.66667,
    "lng": -99.46667
  },
  {
    "id": 3519214,
    "name": "San Gregorio Cuautzingo",
    "lat": 19.25962,
    "lng": -98.85742
  },
  {
    "id": 3515679,
    "name": "Santiago Tianguistenco de Galeana",
    "lat": 19.18024,
    "lng": -99.46644
  },
  {
    "id": 3984074,
    "name": "Santa María del Río",
    "lat": 21.79615,
    "lng": -100.73815
  },
  {
    "id": 8858133,
    "name": "Centro de Readaptación Social",
    "lat": 20.55444,
    "lng": -103.19361
  },
  {
    "id": 4021858,
    "name": "Guerrero Negro",
    "lat": 27.96005,
    "lng": -114.05589
  },
  {
    "id": 3532443,
    "name": "Balancán",
    "lat": 17.80903,
    "lng": -91.53682
  },
  {
    "id": 8858134,
    "name": "Veintidós de Febrero",
    "lat": 19.61139,
    "lng": -99.34667
  },
  {
    "id": 3976785,
    "name": "Adolfo Ruiz Cortines",
    "lat": 25.70387,
    "lng": -108.71894
  },
  {
    "id": 3985797,
    "name": "San Julián",
    "lat": 21.01035,
    "lng": -102.17967
  },
  {
    "id": 4019727,
    "name": "Adolfo Ruíz Cortínes",
    "lat": 25.75,
    "lng": -108.75
  },
  {
    "id": 3520259,
    "name": "Río Grande",
    "lat": 16.01079,
    "lng": -97.43574
  },
  {
    "id": 3980586,
    "name": "Valparaíso",
    "lat": 22.77094,
    "lng": -103.57045
  },
  {
    "id": 3982837,
    "name": "Sonoyta",
    "lat": 31.86323,
    "lng": -112.85012
  },
  {
    "id": 8858135,
    "name": "Fraccionamiento Geovillas los Pinos",
    "lat": 19.21722,
    "lng": -96.22639
  },
  {
    "id": 3518414,
    "name": "San Martín de las Pirámides",
    "lat": 19.70582,
    "lng": -98.83554
  },
  {
    "id": 3518454,
    "name": "San Marcos",
    "lat": 20.03056,
    "lng": -99.33547
  },
  {
    "id": 8858136,
    "name": "Juan Morales",
    "lat": 18.81139,
    "lng": -98.92194
  },
  {
    "id": 4014501,
    "name": "Charcas",
    "lat": 23.12943,
    "lng": -101.11346
  },
  {
    "id": 3980580,
    "name": "Valtierrilla",
    "lat": 20.53244,
    "lng": -101.12761
  },
  {
    "id": 3522350,
    "name": "Oluta",
    "lat": 17.92972,
    "lng": -94.89662
  },
  {
    "id": 3516049,
    "name": "Temascalcingo",
    "lat": 19.91635,
    "lng": -100.00369
  },
  {
    "id": 3526756,
    "name": "Isla Mujeres",
    "lat": 21.23114,
    "lng": -86.73105
  },
  {
    "id": 3532808,
    "name": "San Pedro Apatlaco",
    "lat": 18.79306,
    "lng": -98.95972
  },
  {
    "id": 3523436,
    "name": "Maxcanú",
    "lat": 20.58456,
    "lng": -90.001
  },
  {
    "id": 3998318,
    "name": "Lombardía",
    "lat": 19.15806,
    "lng": -102.05111
  },
  {
    "id": 4009788,
    "name": "El Fuerte",
    "lat": 26.41691,
    "lng": -108.61816
  },
  {
    "id": 3979439,
    "name": "Progreso",
    "lat": 32.58165,
    "lng": -115.58434
  },
  {
    "id": 3516019,
    "name": "Tempoal de Sánchez",
    "lat": 21.51998,
    "lng": -98.38829
  },
  {
    "id": 3519833,
    "name": "San Antonio la Isla",
    "lat": 19.16441,
    "lng": -99.56685
  },
  {
    "id": 3981165,
    "name": "Tototlán",
    "lat": 20.54219,
    "lng": -102.7913
  },
  {
    "id": 8858137,
    "name": "Santa María Zacatepec",
    "lat": 19.12333,
    "lng": -98.36528
  },
  {
    "id": 3817648,
    "name": "Santa María Huexoculco",
    "lat": 19.25804,
    "lng": -98.8205
  },
  {
    "id": 8858138,
    "name": "La Tijera",
    "lat": 20.58167,
    "lng": -103.44056
  },
  {
    "id": 3982269,
    "name": "Tecalitlán",
    "lat": 19.47156,
    "lng": -103.30708
  },
  {
    "id": 3532182,
    "name": "Bochil",
    "lat": 16.99618,
    "lng": -92.8947
  },
  {
    "id": 3516563,
    "name": "Soledad de Doblado",
    "lat": 19.04637,
    "lng": -96.42142
  },
  {
    "id": 3529915,
    "name": "Cuilapan de Guerrero",
    "lat": 16.97756,
    "lng": -96.78081
  },
  {
    "id": 3817685,
    "name": "Santiago Cuautlalpan",
    "lat": 19.43232,
    "lng": -98.90136
  },
  {
    "id": 3980140,
    "name": "Villanueva",
    "lat": 22.35451,
    "lng": -102.88366
  },
  {
    "id": 3815363,
    "name": "Xicohtzinco",
    "lat": 19.17371,
    "lng": -98.23377
  },
  {
    "id": 3818580,
    "name": "Villa Lázaro Cárdenas",
    "lat": 20.46193,
    "lng": -97.70024
  },
  {
    "id": 3518702,
    "name": "San Juan de las Huertas",
    "lat": 19.24755,
    "lng": -99.75834
  },
  {
    "id": 3817656,
    "name": "San Marcos Huixtoco",
    "lat": 19.29668,
    "lng": -98.86369
  },
  {
    "id": 3523759,
    "name": "La Magdalena Chichicaspa",
    "lat": 19.41237,
    "lng": -99.32555
  },
  {
    "id": 3982364,
    "name": "Tarimoro",
    "lat": 20.28336,
    "lng": -100.75477
  },
  {
    "id": 3522855,
    "name": "Ciudad de Nanacamilpa",
    "lat": 19.49339,
    "lng": -98.53665
  },
  {
    "id": 3519535,
    "name": "San Pedro de los Baños",
    "lat": 19.66873,
    "lng": -99.83533
  },
  {
    "id": 3519230,
    "name": "San Gabriel Chilac",
    "lat": 18.32596,
    "lng": -97.34697
  },
  {
    "id": 3517829,
    "name": "Huixcolotla",
    "lat": 18.92073,
    "lng": -97.77166
  },
  {
    "id": 3523608,
    "name": "Estación Manuel",
    "lat": 22.72871,
    "lng": -98.32182
  },
  {
    "id": 3515921,
    "name": "Tepalcingo",
    "lat": 18.59498,
    "lng": -98.84537
  },
  {
    "id": 3532852,
    "name": "Ángel R. Cabada",
    "lat": 18.59601,
    "lng": -95.4458
  },
  {
    "id": 3531889,
    "name": "Cacalomacan",
    "lat": 19.25311,
    "lng": -99.70623
  },
  {
    "id": 3980390,
    "name": "Venustiano Carranza",
    "lat": 20.11553,
    "lng": -102.65391
  },
  {
    "id": 3801960,
    "name": "San Blas Atempa",
    "lat": 16.33103,
    "lng": -95.22559
  },
  {
    "id": 3526957,
    "name": "Huehuetoca",
    "lat": 19.82819,
    "lng": -99.2037
  },
  {
    "id": 4019807,
    "name": "Acatic",
    "lat": 20.78085,
    "lng": -102.91055
  },
  {
    "id": 3517984,
    "name": "San Pedro Los Baños",
    "lat": 19.62537,
    "lng": -99.8217
  },
  {
    "id": 3994216,
    "name": "Ojuelos de Jalisco",
    "lat": 21.86367,
    "lng": -101.59336
  },
  {
    "id": 3995155,
    "name": "Nacozari Viejo",
    "lat": 30.4,
    "lng": -109.65
  },
  {
    "id": 3984717,
    "name": "Santa Ana",
    "lat": 30.5412,
    "lng": -111.11882
  },
  {
    "id": 3523670,
    "name": "Maltrata",
    "lat": 18.81091,
    "lng": -97.27538
  },
  {
    "id": 8858139,
    "name": "Lomas de San Agustín",
    "lat": 20.5275,
    "lng": -103.46778
  },
  {
    "id": 3526501,
    "name": "Jilotepec de Molina Enríquez",
    "lat": 19.95194,
    "lng": -99.53278
  },
  {
    "id": 3517956,
    "name": "San Juan y San Pedro Tezompa",
    "lat": 19.2068,
    "lng": -98.96073
  },
  {
    "id": 3530066,
    "name": "Cruz Grande",
    "lat": 16.72241,
    "lng": -99.12356
  },
  {
    "id": 4018109,
    "name": "Ascención",
    "lat": 31.1,
    "lng": -107.98333
  },
  {
    "id": 3983805,
    "name": "Santa Rosalía",
    "lat": 27.34035,
    "lng": -112.26706
  },
  {
    "id": 3822989,
    "name": "José María Morelos",
    "lat": 19.74887,
    "lng": -88.70866
  },
  {
    "id": 4017936,
    "name": "Ayotlán",
    "lat": 20.52943,
    "lng": -102.32778
  },
  {
    "id": 8858140,
    "name": "Córdoba (Santa Leticia)",
    "lat": 18.90861,
    "lng": -96.97889
  },
  {
    "id": 3520194,
    "name": "El Rosario",
    "lat": 17.04271,
    "lng": -96.69209
  },
  {
    "id": 3529650,
    "name": "Dzitbalché",
    "lat": 20.31857,
    "lng": -90.05611
  },
  {
    "id": 3824524,
    "name": "Plan de Ayala",
    "lat": 20.54889,
    "lng": -97.47129
  },
  {
    "id": 3815451,
    "name": "Tenancingo",
    "lat": 19.14725,
    "lng": -98.20132
  },
  {
    "id": 3522454,
    "name": "San Francisco Ocotlán",
    "lat": 19.13411,
    "lng": -98.28345
  },
  {
    "id": 4011119,
    "name": "El Arenal",
    "lat": 20.77629,
    "lng": -103.6935
  },
  {
    "id": 4021296,
    "name": "Jesús Gómez Portugal (Margaritas)",
    "lat": 21.99917,
    "lng": -102.29139
  },
  {
    "id": 8858141,
    "name": "Las Palmas",
    "lat": 22.93672,
    "lng": -109.94235
  },
  {
    "id": 4029453,
    "name": "San Pedro Mártir",
    "lat": 20.61787,
    "lng": -100.47038
  },
  {
    "id": 3527720,
    "name": "Espita",
    "lat": 21.01098,
    "lng": -88.30681
  },
  {
    "id": 3515643,
    "name": "Tierra Colorada",
    "lat": 17.16571,
    "lng": -99.52791
  },
  {
    "id": 3483393,
    "name": "Ciudad Gustavo Díaz Ordaz",
    "lat": 26.2318,
    "lng": -98.59647
  },
  {
    "id": 3522781,
    "name": "Nealtican",
    "lat": 19.0499,
    "lng": -98.4272
  },
  {
    "id": 3532465,
    "name": "Bacalar",
    "lat": 18.68109,
    "lng": -88.39333
  },
  {
    "id": 3531006,
    "name": "Chiautla de Tapia",
    "lat": 18.30149,
    "lng": -98.60339
  },
  {
    "id": 4015683,
    "name": "Canatlán",
    "lat": 24.52653,
    "lng": -104.77397
  },
  {
    "id": 3995157,
    "name": "Nacozari de García",
    "lat": 30.37462,
    "lng": -109.68803
  },
  {
    "id": 3827278,
    "name": "San Pedro Tlaltizapan",
    "lat": 19.19973,
    "lng": -99.49956
  },
  {
    "id": 3522886,
    "name": "Muna",
    "lat": 20.48794,
    "lng": -89.71387
  },
  {
    "id": 4014914,
    "name": "Cedral",
    "lat": 23.82099,
    "lng": -100.72527
  },
  {
    "id": 8858142,
    "name": "San Francisco Tecoxpa",
    "lat": 19.19167,
    "lng": -99.00639
  },
  {
    "id": 4013292,
    "name": "Vicente Guerrero",
    "lat": 30.73054,
    "lng": -115.98871
  },
  {
    "id": 4019054,
    "name": "Ajijic",
    "lat": 20.29992,
    "lng": -103.26138
  },
  {
    "id": 4019098,
    "name": "Ahome",
    "lat": 25.91985,
    "lng": -109.17338
  },
  {
    "id": 3522865,
    "name": "Nacajuca",
    "lat": 18.16963,
    "lng": -93.01837
  },
  {
    "id": 3521111,
    "name": "Progreso Industrial",
    "lat": 19.63635,
    "lng": -99.35687
  },
  {
    "id": 3518224,
    "name": "San Miguel Xoxtla",
    "lat": 19.16763,
    "lng": -98.30758
  },
  {
    "id": 3514683,
    "name": "Villa Cuauhtémoc",
    "lat": 19.41676,
    "lng": -99.55872
  },
  {
    "id": 3518139,
    "name": "San Pablo Atlazalpan",
    "lat": 19.21742,
    "lng": -98.90763
  },
  {
    "id": 3532858,
    "name": "Anenecuilco",
    "lat": 18.77738,
    "lng": -98.98907
  },
  {
    "id": 3482929,
    "name": "González",
    "lat": 22.82761,
    "lng": -98.42715
  },
  {
    "id": 3984444,
    "name": "Santa Cruz de las Flores",
    "lat": 20.48056,
    "lng": -103.50278
  },
  {
    "id": 4015040,
    "name": "La Resolana",
    "lat": 19.6039,
    "lng": -104.43421
  },
  {
    "id": 3528046,
    "name": "El Tejar",
    "lat": 19.07433,
    "lng": -96.16097
  },
  {
    "id": 3531798,
    "name": "Calimaya",
    "lat": 19.16324,
    "lng": -99.6181
  },
  {
    "id": 3827273,
    "name": "San Bartolomé Tlaltelulco",
    "lat": 19.22738,
    "lng": -99.62964
  },
  {
    "id": 3530907,
    "name": "Chinautla",
    "lat": 19.81996,
    "lng": -97.38859
  },
  {
    "id": 3526600,
    "name": "Jaltenco",
    "lat": 19.75298,
    "lng": -99.0939
  },
  {
    "id": 3515909,
    "name": "Tepatepec",
    "lat": 20.24568,
    "lng": -99.08981
  },
  {
    "id": 8858144,
    "name": "Villas de la Hacienda [Fraccionamiento]",
    "lat": 20.53111,
    "lng": -103.38278
  },
  {
    "id": 3518352,
    "name": "San Matias Tlalancaleca",
    "lat": 19.32536,
    "lng": -98.49863
  },
  {
    "id": 3523180,
    "name": "Mineral del Monte",
    "lat": 20.1383,
    "lng": -98.67364
  },
  {
    "id": 3526601,
    "name": "Jalpan de Serra",
    "lat": 21.21745,
    "lng": -99.47183
  },
  {
    "id": 4018597,
    "name": "Amatitán",
    "lat": 20.83423,
    "lng": -103.73016
  },
  {
    "id": 3983312,
    "name": "Saucillo",
    "lat": 28.03239,
    "lng": -105.28763
  },
  {
    "id": 3519644,
    "name": "San Bartolo Cuautlalpan",
    "lat": 19.8151,
    "lng": -99.01044
  },
  {
    "id": 3514027,
    "name": "Zimatlán de Álvarez",
    "lat": 16.86939,
    "lng": -96.78435
  },
  {
    "id": 3533472,
    "name": "Acanceh",
    "lat": 20.81291,
    "lng": -89.45332
  },
  {
    "id": 3515521,
    "name": "Tixkokob",
    "lat": 21.0027,
    "lng": -89.39517
  },
  {
    "id": 11425680,
    "name": "Parrilla II",
    "lat": 17.87702,
    "lng": -92.92468
  },
  {
    "id": 3532601,
    "name": "Atlautla",
    "lat": 19.02188,
    "lng": -98.77859
  },
  {
    "id": 8858150,
    "name": "Conjunto Habitacional Villas del Pedregal",
    "lat": 19.68361,
    "lng": -101.30361
  },
  {
    "id": 3520935,
    "name": "Putla Villa de Guerrero",
    "lat": 17.0263,
    "lng": -97.92854
  },
  {
    "id": 3532636,
    "name": "Atencingo",
    "lat": 18.51347,
    "lng": -98.60542
  },
  {
    "id": 3994607,
    "name": "Nuevo Ideal",
    "lat": 24.88819,
    "lng": -105.07455
  },
  {
    "id": 3816612,
    "name": "El Parral",
    "lat": 16.37022,
    "lng": -93.00428
  },
  {
    "id": 8858151,
    "name": "Pomoca",
    "lat": 18.04972,
    "lng": -92.93056
  },
  {
    "id": 3514684,
    "name": "Villa Corzo",
    "lat": 16.18463,
    "lng": -93.26802
  },
  {
    "id": 3531218,
    "name": "Chahuites",
    "lat": 16.28842,
    "lng": -94.19478
  },
  {
    "id": 3516651,
    "name": "Simojovel de Allende",
    "lat": 17.14012,
    "lng": -92.714
  },
  {
    "id": 3521344,
    "name": "Platón Sánchez",
    "lat": 21.27182,
    "lng": -98.37456
  },
  {
    "id": 4012045,
    "name": "Degollado",
    "lat": 20.46702,
    "lng": -102.14976
  },
  {
    "id": 3980124,
    "name": "Villa Unión",
    "lat": 23.9753,
    "lng": -104.04462
  },
  {
    "id": 3980037,
    "name": "Vista Hermosa de Negrete",
    "lat": 20.27169,
    "lng": -102.47488
  },
  {
    "id": 3530778,
    "name": "Chocamán",
    "lat": 19.01214,
    "lng": -97.03291
  },
  {
    "id": 3761660,
    "name": "Galeana",
    "lat": 18.6381,
    "lng": -99.2124
  },
  {
    "id": 8858153,
    "name": "Puerto Escondido (Tepeolulco Puerto Escondido)",
    "lat": 19.55194,
    "lng": -99.09806
  },
  {
    "id": 3517673,
    "name": "Santa Catarina Ayotzingo",
    "lat": 19.20948,
    "lng": -98.92985
  },
  {
    "id": 3530955,
    "name": "Chichihualco",
    "lat": 17.65902,
    "lng": -99.67624
  },
  {
    "id": 3514013,
    "name": "Santa María Zolotepec",
    "lat": 19.41728,
    "lng": -99.49327
  },
  {
    "id": 3516149,
    "name": "Tecolutilla",
    "lat": 18.28251,
    "lng": -93.33352
  },
  {
    "id": 8858154,
    "name": "Unidad Habitacional José María Morelos y Pavón",
    "lat": 18.82028,
    "lng": -99.26222
  },
  {
    "id": 3516522,
    "name": "Soto la Marina",
    "lat": 23.76922,
    "lng": -98.20525
  },
  {
    "id": 3519255,
    "name": "San Francisco Telixtlahuaca",
    "lat": 17.29684,
    "lng": -96.90529
  },
  {
    "id": 3517728,
    "name": "Santa Ana Tlacotenco",
    "lat": 19.17569,
    "lng": -98.99788
  },
  {
    "id": 8858155,
    "name": "Nueva Palestina",
    "lat": 16.81722,
    "lng": -91.26
  },
  {
    "id": 3515415,
    "name": "Tlaltizapán",
    "lat": 18.6863,
    "lng": -99.11868
  },
  {
    "id": 3483997,
    "name": "El Naranjo",
    "lat": 22.52597,
    "lng": -99.32968
  },
  {
    "id": 4018128,
    "name": "Arteaga",
    "lat": 18.35779,
    "lng": -102.29122
  },
  {
    "id": 3985819,
    "name": "San Juanito",
    "lat": 27.97295,
    "lng": -107.60199
  },
  {
    "id": 3526987,
    "name": "Huautla de Jiménez",
    "lat": 18.1315,
    "lng": -96.84088
  },
  {
    "id": 3518363,
    "name": "Tlaixpan",
    "lat": 18.91217,
    "lng": -97.73818
  },
  {
    "id": 4003211,
    "name": "La Cañada",
    "lat": 20.60639,
    "lng": -100.33114
  },
  {
    "id": 3519972,
    "name": "San Agustín Tlaxiaca",
    "lat": 20.1151,
    "lng": -98.8864
  },
  {
    "id": 8858156,
    "name": "Las Veredas",
    "lat": 23.15028,
    "lng": -109.70611
  },
  {
    "id": 3983630,
    "name": "Santiago Tangamandapio",
    "lat": 19.95568,
    "lng": -102.43546
  },
  {
    "id": 4019790,
    "name": "Acatlán de Juárez",
    "lat": 20.42238,
    "lng": -103.59098
  },
  {
    "id": 3979706,
    "name": "Zaragoza",
    "lat": 28.4932,
    "lng": -100.9223
  },
  {
    "id": 3985912,
    "name": "San Juan de Abajo",
    "lat": 20.81673,
    "lng": -105.19187
  },
  {
    "id": 3532856,
    "name": "Jaltenango de la Paz",
    "lat": 15.87257,
    "lng": -92.72469
  },
  {
    "id": 8858157,
    "name": "Profesor Carlos Hank González",
    "lat": 19.37222,
    "lng": -98.93889
  },
  {
    "id": 3530598,
    "name": "Ciudad del Maíz",
    "lat": 22.40187,
    "lng": -99.60468
  },
  {
    "id": 4016599,
    "name": "Buenavista Tomatlán",
    "lat": 19.21281,
    "lng": -102.58735
  },
  {
    "id": 3980186,
    "name": "Villa de Reyes",
    "lat": 21.80309,
    "lng": -100.93418
  },
  {
    "id": 3988648,
    "name": "Rincón de Tamayo",
    "lat": 20.42344,
    "lng": -100.7547
  },
  {
    "id": 3818957,
    "name": "Ciudad de Chiautla de Tapia",
    "lat": 18.3,
    "lng": -98.60389
  },
  {
    "id": 4012421,
    "name": "Cuatro Ciénegas de Carranza",
    "lat": 26.98542,
    "lng": -102.06386
  },
  {
    "id": 3527149,
    "name": "Hecelchakán",
    "lat": 20.17735,
    "lng": -90.13357
  },
  {
    "id": 3995146,
    "name": "Nahuatzén",
    "lat": 19.65506,
    "lng": -101.91704
  },
  {
    "id": 3530046,
    "name": "Cuajinicuilapa",
    "lat": 16.47347,
    "lng": -98.41389
  },
  {
    "id": 4011873,
    "name": "Doctor Arroyo",
    "lat": 23.67211,
    "lng": -100.18134
  },
  {
    "id": 3522525,
    "name": "Nuevo Progreso",
    "lat": 26.05378,
    "lng": -97.95149
  },
  {
    "id": 4010273,
    "name": "El Colomo",
    "lat": 19.06015,
    "lng": -104.25727
  },
  {
    "id": 4012194,
    "name": "Cuitzeo del Porvenir",
    "lat": 19.97025,
    "lng": -101.1429
  },
  {
    "id": 8858158,
    "name": "Fraccionamiento la Trinidad",
    "lat": 19.82917,
    "lng": -99.08278
  },
  {
    "id": 4006337,
    "name": "Felipe Carrillo Puerto",
    "lat": 19.16325,
    "lng": -102.70834
  },
  {
    "id": 3520926,
    "name": "Quecholac",
    "lat": 18.95471,
    "lng": -97.65858
  },
  {
    "id": 3514162,
    "name": "Zacatepec",
    "lat": 19.26631,
    "lng": -97.5328
  },
  {
    "id": 3515763,
    "name": "Tetela del Volcán",
    "lat": 18.89306,
    "lng": -98.72972
  },
  {
    "id": 3522973,
    "name": "Moralillo",
    "lat": 22.22552,
    "lng": -97.91213
  },
  {
    "id": 3514595,
    "name": "Xaloztoc",
    "lat": 19.40775,
    "lng": -98.04602
  },
  {
    "id": 3987544,
    "name": "San Blas",
    "lat": 21.54076,
    "lng": -105.28797
  },
  {
    "id": 3533117,
    "name": "Akil",
    "lat": 20.26547,
    "lng": -89.34787
  },
  {
    "id": 11839903,
    "name": "Ixhuatlán del Sureste",
    "lat": 18.02137,
    "lng": -94.3886
  },
  {
    "id": 3516281,
    "name": "Tanquián de Escobedo",
    "lat": 21.60587,
    "lng": -98.66275
  },
  {
    "id": 8858159,
    "name": "Santa Cruz Amilpas",
    "lat": 17.05833,
    "lng": -96.68333
  },
  {
    "id": 3815201,
    "name": "San Andrés Ahuashuatepec",
    "lat": 19.37831,
    "lng": -98.10654
  },
  {
    "id": 3516948,
    "name": "Jamiltepec",
    "lat": 16.28258,
    "lng": -97.82446
  },
  {
    "id": 3522265,
    "name": "Otumba",
    "lat": 19.69985,
    "lng": -98.75638
  },
  {
    "id": 3827335,
    "name": "Santiago Tílapa",
    "lat": 19.18953,
    "lng": -99.42089
  },
  {
    "id": 3994164,
    "name": "Opopeo",
    "lat": 19.41163,
    "lng": -101.60515
  },
  {
    "id": 3520875,
    "name": "Grajales",
    "lat": 19.22796,
    "lng": -97.80307
  },
  {
    "id": 3984690,
    "name": "Santa Ana Pacueco",
    "lat": 20.34722,
    "lng": -102.01583
  },
  {
    "id": 8858160,
    "name": "Paseos de San Juan",
    "lat": 19.78194,
    "lng": -99.0175
  },
  {
    "id": 3521070,
    "name": "Pueblo Nuevo",
    "lat": 17.15996,
    "lng": -92.899
  },
  {
    "id": 3515068,
    "name": "Ciudad Tula",
    "lat": 22.99679,
    "lng": -99.71187
  },
  {
    "id": 3818786,
    "name": "Guadalupe Victoria",
    "lat": 19.2911,
    "lng": -97.3429
  },
  {
    "id": 3993926,
    "name": "Pajacuarán",
    "lat": 20.11909,
    "lng": -102.56623
  },
  {
    "id": 3818008,
    "name": "Santiago Yancuitlalpan",
    "lat": 19.38404,
    "lng": -99.30471
  },
  {
    "id": 3519601,
    "name": "San Buenaventura",
    "lat": 19.26595,
    "lng": -99.67332
  },
  {
    "id": 3515946,
    "name": "Teocelo",
    "lat": 19.3856,
    "lng": -96.97371
  },
  {
    "id": 3514961,
    "name": "Tzucacab",
    "lat": 20.07237,
    "lng": -89.05022
  },
  {
    "id": 8858161,
    "name": "Valle Dorado Inn",
    "lat": 20.52444,
    "lng": -103.36194
  },
  {
    "id": 3522317,
    "name": "Oriental",
    "lat": 19.37614,
    "lng": -97.62051
  },
  {
    "id": 4018543,
    "name": "Anáhuac",
    "lat": 28.48396,
    "lng": -106.7472
  },
  {
    "id": 3532193,
    "name": "Boca del Rio",
    "lat": 19.10464,
    "lng": -96.10405
  },
  {
    "id": 3993126,
    "name": "Pedro Escobedo",
    "lat": 20.50232,
    "lng": -100.14469
  },
  {
    "id": 3979714,
    "name": "Villa Zaragoza",
    "lat": 22.03716,
    "lng": -100.73088
  },
  {
    "id": 3980168,
    "name": "Villa Hidalgo",
    "lat": 21.74185,
    "lng": -105.23096
  },
  {
    "id": 3761194,
    "name": "Miraflores",
    "lat": 19.2221,
    "lng": -98.80741
  },
  {
    "id": 4005856,
    "name": "General Zuazua",
    "lat": 25.89491,
    "lng": -100.108
  },
  {
    "id": 3526488,
    "name": "Jiquipilas",
    "lat": 16.66806,
    "lng": -93.64667
  },
  {
    "id": 3518439,
    "name": "San Marcos Tlacoyalco",
    "lat": 18.67388,
    "lng": -97.60354
  },
  {
    "id": 3983895,
    "name": "Santa Rosa",
    "lat": 25.82463,
    "lng": -100.22164
  },
  {
    "id": 8858162,
    "name": "Buenos Aires",
    "lat": 18.02444,
    "lng": -102.28583
  },
  {
    "id": 3519250,
    "name": "San Francisco Tetlanohcan",
    "lat": 19.2602,
    "lng": -98.1637
  },
  {
    "id": 4012344,
    "name": "Cuencamé de Ceniceros",
    "lat": 24.87116,
    "lng": -103.69731
  },
  {
    "id": 3531007,
    "name": "Chiautla",
    "lat": 19.54895,
    "lng": -98.88236
  },
  {
    "id": 3531221,
    "name": "Chahuite",
    "lat": 16.3,
    "lng": -94.18333
  },
  {
    "id": 3516072,
    "name": "Tekit",
    "lat": 20.53465,
    "lng": -89.33315
  },
  {
    "id": 3815359,
    "name": "Tetlanohcán",
    "lat": 19.2603,
    "lng": -98.16433
  },
  {
    "id": 11778440,
    "name": "Candelaria",
    "lat": 18.18574,
    "lng": -91.04534
  },
  {
    "id": 8858163,
    "name": "General Ángel Flores (La Palma)",
    "lat": 24.81917,
    "lng": -107.65667
  },
  {
    "id": 3521607,
    "name": "Petaquillas",
    "lat": 17.48636,
    "lng": -99.45633
  },
  {
    "id": 3529983,
    "name": "Santiago Cuautlalpan",
    "lat": 19.68417,
    "lng": -99.2887
  },
  {
    "id": 3986870,
    "name": "San Ignacio Cerro Gordo",
    "lat": 20.74322,
    "lng": -102.53658
  },
  {
    "id": 8858164,
    "name": "Brisas de Zicatela",
    "lat": 15.83694,
    "lng": -97.04194
  },
  {
    "id": 3529510,
    "name": "Ejutla de Crespo",
    "lat": 16.56623,
    "lng": -96.73123
  },
  {
    "id": 3514682,
    "name": "Ciudad Cuauhtémoc",
    "lat": 22.18439,
    "lng": -97.83472
  },
  {
    "id": 3515363,
    "name": "Tlatlauquitepec",
    "lat": 19.84765,
    "lng": -97.49718
  },
  {
    "id": 4006388,
    "name": "Etchojoa",
    "lat": 26.91065,
    "lng": -109.62549
  },
  {
    "id": 3518377,
    "name": "Mexicaltzingo",
    "lat": 19.2113,
    "lng": -99.58469
  },
  {
    "id": 3524580,
    "name": "Las Vigas de Ramírez",
    "lat": 19.63722,
    "lng": -97.09821
  },
  {
    "id": 3523416,
    "name": "Mazatecochco",
    "lat": 19.17865,
    "lng": -98.18677
  },
  {
    "id": 3802710,
    "name": "Parrilla",
    "lat": 17.91297,
    "lng": -92.91752
  },
  {
    "id": 3530492,
    "name": "Cocoyoc",
    "lat": 18.88417,
    "lng": -98.98194
  },
  {
    "id": 3515710,
    "name": "Texistepec",
    "lat": 17.89476,
    "lng": -94.81711
  },
  {
    "id": 3519396,
    "name": "San Fernando",
    "lat": 16.87131,
    "lng": -93.20699
  },
  {
    "id": 11371777,
    "name": "Tequisistlán Primero",
    "lat": 19.60002,
    "lng": -98.95689
  },
  {
    "id": 3824080,
    "name": "Zaragoza",
    "lat": 17.95783,
    "lng": -94.64231
  },
  {
    "id": 3985878,
    "name": "San Juan de la Vega",
    "lat": 20.62521,
    "lng": -100.76141
  },
  {
    "id": 3520877,
    "name": "Rafael Delgado",
    "lat": 18.81014,
    "lng": -97.07172
  },
  {
    "id": 3483063,
    "name": "Xicoténcatl",
    "lat": 22.99799,
    "lng": -98.94063
  },
  {
    "id": 3527768,
    "name": "Escuintla",
    "lat": 15.31944,
    "lng": -92.65833
  },
  {
    "id": 4015392,
    "name": "Carmen",
    "lat": 25.9365,
    "lng": -100.36396
  },
  {
    "id": 3516945,
    "name": "Santiago Juxtlahuaca",
    "lat": 17.33462,
    "lng": -98.01147
  },
  {
    "id": 3517649,
    "name": "Santa Catarina Yecahuizotl",
    "lat": 19.31205,
    "lng": -98.96461
  },
  {
    "id": 3520989,
    "name": "Puerto Madero",
    "lat": 14.72076,
    "lng": -92.42146
  },
  {
    "id": 4004850,
    "name": "Higuera de Zaragoza",
    "lat": 25.96861,
    "lng": -109.30219
  },
  {
    "id": 3526858,
    "name": "Huixquilucan de Degollado",
    "lat": 19.36028,
    "lng": -99.3498
  },
  {
    "id": 3982542,
    "name": "Tanhuato de Guerrero",
    "lat": 20.28552,
    "lng": -102.33113
  },
  {
    "id": 3994104,
    "name": "San José de Gracia",
    "lat": 19.98966,
    "lng": -103.02198
  },
  {
    "id": 3981469,
    "name": "Tlahualilo de Zaragoza",
    "lat": 26.10743,
    "lng": -103.44259
  },
  {
    "id": 3827262,
    "name": "San Felipe Tlalmimilolpan",
    "lat": 19.23934,
    "lng": -99.64215
  },
  {
    "id": 3514675,
    "name": "Villa Guerrero",
    "lat": 18.96211,
    "lng": -99.64061
  },
  {
    "id": 3533037,
    "name": "Almoloya del Río",
    "lat": 19.16046,
    "lng": -99.4874
  },
  {
    "id": 8858166,
    "name": "Jorge Jiménez Cantú",
    "lat": 19.30972,
    "lng": -98.84667
  },
  {
    "id": 4013130,
    "name": "Comala",
    "lat": 19.32717,
    "lng": -103.75926
  },
  {
    "id": 3527164,
    "name": "Halachó",
    "lat": 20.4777,
    "lng": -90.08104
  },
  {
    "id": 4001956,
    "name": "La Huacana",
    "lat": 18.96312,
    "lng": -101.8072
  },
  {
    "id": 3530494,
    "name": "Cocotitlán",
    "lat": 19.23336,
    "lng": -98.86596
  },
  {
    "id": 4018904,
    "name": "Álamos",
    "lat": 27.0299,
    "lng": -108.93924
  },
  {
    "id": 3981462,
    "name": "Tlapehuala",
    "lat": 18.24101,
    "lng": -100.5379
  },
  {
    "id": 4014109,
    "name": "Choix",
    "lat": 26.70901,
    "lng": -108.32545
  },
  {
    "id": 3514044,
    "name": "Villa Zempoala",
    "lat": 19.44422,
    "lng": -96.40773
  },
  {
    "id": 3522836,
    "name": "Naolinco de Victoria",
    "lat": 19.65474,
    "lng": -96.8732
  },
  {
    "id": 3523756,
    "name": "Magdalena Cuayucatepec",
    "lat": 18.54972,
    "lng": -97.48472
  },
  {
    "id": 3816251,
    "name": "Altamirano",
    "lat": 16.73369,
    "lng": -92.03882
  },
  {
    "id": 3982217,
    "name": "Tecolotlán",
    "lat": 20.20144,
    "lng": -104.04834
  },
  {
    "id": 3517293,
    "name": "Santa María Ajoloapan",
    "lat": 19.97694,
    "lng": -99.04472
  },
  {
    "id": 4017144,
    "name": "Bermejillo",
    "lat": 25.88848,
    "lng": -103.62139
  },
  {
    "id": 3516168,
    "name": "Tekoh",
    "lat": 20.74361,
    "lng": -89.47406
  },
  {
    "id": 4003810,
    "name": "Juanacatlán",
    "lat": 20.50873,
    "lng": -103.16761
  },
  {
    "id": 3532909,
    "name": "Amatlán de los Reyes",
    "lat": 18.84658,
    "lng": -96.91595
  },
  {
    "id": 3980843,
    "name": "Tuxpan",
    "lat": 19.56788,
    "lng": -100.46189
  },
  {
    "id": 3519622,
    "name": "Amaxac de Guerrero",
    "lat": 19.34661,
    "lng": -98.17057
  },
  {
    "id": 3991170,
    "name": "Queréndaro",
    "lat": 19.80954,
    "lng": -100.8906
  },
  {
    "id": 3526606,
    "name": "Ex-hacienda de Xalpa",
    "lat": 19.8215,
    "lng": -99.18275
  },
  {
    "id": 3992996,
    "name": "La Peñita de Jaltomba",
    "lat": 21.03884,
    "lng": -105.24792
  },