[
  {
    "id": 1040652,
    "name": "Maputo",
    "lat": -25.96553,
    "lng": 32.58322
  },
  {
    "id": 1039854,
    "name": "Matola",
    "lat": -25.96222,
    "lng": 32.45889
  },
  {
    "id": 1033356,
    "name": "Nampula",
    "lat": -15.11646,
    "lng": 39.2666
  },
  {
    "id": 1052373,
    "name": "Beira",
    "lat": -19.84361,
    "lng": 34.83889
  },
  {
    "id": 1049261,
    "name": "Chimoio",
    "lat": -19.11639,
    "lng": 33.48333
  },
  {
    "id": 1026014,
    "name": "Tete",
    "lat": -16.15639,
    "lng": 33.58667
  },
  {
    "id": 1028434,
    "name": "Quelimane",
    "lat": -17.87861,
    "lng": 36.88833
  },
  {
    "id": 1043893,
    "name": "Lichinga",
    "lat": -13.31278,
    "lng": 35.24056
  },
  {
    "id": 1035025,
    "name": "Nacala",
    "lat": -14.56257,
    "lng": 40.68538
  },
  {
    "id": 1028918,
    "name": "Pemba",
    "lat": -12.97395,
    "lng": 40.51775
  },
  {
    "id": 1024694,
    "name": "Mocuba",
    "lat": -16.8375,
    "lng": 36.98556
  },
  {
    "id": 1045512,
    "name": "Gurúè",
    "lat": -15.46694,
    "lng": 36.97778
  },
  {
    "id": 1024552,
    "name": "Xai-Xai",
    "lat": -25.05194,
    "lng": 33.64417
  },
  {
    "id": 1039536,
    "name": "Maxixe",
    "lat": -23.85972,
    "lng": 35.34722
  },
  {
    "id": 1041190,
    "name": "Mandimba",
    "lat": -14.3525,
    "lng": 35.65056
  },
  {
    "id": 1028079,
    "name": "Ressano Garcia",
    "lat": -25.44278,
    "lng": 31.99528
  },
  {
    "id": 1052944,
    "name": "Angoche",
    "lat": -16.2325,
    "lng": 39.90861
  },
  {
    "id": 1045114,
    "name": "Inhambane",
    "lat": -23.865,
    "lng": 35.38333
  },
  {
    "id": 1047660,
    "name": "Cuamba",
    "lat": -14.80306,
    "lng": 36.53722
  },
  {
    "id": 1037125,
    "name": "Montepuez",
    "lat": -13.12556,
    "lng": 38.99972
  },
  {
    "id": 1024696,
    "name": "Dondo",
    "lat": -19.60944,
    "lng": 34.74306
  },
  {
    "id": 1049861,
    "name": "Chibuto",
    "lat": -24.68667,
    "lng": 33.53056
  },
  {
    "id": 1040989,
    "name": "Manhiça",
    "lat": -25.40222,
    "lng": 32.80722
  },
  {
    "id": 1048364,
    "name": "Chokwé",
    "lat": -24.53333,
    "lng": 32.98333
  },
  {
    "id": 1037390,
    "name": "Mozambique",
    "lat": -15.03466,
    "lng": 40.73447
  },
  {
    "id": 1033827,
    "name": "Nametil",
    "lat": -15.72028,
    "lng": 39.3425
  },
  {
    "id": 1037180,
    "name": "Monapo",
    "lat": -14.91694,
    "lng": 40.30222
  },
  {
    "id": 1053143,
    "name": "Alto Molocue",
    "lat": -15.63556,
    "lng": 37.68833
  },
  {
    "id": 1040397,
    "name": "Marromeu",
    "lat": -18.29083,
    "lng": 35.94528
  },
  {
    "id": 1024699,
    "name": "Mocímboa da Praia",
    "lat": -11.35172,
    "lng": 40.35158
  },
  {
    "id": 1024685,
    "name": "Moatize",
    "lat": -16.11528,
    "lng": 33.72944
  },
  {
    "id": 1024683,
    "name": "Vilankulo",
    "lat": -22.0,
    "lng": 35.31667
  },
  {
    "id": 1040950,
    "name": "Manica",
    "lat": -18.93444,
    "lng": 32.87556
  },
  {
    "id": 1045826,
    "name": "Gondola",
    "lat": -19.08833,
    "lng": 33.64861
  },
  {
    "id": 1048468,
    "name": "Chiúre",
    "lat": -13.3825,
    "lng": 39.78167
  },
  {
    "id": 1033797,
    "name": "Namialo",
    "lat": -14.92056,
    "lng": 39.98361
  },
  {
    "id": 1037721,
    "name": "Milange",
    "lat": -16.09861,
    "lng": 35.77
  },
  {
    "id": 1088155,
    "name": "Mutuáli",
    "lat": -14.87056,
    "lng": 37.00444
  },
  {
    "id": 1024701,
    "name": "Macia",
    "lat": -25.02694,
    "lng": 33.09889
  },
  {
    "id": 1026755,
    "name": "Songo",
    "lat": -15.59583,
    "lng": 32.76472
  },
  {
    "id": 12718698,
    "name": "Ribáuè",
    "lat": -14.94473,
    "lng": 38.32362
  },
  {
    "id": 1024687,
    "name": "Nhamatanda",
    "lat": -19.26917,
    "lng": 34.21278
  },
  {
    "id": 1037792,
    "name": "Micolene",
    "lat": -16.73333,
    "lng": 39.23333
  },
  {
    "id": 1037370,
    "name": "Mocímboa",
    "lat": -11.31667,
    "lng": 40.35
  },
  {
    "id": 1052191,
    "name": "Boane",
    "lat": -26.04236,
    "lng": 32.33027
  },
  {
    "id": 1036263,
    "name": "Mueda",
    "lat": -11.66278,
    "lng": 39.55056
  },
  {
    "id": 11205324,
    "name": "Namapa-erati",
    "lat": -13.71302,
    "lng": 39.83151
  },
  {
    "id": 1050871,
    "name": "Catandica",
    "lat": -18.0575,
    "lng": 33.17361
  },
  {
    "id": 1040201,
    "name": "Massinga",
    "lat": -23.32917,
    "lng": 35.38139
  },
  {
    "id": 1037021,
    "name": "Mossuril",
    "lat": -14.96778,
    "lng": 40.66389
  },
  {
    "id": 1037044,
    "name": "Morrumbala",
    "lat": -17.32694,
    "lng": 35.58417
  },
  {
    "id": 12718700,
    "name": "Xilembene",
    "lat": -24.68941,
    "lng": 33.25844
  },
  {
    "id": 12718696,
    "name": "Malema",
    "lat": -14.94747,
    "lng": 37.41591
  },
  {
    "id": 1042456,
    "name": "Macomia",
    "lat": -12.24667,
    "lng": 40.12083
  },
  {
    "id": 1034311,
    "name": "Namacurra",
    "lat": -17.49194,
    "lng": 37.02889
  },
  {
    "id": 1024680,
    "name": "Gorongosa",
    "lat": -18.67556,
    "lng": 34.07278
  },
  {
    "id": 1024692,
    "name": "Caia",
    "lat": -17.82028,
    "lng": 35.34417
  },
  {
    "id": 1091197,
    "name": "Iapala",
    "lat": -15.025,
    "lng": 38.0425
  },
  {
    "id": 1035471,
    "name": "Murrupula",
    "lat": -15.45694,
    "lng": 38.67722
  },
  {
    "id": 1024703,
    "name": "Maganja",
    "lat": -17.31197,
    "lng": 37.50784
  },
  {
    "id": 1024697,
    "name": "Chinde",
    "lat": -18.58111,
    "lng": 36.45861
  },
  {
    "id": 1028970,
    "name": "Pebane",
    "lat": -17.26417,
    "lng": 38.135
  },
  {
    "id": 12718693,
    "name": "Búzi",
    "lat": -19.86439,
    "lng": 34.46735
  },
  {
    "id": 1095961,
    "name": "Machipanda",
    "lat": -18.98604,
    "lng": 32.73553
  },
  {
    "id": 12718697,
    "name": "Messica",
    "lat": -18.99161,
    "lng": 33.08226
  },
  {
    "id": 1025104,
    "name": "Ulongué",
    "lat": -14.72278,
    "lng": 34.36083
  }
]