[
  {
    "id": 3617763,
    "name": "Managua",
    "lat": 12.13282,
    "lng": -86.2504
  },
  {
    "id": 3618030,
    "name": "León",
    "lat": 12.43527,
    "lng": -86.87862
  },
  {
    "id": 3617723,
    "name": "Masaya",
    "lat": 11.97316,
    "lng": -86.09587
  },
  {
    "id": 3620381,
    "name": "Chinandega",
    "lat": 12.62951,
    "lng": -87.13133
  },
  {
    "id": 3617708,
    "name": "Matagalpa",
    "lat": 12.92795,
    "lng": -85.91906
  },
  {
    "id": 3619194,
    "name": "Estelí",
    "lat": 13.09291,
    "lng": -86.35589
  },
  {
    "id": 3619136,
    "name": "Granada",
    "lat": 11.93062,
    "lng": -85.95368
  },
  {
    "id": 3617697,
    "name": "Mateare",
    "lat": 12.23512,
    "lng": -86.42809
  },
  {
    "id": 3618929,
    "name": "Jinotega",
    "lat": 13.09103,
    "lng": -86.00234
  },
  {
    "id": 3619267,
    "name": "El Viejo",
    "lat": 12.66348,
    "lng": -87.16663
  },
  {
    "id": 3617459,
    "name": "Nueva Guinea",
    "lat": 11.68758,
    "lng": -84.45616
  },
  {
    "id": 3828262,
    "name": "Ciudad Sandino",
    "lat": 12.15889,
    "lng": -86.34417
  },
  {
    "id": 3618908,
    "name": "Juigalpa",
    "lat": 12.10591,
    "lng": -85.36549
  },
  {
    "id": 3616035,
    "name": "Tipitapa",
    "lat": 12.19732,
    "lng": -86.09706
  },
  {
    "id": 3620680,
    "name": "Bluefields",
    "lat": 12.01292,
    "lng": -83.76449
  },
  {
    "id": 3620170,
    "name": "Diriamba",
    "lat": 11.85812,
    "lng": -86.23922
  },
  {
    "id": 3617448,
    "name": "Ocotal",
    "lat": 13.63222,
    "lng": -86.47399
  },
  {
    "id": 3617154,
    "name": "Puerto Cabezas",
    "lat": 14.03507,
    "lng": -83.38882
  },
  {
    "id": 3620390,
    "name": "Chichigalpa",
    "lat": 12.57758,
    "lng": -87.02705
  },
  {
    "id": 3617052,
    "name": "Rivas",
    "lat": 11.43977,
    "lng": -85.82749
  },
  {
    "id": 3616594,
    "name": "San Rafael del Sur",
    "lat": 11.84854,
    "lng": -86.43839
  },
  {
    "id": 3618926,
    "name": "Jinotepe",
    "lat": 11.84828,
    "lng": -86.19916
  },
  {
    "id": 3620674,
    "name": "Boaco",
    "lat": 12.47255,
    "lng": -85.65956
  },
  {
    "id": 3617522,
    "name": "Nagarote",
    "lat": 12.26593,
    "lng": -86.56474
  },
  {
    "id": 3618954,
    "name": "Jalapa",
    "lat": 13.92221,
    "lng": -86.12346
  },
  {
    "id": 3618411,
    "name": "La Paz Centro",
    "lat": 12.34,
    "lng": -86.67528
  },
  {
    "id": 3616682,
    "name": "San Marcos",
    "lat": 11.90949,
    "lng": -86.20351
  },
  {
    "id": 3617725,
    "name": "Masatepe",
    "lat": 11.91445,
    "lng": -86.14458
  },
  {
    "id": 3617513,
    "name": "Nandaime",
    "lat": 11.75696,
    "lng": -86.05286
  },
  {
    "id": 3617095,
    "name": "Rama",
    "lat": 12.15965,
    "lng": -84.21952
  },
  {
    "id": 3616232,
    "name": "Somoto",
    "lat": 13.4841,
    "lng": -86.58229
  },
  {
    "id": 3620269,
    "name": "Corinto",
    "lat": 12.4825,
    "lng": -87.17304
  },
  {
    "id": 3617069,
    "name": "Río Blanco",
    "lat": 12.93435,
    "lng": -85.22354
  },
  {
    "id": 3620544,
    "name": "Camoapa",
    "lat": 12.38383,
    "lng": -85.51277
  },
  {
    "id": 3619853,
    "name": "El Crucero",
    "lat": 11.99008,
    "lng": -86.30954
  },
  {
    "id": 3616253,
    "name": "Siuna",
    "lat": 13.73321,
    "lng": -84.77725
  },
  {
    "id": 3616234,
    "name": "Somotillo",
    "lat": 13.04387,
    "lng": -86.90506
  },
  {
    "id": 3616349,
    "name": "Santo Tomás",
    "lat": 12.06938,
    "lng": -85.09059
  },
  {
    "id": 3617109,
    "name": "Quilalí",
    "lat": 13.56695,
    "lng": -86.026
  },
  {
    "id": 3616911,
    "name": "San Carlos",
    "lat": 11.12711,
    "lng": -84.77794
  },
  {
    "id": 3620350,
    "name": "Ciudad Darío",
    "lat": 12.73143,
    "lng": -86.12402
  },
  {
    "id": 3616064,
    "name": "Ticuantepe",
    "lat": 12.02263,
    "lng": -86.20493
  },
  {
    "id": 3619382,
    "name": "El Sauce",
    "lat": 12.88687,
    "lng": -86.53903
  },
  {
    "id": 3620298,
    "name": "Condega",
    "lat": 13.36502,
    "lng": -86.39846
  },
  {
    "id": 3620978,
    "name": "Acoyapa",
    "lat": 11.97028,
    "lng": -85.17113
  },
  {
    "id": 3617694,
    "name": "Matiguás",
    "lat": 12.83734,
    "lng": -85.46218
  },
  {
    "id": 3620168,
    "name": "Diriomo",
    "lat": 11.87631,
    "lng": -86.05184
  },
  {
    "id": 3616092,
    "name": "Telica",
    "lat": 12.522,
    "lng": -86.85938
  },
  {
    "id": 3616708,
    "name": "San Lorenzo",
    "lat": 12.3783,
    "lng": -85.66646
  },
  {
    "id": 3620266,
    "name": "Great Corn Island",
    "lat": 12.17575,
    "lng": -83.06145
  },
  {
    "id": 3620661,
    "name": "Bocana de Paiwas",
    "lat": 12.78571,
    "lng": -85.12269
  },
  {
    "id": 7701408,
    "name": "Las Praderas",
    "lat": 13.17,
    "lng": -85.85
  },
  {
    "id": 3615813,
    "name": "Villa Sandino",
    "lat": 12.0483,
    "lng": -84.99362
  },
  {
    "id": 3616726,
    "name": "San Juan del Sur",
    "lat": 11.25292,
    "lng": -85.87049
  },
  {
    "id": 3617470,
    "name": "Niquinohomo",
    "lat": 11.90518,
    "lng": -86.09446
  },
  {
    "id": 3618336,
    "name": "Larreynaga",
    "lat": 12.67692,
    "lng": -86.57193
  },
  {
    "id": 3617146,
    "name": "Puerto Morazán",
    "lat": 12.85042,
    "lng": -87.17167
  },
  {
    "id": 3616794,
    "name": "San Jorge",
    "lat": 11.45584,
    "lng": -85.80308
  },
  {
    "id": 3617473,
    "name": "Nindirí",
    "lat": 12.00386,
    "lng": -86.12128
  },
  {
    "id": 3620163,
    "name": "Dolores",
    "lat": 11.85672,
    "lng": -86.21552
  },
  {
    "id": 3615683,
    "name": "Wiwilí",
    "lat": 13.62679,
    "lng": -85.8254
  },
  {
    "id": 3618648,
    "name": "La Concepción",
    "lat": 11.93711,
    "lng": -86.18976
  },
  {
    "id": 3617510,
    "name": "Nandasmo",
    "lat": 11.92411,
    "lng": -86.12072
  },
  {
    "id": 3618522,
    "name": "Pearl City",
    "lat": 12.34294,
    "lng": -83.67123
  },
  {
    "id": 3615745,
    "name": "Waslala",
    "lat": 13.23333,
    "lng": -85.38333
  },
  {
    "id": 3617191,
    "name": "Posoltega",
    "lat": 12.54422,
    "lng": -86.97982
  },
  {
    "id": 3615730,
    "name": "Waspán",
    "lat": 14.74189,
    "lng": -83.9717
  },
  {
    "id": 3620645,
    "name": "Bonanza",
    "lat": 14.02885,
    "lng": -84.59103
  },
  {
    "id": 3619451,
    "name": "El Realejo",
    "lat": 12.54333,
    "lng": -87.16517
  },
  {
    "id": 3616356,
    "name": "Santo Domingo",
    "lat": 12.26438,
    "lng": -85.08235
  },
  {
    "id": 3616381,
    "name": "Santa Teresa",
    "lat": 11.74321,
    "lng": -86.21413
  },
  {
    "id": 3616597,
    "name": "San Rafael del Norte",
    "lat": 13.21248,
    "lng": -86.11089
  },
  {
    "id": 3620734,
    "name": "Belén",
    "lat": 11.50299,
    "lng": -85.88935
  },
  {
    "id": 3620084,
    "name": "El Ayote",
    "lat": 12.19046,
    "lng": -85.28737
  },
  {
    "id": 3617187,
    "name": "Potosí",
    "lat": 11.49416,
    "lng": -85.8568
  },
  {
    "id": 3620473,
    "name": "Villa El Carmen",
    "lat": 11.98009,
    "lng": -86.50571
  },
  {
    "id": 3616028,
    "name": "Tisma",
    "lat": 12.08194,
    "lng": -86.01739
  },
  {
    "id": 3617730,
    "name": "Masachapa",
    "lat": 11.78687,
    "lng": -86.51416
  },
  {
    "id": 3616732,
    "name": "San Juan de Limay",
    "lat": 13.17603,
    "lng": -86.61234
  },
  {
    "id": 3617532,
    "name": "Muy Muy",
    "lat": 12.76224,
    "lng": -85.62915
  },
  {
    "id": 3617162,
    "name": "Pueblo Nuevo",
    "lat": 13.37984,
    "lng": -86.48075
  },
  {
    "id": 3616572,
    "name": "San Sebastián de Yalí",
    "lat": 13.3054,
    "lng": -86.18641
  },
  {
    "id": 3616070,
    "name": "Teustepe",
    "lat": 12.4203,
    "lng": -85.79798
  },
  {
    "id": 3616659,
    "name": "San Miguelito",
    "lat": 11.40255,
    "lng": -84.89991
  },
  {
    "id": 3618924,
    "name": "Jiquilillo",
    "lat": 12.74593,
    "lng": -87.4516
  },
  {
    "id": 3617569,
    "name": "Moyogalpa",
    "lat": 11.54006,
    "lng": -85.69795
  },
  {
    "id": 3616888,
    "name": "San Dionisio",
    "lat": 12.76023,
    "lng": -85.85018
  },
  {
    "id": 3620172,
    "name": "Diriá",
    "lat": 11.8842,
    "lng": -86.05508
  },
  {
    "id": 3616871,
    "name": "San Fernando",
    "lat": 13.67755,
    "lng": -86.31486
  },
  {
    "id": 3616721,
    "name": "San Juan de Río Coco",
    "lat": 13.54476,
    "lng": -86.16499
  },
  {
    "id": 3617388,
    "name": "Palacagüina",
    "lat": 13.45566,
    "lng": -86.40622
  },
  {
    "id": 3617562,
    "name": "Muelle de los Bueyes",
    "lat": 12.06999,
    "lng": -84.53503
  },
  {
    "id": 3620982,
    "name": "Achuapa",
    "lat": 13.0537,
    "lng": -86.59004
  },
  {
    "id": 3618482,
    "name": "La Libertad",
    "lat": 12.21635,
    "lng": -85.16595
  },
  {
    "id": 3619420,
    "name": "El Rosario",
    "lat": 11.77756,
    "lng": -86.37374
  },
  {
    "id": 3616387,
    "name": "Santa Rosa del Peñón",
    "lat": 12.80116,
    "lng": -86.36994
  },
  {
    "id": 3616584,
    "name": "San Ramón",
    "lat": 12.92344,
    "lng": -85.83898
  },
  {
    "id": 3620930,
    "name": "Altagracia",
    "lat": 11.56615,
    "lng": -85.5784
  },
  {
    "id": 3620106,
    "name": "El Almendro",
    "lat": 11.67859,
    "lng": -84.70269
  },
  {
    "id": 3616019,
    "name": "Tola",
    "lat": 11.43927,
    "lng": -85.93891
  },
  {
    "id": 3618410,
    "name": "La Paz de Carazo",
    "lat": 11.82311,
    "lng": -86.12781
  },
  {
    "id": 3620243,
    "name": "Cuapa",
    "lat": 12.26875,
    "lng": -85.38205
  },
  {
    "id": 3616759,
    "name": "San José de Bocay",
    "lat": 13.54204,
    "lng": -85.53942
  },
  {
    "id": 3617565,
    "name": "Mozonte",
    "lat": 13.66034,
    "lng": -86.43841
  },
  {
    "id": 3620441,
    "name": "Catarina",
    "lat": 11.91197,
    "lng": -86.07383
  },
  {
    "id": 3615998,
    "name": "Totogalpa",
    "lat": 13.56284,
    "lng": -86.49254
  },
  {
    "id": 3615669,
    "name": "Yalagüina",
    "lat": 13.48383,
    "lng": -86.49305
  },
  {
    "id": 3618637,
    "name": "La Concordia",
    "lat": 13.19528,
    "lng": -86.16659
  },
  {
    "id": 3615865,
    "name": "Valle San Francisco",
    "lat": 12.51667,
    "lng": -86.28333
  },
  {
    "id": 3616753,
    "name": "San José de los Remates",
    "lat": 12.5975,
    "lng": -85.76174
  },
  {
    "id": 3616723,
    "name": "San Juan de Oriente",
    "lat": 11.90624,
    "lng": -86.07343
  },
  {
    "id": 3616088,
    "name": "Telpaneca",
    "lat": 13.53151,
    "lng": -86.2871
  },
  {
    "id": 3617115,
    "name": "Quezalguaque",
    "lat": 12.50683,
    "lng": -86.90292
  },
  {
    "id": 3616076,
    "name": "Terrabona",
    "lat": 12.73028,
    "lng": -85.96474
  },
  {
    "id": 3616459,
    "name": "Santa Lucía",
    "lat": 12.53262,
    "lng": -85.71074
  },
  {
    "id": 3620353,
    "name": "Ciudad Antigua",
    "lat": 13.6406,
    "lng": -86.30815
  },
  {
    "id": 3620603,
    "name": "Buenos Aires",
    "lat": 11.46916,
    "lng": -85.81661
  },
  {
    "id": 3618618,
    "name": "La Cruz de Río Grande",
    "lat": 13.1129,
    "lng": -84.18588
  },
  {
    "id": 3615899,
    "name": "LLano de La Cruz",
    "lat": 13.12449,
    "lng": -86.00833
  },
  {
    "id": 3619695,
    "name": "El Jicaral",
    "lat": 12.72676,
    "lng": -86.38057
  },
  {
    "id": 3616757,
    "name": "San José de Cusmapa",
    "lat": 13.28841,
    "lng": -86.65539
  },
  {
    "id": 3617575,
    "name": "Morrito",
    "lat": 11.62118,
    "lng": -85.08052
  },
  {
    "id": 3617457,
    "name": "El Tortuguero",
    "lat": 12.82247,
    "lng": -84.19629
  },
  {
    "id": 3620318,
    "name": "Comalapa",
    "lat": 12.28345,
    "lng": -85.51081
  },
  {
    "id": 3618124,
    "name": "Las Sabanas",
    "lat": 13.34302,
    "lng": -86.62184
  },
  {
    "id": 3620479,
    "name": "Cárdenas",
    "lat": 11.19639,
    "lng": -85.5089
  },
  {
    "id": 3617543,
    "name": "Murra",
    "lat": 13.7585,
    "lng": -86.01843
  },
  {
    "id": 3618635,
    "name": "La Conquista",
    "lat": 11.73426,
    "lng": -86.19279
  },
  {
    "id": 3616700,
    "name": "San Lucas",
    "lat": 13.4138,
    "lng": -86.6111
  },
  {
    "id": 3616859,
    "name": "San Francisco",
    "lat": 12.82613,
    "lng": -87.44557
  },
  {
    "id": 3620358,
    "name": "Cinco Pinos",
    "lat": 13.22956,
    "lng": -86.86808
  },
  {
    "id": 3619954,
    "name": "El Castillo de La Concepción",
    "lat": 11.01844,
    "lng": -84.39811
  },
  {
    "id": 3616441,
    "name": "Santa María",
    "lat": 13.74665,
    "lng": -86.70934
  },
  {
    "id": 3616730,
    "name": "Grey Town",
    "lat": 10.94684,
    "lng": -83.73467
  },
  {
    "id": 3616346,
    "name": "Santo Tomás del Norte",
    "lat": 13.1861,
    "lng": -86.92267
  }
]