[
  {
    "id": 281133,
    "name": "Gaza",
    "lat": 31.50161,
    "lng": 34.46672
  },
  {
    "id": 281124,
    "name": "Khān Yūnis",
    "lat": 31.34018,
    "lng": 34.30627
  },
  {
    "id": 281129,
    "name": "Jabālyā",
    "lat": 31.5272,
    "lng": 34.48347
  },
  {
    "id": 285066,
    "name": "Hebron",
    "lat": 31.52935,
    "lng": 35.0938
  },
  {
    "id": 282615,
    "name": "Nablus",
    "lat": 32.22111,
    "lng": 35.25444
  },
  {
    "id": 281102,
    "name": "Rafaḩ",
    "lat": 31.29722,
    "lng": 34.24357
  },
  {
    "id": 281141,
    "name": "Dayr al Balaḩ",
    "lat": 31.41834,
    "lng": 34.34933
  },
  {
    "id": 281145,
    "name": "Bayt Lāhyā",
    "lat": 31.5464,
    "lng": 34.49514
  },
  {
    "id": 281577,
    "name": "Ţūlkarm",
    "lat": 32.31156,
    "lng": 35.0269
  },
  {
    "id": 282239,
    "name": "Ramallah",
    "lat": 31.89964,
    "lng": 35.20422
  },
  {
    "id": 282457,
    "name": "Qalqīlyah",
    "lat": 32.18966,
    "lng": 34.97063
  },
  {
    "id": 281292,
    "name": "Yaţţā",
    "lat": 31.4459,
    "lng": 35.09443
  },
  {
    "id": 285108,
    "name": "Al Bīrah",
    "lat": 31.91001,
    "lng": 35.21645
  },
  {
    "id": 281146,
    "name": "Bayt Ḩānūn",
    "lat": 31.5353,
    "lng": 34.53579
  },
  {
    "id": 281109,
    "name": "An Nuşayrāt",
    "lat": 31.44861,
    "lng": 34.3925
  },
  {
    "id": 281161,
    "name": "Al Burayj",
    "lat": 31.43944,
    "lng": 34.40306
  },
  {
    "id": 283506,
    "name": "Janīn",
    "lat": 32.45943,
    "lng": 35.30086
  },
  {
    "id": 281148,
    "name": "Banī Suhaylā",
    "lat": 31.34337,
    "lng": 34.32337
  },
  {
    "id": 284315,
    "name": "Bethlehem",
    "lat": 31.70487,
    "lng": 35.20376
  },
  {
    "id": 284486,
    "name": "Az̧ Z̧āhirīyah",
    "lat": 31.40967,
    "lng": 34.97329
  },
  {
    "id": 284335,
    "name": "Bayt Ḩanīnā",
    "lat": 31.82999,
    "lng": 35.22539
  },
  {
    "id": 284572,
    "name": "‘Aţārūt",
    "lat": 31.86667,
    "lng": 35.21667
  },
  {
    "id": 281715,
    "name": "Surif City",
    "lat": 31.65078,
    "lng": 35.06439
  },
  {
    "id": 284890,
    "name": "Ar Rām wa Ḑāḩiyat al Barīd",
    "lat": 31.84945,
    "lng": 35.2342
  },
  {
    "id": 283806,
    "name": "Ḩalḩūl",
    "lat": 31.58029,
    "lng": 35.10178
  },
  {
    "id": 284011,
    "name": "Dūrā",
    "lat": 31.50777,
    "lng": 35.02929
  },
  {
    "id": 284899,
    "name": "Jericho",
    "lat": 31.86667,
    "lng": 35.45
  },
  {
    "id": 284431,
    "name": "Banī Na‘īm",
    "lat": 31.51591,
    "lng": 35.16416
  },
  {
    "id": 6967865,
    "name": "Al Qarārah",
    "lat": 31.37389,
    "lng": 34.34085
  },
  {
    "id": 284583,
    "name": "As Samū‘",
    "lat": 31.39671,
    "lng": 35.06611
  },
  {
    "id": 282476,
    "name": "Qabāţīyah",
    "lat": 32.41035,
    "lng": 35.28087
  },
  {
    "id": 283621,
    "name": "Idhnā",
    "lat": 31.55874,
    "lng": 34.97436
  },
  {
    "id": 281165,
    "name": "‘Abasān al Kabīrah",
    "lat": 31.31913,
    "lng": 34.34005
  },
  {
    "id": 281793,
    "name": "Sa‘īr",
    "lat": 31.57855,
    "lng": 35.14017
  },
  {
    "id": 285111,
    "name": "Al ‘Ayzarīyah",
    "lat": 31.77078,
    "lng": 35.26917
  },
  {
    "id": 284446,
    "name": "Balāţah",
    "lat": 32.21207,
    "lng": 35.28561
  },
  {
    "id": 6967990,
    "name": "Az Zuwāydah",
    "lat": 31.43954,
    "lng": 34.38053
  },
  {
    "id": 284324,
    "name": "Bayt Jālā",
    "lat": 31.71545,
    "lng": 35.18788
  },
  {
    "id": 284999,
    "name": "Al Yāmūn",
    "lat": 32.48563,
    "lng": 35.23011
  },
  {
    "id": 281581,
    "name": "Ţūbās",
    "lat": 32.32091,
    "lng": 35.36989
  }
]