[
  {
    "id": 3439389,
    "name": "Asunción",
    "lat": -25.28646,
    "lng": -57.647
  },
  {
    "id": 3439101,
    "name": "Ciudad del Este",
    "lat": -25.5036,
    "lng": -54.65067
  },
  {
    "id": 3437056,
    "name": "San Lorenzo",
    "lat": -25.33968,
    "lng": -57.50879
  },
  {
    "id": 3439214,
    "name": "Capiatá",
    "lat": -25.3552,
    "lng": -57.44545
  },
  {
    "id": 3437863,
    "name": "Lambaré",
    "lat": -25.34682,
    "lng": -57.60647
  },
  {
    "id": 3438115,
    "name": "Fernando de la Mora",
    "lat": -25.3386,
    "lng": -57.52167
  },
  {
    "id": 3437842,
    "name": "Limpio",
    "lat": -25.16611,
    "lng": -57.48562
  },
  {
    "id": 3437665,
    "name": "Nemby",
    "lat": -25.3949,
    "lng": -57.53574
  },
  {
    "id": 3437547,
    "name": "Pedro Juan Caballero",
    "lat": -22.54925,
    "lng": -55.7387
  },
  {
    "id": 3438735,
    "name": "Encarnación",
    "lat": -27.33176,
    "lng": -55.86662
  },
  {
    "id": 3438995,
    "name": "Mariano Roque Alonso",
    "lat": -25.20791,
    "lng": -57.53202
  },
  {
    "id": 3437918,
    "name": "Itauguá",
    "lat": -25.39258,
    "lng": -57.35421
  },
  {
    "id": 3436728,
    "name": "Villa Elisa",
    "lat": -25.3676,
    "lng": -57.59274
  },
  {
    "id": 3436725,
    "name": "Villa Hayes",
    "lat": -25.093,
    "lng": -57.52725
  },
  {
    "id": 3439320,
    "name": "Caacupé",
    "lat": -25.38575,
    "lng": -57.14217
  },
  {
    "id": 3437127,
    "name": "San Antonio",
    "lat": -25.42126,
    "lng": -57.54725
  },
  {
    "id": 3439317,
    "name": "Caaguazú",
    "lat": -25.47104,
    "lng": -56.01603
  },
  {
    "id": 3437444,
    "name": "Presidente Franco",
    "lat": -25.56384,
    "lng": -54.61097
  },
  {
    "id": 3438819,
    "name": "Coronel Oviedo",
    "lat": -25.44613,
    "lng": -56.43928
  },
  {
    "id": 3438834,
    "name": "Concepción",
    "lat": -23.39985,
    "lng": -57.43236
  },
  {
    "id": 3436714,
    "name": "Villarrica",
    "lat": -25.74946,
    "lng": -56.43518
  },
  {
    "id": 3437526,
    "name": "Pilar",
    "lat": -26.85874,
    "lng": -58.30639
  },
  {
    "id": 3436622,
    "name": "Yby Yaú",
    "lat": -22.96611,
    "lng": -56.54066
  },
  {
    "id": 3439297,
    "name": "Caazapá",
    "lat": -26.1966,
    "lng": -56.36786
  },
  {
    "id": 3867291,
    "name": "Filadelfia",
    "lat": -22.33936,
    "lng": -60.03157
  },
  {
    "id": 3437954,
    "name": "Itá",
    "lat": -25.50054,
    "lng": -57.36717
  },
  {
    "id": 3437063,
    "name": "San Juan Bautista",
    "lat": -26.67028,
    "lng": -57.14073
  },
  {
    "id": 11205611,
    "name": "Nueva Esperanza",
    "lat": -24.5076,
    "lng": -54.8551
  },
  {
    "id": 3439378,
    "name": "Ayolas",
    "lat": -27.38421,
    "lng": -56.83953
  },
  {
    "id": 3436968,
    "name": "Santa Rita",
    "lat": -25.79632,
    "lng": -55.08847
  },
  {
    "id": 3439032,
    "name": "Colonia General Alfredo Stroessner",
    "lat": -25.36395,
    "lng": -55.7069
  },
  {
    "id": 3437021,
    "name": "San Pedro de Ycuamandyyú",
    "lat": -24.08534,
    "lng": -57.08745
  },
  {
    "id": 3439403,
    "name": "Areguá",
    "lat": -25.31239,
    "lng": -57.38495
  },
  {
    "id": 3437088,
    "name": "San Isidro de Curuguaty",
    "lat": -24.47184,
    "lng": -55.69227
  },
  {
    "id": 3480780,
    "name": "Horqueta",
    "lat": -23.34323,
    "lng": -57.05212
  },
  {
    "id": 3437846,
    "name": "Lima",
    "lat": -23.88496,
    "lng": -56.47891
  },
  {
    "id": 3437495,
    "name": "Piribebuy",
    "lat": -25.46498,
    "lng": -57.04183
  },
  {
    "id": 3437600,
    "name": "Paraguarí",
    "lat": -25.62075,
    "lng": -57.14724
  },
  {
    "id": 3436812,
    "name": "Tobatí",
    "lat": -25.26111,
    "lng": -57.08329
  },
  {
    "id": 3436585,
    "name": "Ypacarai",
    "lat": -25.40777,
    "lng": -57.28889
  },
  {
    "id": 3439189,
    "name": "Capitán Bado",
    "lat": -23.26733,
    "lng": -55.53876
  },
  {
    "id": 3438043,
    "name": "Guarambaré",
    "lat": -25.49096,
    "lng": -57.45567
  },
  {
    "id": 3438123,
    "name": "Eusebio Ayala",
    "lat": -25.38276,
    "lng": -56.96088
  },
  {
    "id": 3437059,
    "name": "San Juan Nepomuceno",
    "lat": -26.11229,
    "lng": -55.93861
  },
  {
    "id": 3439348,
    "name": "Benjamín Aceval",
    "lat": -24.9974,
    "lng": -57.55239
  },
  {
    "id": 3438754,
    "name": "Doctor Juan León Mallorquín",
    "lat": -25.43053,
    "lng": -55.25412
  },
  {
    "id": 3437148,
    "name": "Salto del Guairá",
    "lat": -24.0633,
    "lng": -54.30763
  },
  {
    "id": 3436959,
    "name": "Santa Rosa",
    "lat": -26.8873,
    "lng": -56.84905
  },
  {
    "id": 3436674,
    "name": "Yaguarón",
    "lat": -25.56219,
    "lng": -57.28662
  },
  {
    "id": 3437197,
    "name": "Repatriación",
    "lat": -25.53515,
    "lng": -55.99242
  },
  {
    "id": 3437637,
    "name": "Obligado",
    "lat": -27.0555,
    "lng": -55.62731
  },
  {
    "id": 3438738,
    "name": "Emboscada",
    "lat": -25.12413,
    "lng": -57.34807
  },
  {
    "id": 3439167,
    "name": "Carapeguá",
    "lat": -25.76344,
    "lng": -57.24677
  },
  {
    "id": 3437022,
    "name": "San Pedro del Paraná",
    "lat": -26.83387,
    "lng": -56.20694
  },
  {
    "id": 3439353,
    "name": "Bella Vista",
    "lat": -22.12226,
    "lng": -56.51523
  },
  {
    "id": 3438981,
    "name": "Colonia Menno",
    "lat": -22.36667,
    "lng": -59.81667
  },
  {
    "id": 3437696,
    "name": "Nanawa",
    "lat": -25.2793,
    "lng": -57.70307
  },
  {
    "id": 3439402,
    "name": "Tomás Romero Pereira",
    "lat": -26.53115,
    "lng": -55.26046
  },
  {
    "id": 11549702,
    "name": "Puerto Vallemí",
    "lat": -22.15755,
    "lng": -57.95125
  },
  {
    "id": 3437997,
    "name": "Hohenau",
    "lat": -27.07315,
    "lng": -55.64247
  },
  {
    "id": 3437215,
    "name": "Quiindy",
    "lat": -25.97606,
    "lng": -57.23353
  },
  {
    "id": 3437342,
    "name": "Puerto Rosario",
    "lat": -24.44127,
    "lng": -57.14272
  },
  {
    "id": 3437074,
    "name": "San José de los Arroyos",
    "lat": -25.5331,
    "lng": -56.73233
  },
  {
    "id": 3437136,
    "name": "San Alberto",
    "lat": -24.96667,
    "lng": -54.9
  },
  {
    "id": 3438753,
    "name": "Doctor Juan Manuel Frutos",
    "lat": -25.3838,
    "lng": -55.83215
  },
  {
    "id": 3436547,
    "name": "Yuty",
    "lat": -26.61415,
    "lng": -56.24727
  },
  {
    "id": 3439386,
    "name": "Atyrá",
    "lat": -25.2794,
    "lng": -57.17289
  },
  {
    "id": 3439439,
    "name": "Altos",
    "lat": -25.26263,
    "lng": -57.25443
  },
  {
    "id": 3437370,
    "name": "Puerto Mayor Otaño",
    "lat": -26.4,
    "lng": -54.7
  },
  {
    "id": 3437120,
    "name": "San Bernardino",
    "lat": -25.31067,
    "lng": -57.29628
  },
  {
    "id": 3436642,
    "name": "Ybycuí",
    "lat": -26.02073,
    "lng": -57.0172
  },
  {
    "id": 3437909,
    "name": "Iturbe",
    "lat": -26.05508,
    "lng": -56.48463
  },
  {
    "id": 3439065,
    "name": "Carmelo Peralta",
    "lat": -21.67985,
    "lng": -57.90729
  },
  {
    "id": 3437853,
    "name": "La Paloma del Espíritu Santo",
    "lat": -24.12957,
    "lng": -54.61376
  },
  {
    "id": 3439156,
    "name": "Carmen del Paraná",
    "lat": -27.22232,
    "lng": -56.15243
  },
  {
    "id": 3438080,
    "name": "General Artigas",
    "lat": -26.93461,
    "lng": -56.22214
  },
  {
    "id": 3439062,
    "name": "Katueté",
    "lat": -24.24829,
    "lng": -54.75961
  },
  {
    "id": 3437499,
    "name": "Pirayú",
    "lat": -25.48415,
    "lng": -57.23612
  },
  {
    "id": 3438106,
    "name": "Fram",
    "lat": -26.98333,
    "lng": -55.88333
  },
  {
    "id": 3437935,
    "name": "Itacurubí del Rosario",
    "lat": -24.53541,
    "lng": -56.82352
  },
  {
    "id": 3437936,
    "name": "Itacurubí de la Cordillera",
    "lat": -25.46158,
    "lng": -56.85333
  },
  {
    "id": 3439208,
    "name": "Capiibary",
    "lat": -24.7319,
    "lng": -56.02052
  },
  {
    "id": 3438872,
    "name": "Yguazú",
    "lat": -25.46096,
    "lng": -55.00489
  },
  {
    "id": 3439482,
    "name": "Acahay",
    "lat": -25.91409,
    "lng": -57.11329
  },
  {
    "id": 3437920,
    "name": "Itakyry",
    "lat": -24.98401,
    "lng": -55.1493
  },
  {
    "id": 3439483,
    "name": "Abaí",
    "lat": -26.03848,
    "lng": -55.94685
  },
  {
    "id": 3438070,
    "name": "General Elizardo Aquino",
    "lat": -24.44548,
    "lng": -56.89942
  },
  {
    "id": 3437652,
    "name": "Nueva Italia",
    "lat": -25.6108,
    "lng": -57.46563
  },
  {
    "id": 3436776,
    "name": "Trinidad",
    "lat": -27.13103,
    "lng": -55.70584
  },
  {
    "id": 3867411,
    "name": "Colonia Neuland",
    "lat": -22.66667,
    "lng": -60.11667
  },
  {
    "id": 3436616,
    "name": "Villa Ygatimí",
    "lat": -24.12371,
    "lng": -55.64418
  },
  {
    "id": 3437815,
    "name": "Los Cedrales",
    "lat": -25.65668,
    "lng": -54.72272
  },
  {
    "id": 3439423,
    "name": "Antequera",
    "lat": -24.08526,
    "lng": -57.20221
  },
  {
    "id": 3437868,
    "name": "La Colmena",
    "lat": -25.88627,
    "lng": -56.84084
  },
  {
    "id": 3437421,
    "name": "Puerto Bahía Negra",
    "lat": -20.22966,
    "lng": -58.16857
  },
  {
    "id": 3437898,
    "name": "Jesús",
    "lat": -27.05598,
    "lng": -55.7413
  },
  {
    "id": 3439184,
    "name": "Capitán Miranda",
    "lat": -27.21946,
    "lng": -55.79837
  },
  {
    "id": 3438102,
    "name": "Fuerte Olimpo",
    "lat": -21.04153,
    "lng": -57.87377
  },
  {
    "id": 3439163,
    "name": "Carayaó",
    "lat": -25.1975,
    "lng": -56.39878
  },
  {
    "id": 3439395,
    "name": "Arroyos y Esteros",
    "lat": -25.05505,
    "lng": -57.09728
  },
  {
    "id": 3867283,
    "name": "General Eugenio A. Garay",
    "lat": -20.51667,
    "lng": -62.13333
  },
  {
    "id": 3436880,
    "name": "Tacuatí",
    "lat": -23.45767,
    "lng": -56.73672
  },
  {
    "id": 3438991,
    "name": "Colonia Mauricio José Troche",
    "lat": -25.56667,
    "lng": -56.28333
  },
  {
    "id": 3439352,
    "name": "Bella Vista",
    "lat": -27.0491,
    "lng": -55.5717
  },
  {
    "id": 3436727,
    "name": "Villa Florida",
    "lat": -26.41065,
    "lng": -57.12104
  },
  {
    "id": 3437763,
    "name": "Mbocayaty",
    "lat": -25.71938,
    "lng": -56.42179
  },
  {
    "id": 3439304,
    "name": "Caapucú",
    "lat": -26.23523,
    "lng": -57.18212
  },
  {
    "id": 3437681,
    "name": "Natalio",
    "lat": -26.75702,
    "lng": -55.13777
  },
  {
    "id": 3438034,
    "name": "Guajayvi",
    "lat": -24.53333,
    "lng": -56.40392
  },
  {
    "id": 3437107,
    "name": "San Cosme y Damián",
    "lat": -27.31922,
    "lng": -56.33223
  },
  {
    "id": 3437744,
    "name": "Mbuyapey",
    "lat": -26.21921,
    "lng": -56.75777
  },
  {
    "id": 3437689,
    "name": "Naranjal",
    "lat": -25.97432,
    "lng": -55.18661
  },
  {
    "id": 3436943,
    "name": "Santiago",
    "lat": -27.1431,
    "lng": -56.76803
  },
  {
    "id": 3436977,
    "name": "Santa María",
    "lat": -26.78371,
    "lng": -56.94333
  },
  {
    "id": 3436595,
    "name": "Yhú",
    "lat": -25.05784,
    "lng": -55.92267
  },
  {
    "id": 11524096,
    "name": "Colonia San Lorenzo",
    "lat": -26.49324,
    "lng": -54.79989
  },
  {
    "id": 3438755,
    "name": "Doctor Cecilio Báez",
    "lat": -25.06943,
    "lng": -56.24267
  },
  {
    "id": 3436927,
    "name": "Sapucaí",
    "lat": -25.66652,
    "lng": -56.95215
  },
  {
    "id": 3437682,
    "name": "Natalicio Talavera",
    "lat": -25.65378,
    "lng": -56.30933
  },
  {
    "id": 3438977,
    "name": "Minga Porá",
    "lat": -24.87544,
    "lng": -54.93395
  },
  {
    "id": 3437514,
    "name": "Pirapó",
    "lat": -26.85842,
    "lng": -55.54414
  },
  {
    "id": 3437086,
    "name": "San Joaquín",
    "lat": -25.02853,
    "lng": -56.0428
  },
  {
    "id": 3438743,
    "name": "Edelira",
    "lat": -26.76734,
    "lng": -55.27872
  },
  {
    "id": 3436763,
    "name": "Unión",
    "lat": -24.8079,
    "lng": -56.52148
  },
  {
    "id": 3437927,
    "name": "Itapé",
    "lat": -25.85172,
    "lng": -56.61385
  },
  {
    "id": 3439175,
    "name": "Caraguatay",
    "lat": -25.23844,
    "lng": -56.82693
  },
  {
    "id": 3439355,
    "name": "Belén",
    "lat": -23.46987,
    "lng": -57.26175
  },
  {
    "id": 3439325,
    "name": "Buena Vista",
    "lat": -26.18705,
    "lng": -56.08334
  },
  {
    "id": 3437982,
    "name": "Independencia",
    "lat": -25.691,
    "lng": -56.26781
  },
  {
    "id": 3438076,
    "name": "General José María Delgado",
    "lat": -27.09046,
    "lng": -56.52474
  },
  {
    "id": 3437962,
    "name": "Isla Pucú",
    "lat": -25.30853,
    "lng": -56.89911
  },
  {
    "id": 3437029,
    "name": "San Patricio",
    "lat": -26.97626,
    "lng": -56.8269
  },
  {
    "id": 3439159,
    "name": "Carlos Antonio López",
    "lat": -26.39853,
    "lng": -54.7569
  },
  {
    "id": 3437062,
    "name": "San Juan del Paraná",
    "lat": -27.30264,
    "lng": -55.96387
  },
  {
    "id": 3437748,
    "name": "Mbutuý",
    "lat": -24.97518,
    "lng": -56.30927
  },
  {
    "id": 3438066,
    "name": "General Higinio Morínigo",
    "lat": -25.95,
    "lng": -55.91667
  },
  {
    "id": 3436655,
    "name": "Yataity del Norte",
    "lat": -24.84752,
    "lng": -56.35538
  },
  {
    "id": 3438816,
    "name": "Corpus Christi",
    "lat": -24.0804,
    "lng": -54.93933
  },
  {
    "id": 3438822,
    "name": "Coronel Martínez",
    "lat": -25.75896,
    "lng": -56.61596
  },
  {
    "id": 3438064,
    "name": "General José Eduvigis Díaz",
    "lat": -27.20153,
    "lng": -58.3691
  },
  {
    "id": 3437042,
    "name": "San Miguel",
    "lat": -26.53599,
    "lng": -57.03928
  },
  {
    "id": 3437653,
    "name": "Colonia Nueva Germania",
    "lat": -23.91137,
    "lng": -56.70091
  },
  {
    "id": 3867427,
    "name": "Capitán Pablo Lagerenza",
    "lat": -19.91667,
    "lng": -60.78333
  },
  {
    "id": 3436617,
    "name": "Fulgencio Yegros",
    "lat": -26.45565,
    "lng": -56.40368
  },
  {
    "id": 3436987,
    "name": "Santa Elena",
    "lat": -25.41396,
    "lng": -56.79762
  },
  {
    "id": 3439133,
    "name": "Cerrito",
    "lat": -27.34215,
    "lng": -57.64119
  },
  {
    "id": 3439185,
    "name": "Capitán Meza",
    "lat": -27.01667,
    "lng": -55.56667
  },
  {
    "id": 3437701,
    "name": "Ñacunday",
    "lat": -26.01667,
    "lng": -54.76667
  },
  {
    "id": 3437647,
    "name": "Ñumi",
    "lat": -25.95052,
    "lng": -56.3296
  },
  {
    "id": 3437578,
    "name": "Paso de Patria",
    "lat": -27.24334,
    "lng": -58.54416
  },
  {
    "id": 3437439,
    "name": "Primero de Marzo",
    "lat": -25.15298,
    "lng": -56.92792
  },
  {
    "id": 3439256,
    "name": "Cambyretá",
    "lat": -27.3586,
    "lng": -55.76198
  },
  {
    "id": 3437651,
    "name": "Nueva Londres",
    "lat": -25.40402,
    "lng": -56.54938
  },
  {
    "id": 3436718,
    "name": "Villa Oliva",
    "lat": -26.01614,
    "lng": -57.85589
  },
  {
    "id": 3436744,
    "name": "Veinticinco de Diciembre",
    "lat": -24.7,
    "lng": -56.55
  },
  {
    "id": 3437208,
    "name": "Quyquyhó",
    "lat": -26.23094,
    "lng": -56.98726
  },
  {
    "id": 3437849,
    "name": "Laureles",
    "lat": -27.24979,
    "lng": -57.45857
  },
  {
    "id": 3437058,
    "name": "San Lázaro",
    "lat": -22.10743,
    "lng": -57.96225
  },
  {
    "id": 3437116,
    "name": "San Carlos del Apa",
    "lat": -22.24596,
    "lng": -57.28853
  },
  {
    "id": 3437390,
    "name": "Puerto Guaraní",
    "lat": -21.28342,
    "lng": -57.9249
  },
  {
    "id": 3437654,
    "name": "Nueva Colombia",
    "lat": -25.1881,
    "lng": -57.30533
  },
  {
    "id": 3437032,
    "name": "San Pablo de Ycuámandyyú",
    "lat": -24.15,
    "lng": -57.06667
  },
  {
    "id": 3437922,
    "name": "Itapúa Poty",
    "lat": -26.63026,
    "lng": -55.52028
  },
  {
    "id": 3439437,
    "name": "Alto Verá",
    "lat": -26.75291,
    "lng": -55.76828
  },
  {
    "id": 3436753,
    "name": "Valenzuela",
    "lat": -25.59382,
    "lng": -56.87126
  },
  {
    "id": 3438116,
    "name": "Félix Pérez Cardozo",
    "lat": -25.74199,
    "lng": -56.52278
  },
  {
    "id": 3436627,
    "name": "Ybytymí",
    "lat": -25.75882,
    "lng": -56.80257
  },
  {
    "id": 3437807,
    "name": "Maciel",
    "lat": -26.18271,
    "lng": -56.47282
  }
]