[
  {
    "id": 3439389,
    "name": "Asunción",
    "lat": -25.28646,
    "lng": -57.647
  },
  {
    "id": 3439101,
    "name": "Ciudad del Este",
    "lat": -25.5036,
    "lng": -54.65067
  },
  {
    "id": 3437056,
    "name": "San Lorenzo",
    "lat": -25.33968,
    "lng": -57.50879
  },
  {
    "id": 3439214,
    "name": "Capiatá",
    "lat": -25.3552,
    "lng": -57.44545
  },
  {
    "id": 3437863,
    "name": "Lambaré",
    "lat": -25.34682,
    "lng": -57.60647
  },
  {
    "id": 3438115,
    "name": "Fernando de la Mora",
    "lat": -25.3386,
    "lng": -57.52167
  },
  {
    "id": 3437842,
    "name": "Limpio",
    "lat": -25.16611,
    "lng": -57.48562
  },
  {
    "id": 3437665,
    "name": "Nemby",
    "lat": -25.3949,
    "lng": -57.53574
  },
  {
    "id": 3437547,
    "name": "Pedro Juan Caballero",
    "lat": -22.54925,
    "lng": -55.7387
  },
  {
    "id": 3438735,
    "name": "Encarnación",
    "lat": -27.33176,
    "lng": -55.86662
  },
  {
    "id": 3438995,
    "name": "Mariano Roque Alonso",
    "lat": -25.20791,
    "lng": -57.53202
  },
  {
    "id": 3437918,
    "name": "Itauguá",
    "lat": -25.39258,
    "lng": -57.35421
  },
  {
    "id": 3436728,
    "name": "Villa Elisa",
    "lat": -25.3676,
    "lng": -57.59274
  },
  {
    "id": 3436725,
    "name": "Villa Hayes",
    "lat": -25.093,
    "lng": -57.52725
  },
  {
    "id": 3439320,
    "name": "Caacupé",
    "lat": -25.38575,
    "lng": -57.14217
  },
  {
    "id": 3437127,
    "name": "San Antonio",
    "lat": -25.42126,
    "lng": -57.54725
  },
  {
    "id": 3439317,
    "name": "Caaguazú",
    "lat": -25.47104,
    "lng": -56.01603
  },
  {
    "id": 3437444,
    "name": "Presidente Franco",
    "lat": -25.56384,
    "lng": -54.61097
  },
  {
    "id": 3438819,
    "name": "Coronel Oviedo",
    "lat": -25.44613,
    "lng": -56.43928
  },
  {
    "id": 3438834,
    "name": "Concepción",
    "lat": -23.39985,
    "lng": -57.43236
  },
  {
    "id": 3436714,
    "name": "Villarrica",
    "lat": -25.74946,
    "lng": -56.43518
  },
  {
    "id": 3437526,
    "name": "Pilar",
    "lat": -26.85874,
    "lng": -58.30639
  },
  {
    "id": 3436622,
    "name": "Yby Yaú",
    "lat": -22.96611,
    "lng": -56.54066
  },
  {
    "id": 3439297,
    "name": "Caazapá",
    "lat": -26.1966,
    "lng": -56.36786
  },
  {
    "id": 3867291,
    "name": "Filadelfia",
    "lat": -22.33936,
    "lng": -60.03157
  },
  {
    "id": 3437954,
    "name": "Itá",
    "lat": -25.50054,
    "lng": -57.36717
  },
  {
    "id": 3437063,
    "name": "San Juan Bautista",
    "lat": -26.67028,
    "lng": -57.14073
  }
]