[
  {
    "id": 2108502,
    "name": "Honiara",
    "lat": -9.43333,
    "lng": 159.95
  },
  {
    "id": 13527002,
    "name": "Tandai",
    "lat": -9.44666,
    "lng": 159.94549
  },
  {
    "id": 13527001,
    "name": "Malango",
    "lat": -9.42497,
    "lng": 160.05329
  },
  {
    "id": 2106543,
    "name": "Malango",
    "lat": -9.69523,
    "lng": 159.71734
  },
  {
    "id": 2104863,
    "name": "Noro",
    "lat": -8.22274,
    "lng": 157.19978
  },
  {
    "id": 2108857,
    "name": "Gizo",
    "lat": -8.10303,
    "lng": 156.84186
  },
  {
    "id": 2109701,
    "name": "Auki",
    "lat": -8.76778,
    "lng": 160.69778
  },
  {
    "id": 2105575,
    "name": "Munda",
    "lat": -8.32799,
    "lng": 157.26652
  },
  {
    "id": 2109528,
    "name": "Buala",
    "lat": -8.14497,
    "lng": 159.59212
  },
  {
    "id": 2178753,
    "name": "Kirakira",
    "lat": -10.45442,
    "lng": 161.92045
  },
  {
    "id": 2102384,
    "name": "Tulagi",
    "lat": -9.10306,
    "lng": 160.15056
  },
  {
    "id": 11423653,
    "name": "Taro",
    "lat": -6.71111,
    "lng": 156.39722
  },
  {
    "id": 2178750,
    "name": "Lata",
    "lat": -10.725,
    "lng": 165.79722
  }
]