[
  {
    "id": 2673730,
    "name": "Stockholm",
    "lat": 59.32938,
    "lng": 18.06871
  },
  {
    "id": 2711537,
    "name": "Göteborg",
    "lat": 57.70716,
    "lng": 11.96679
  },
  {
    "id": 2692969,
    "name": "Malmö",
    "lat": 55.60587,
    "lng": 13.00073
  },
  {
    "id": 2666199,
    "name": "Uppsala",
    "lat": 59.85882,
    "lng": 17.63889
  },
  {
    "id": 2694762,
    "name": "Linköping",
    "lat": 58.41086,
    "lng": 15.62157
  },
  {
    "id": 2686657,
    "name": "Örebro",
    "lat": 59.27412,
    "lng": 15.2066
  },
  {
    "id": 2675408,
    "name": "Sollentuna",
    "lat": 59.42804,
    "lng": 17.95093
  },
  {
    "id": 602150,
    "name": "Umeå",
    "lat": 63.82842,
    "lng": 20.25972
  },
  {
    "id": 2664454,
    "name": "Västerås",
    "lat": 59.61617,
    "lng": 16.55276
  },
  {
    "id": 2702979,
    "name": "Jönköping",
    "lat": 57.78145,
    "lng": 14.15618
  },
  {
    "id": 2706767,
    "name": "Helsingborg",
    "lat": 56.04673,
    "lng": 12.69437
  },
  {
    "id": 2688368,
    "name": "Norrköping",
    "lat": 58.59419,
    "lng": 16.1826
  },
  {
    "id": 2704620,
    "name": "Huddinge",
    "lat": 59.23705,
    "lng": 17.98192
  },
  {
    "id": 2693678,
    "name": "Lund",
    "lat": 55.70584,
    "lng": 13.19321
  },
  {
    "id": 604490,
    "name": "Luleå",
    "lat": 65.58415,
    "lng": 22.15465
  },
  {
    "id": 2707953,
    "name": "Haninge",
    "lat": 59.16775,
    "lng": 18.14478
  },
  {
    "id": 2712414,
    "name": "Gävle",
    "lat": 60.67452,
    "lng": 17.14174
  },
  {
    "id": 2720501,
    "name": "Borås",
    "lat": 57.72101,
    "lng": 12.9401
  },
  {
    "id": 2663536,
    "name": "Växjö",
    "lat": 56.87767,
    "lng": 14.80906
  },
  {
    "id": 2676176,
    "name": "Södertälje",
    "lat": 59.19554,
    "lng": 17.62525
  },
  {
    "id": 2708365,
    "name": "Halmstad",
    "lat": 56.67446,
    "lng": 12.85676
  },
  {
    "id": 2715953,
    "name": "Eskilstuna",
    "lat": 59.36661,
    "lng": 16.5077
  },
  {
    "id": 2675397,
    "name": "Solna",
    "lat": 59.36004,
    "lng": 18.00086
  },
  {
    "id": 2701713,
    "name": "Karlskrona",
    "lat": 56.16156,
    "lng": 15.58661
  },
  {
    "id": 2701680,
    "name": "Karlstad",
    "lat": 59.3793,
    "lng": 13.50357
  },
  {
    "id": 2691459,
    "name": "Mölndal",
    "lat": 57.6554,
    "lng": 12.01378
  },
  {
    "id": 2669772,
    "name": "Täby",
    "lat": 59.4439,
    "lng": 18.06872
  },
  {
    "id": 2670781,
    "name": "Sundsvall",
    "lat": 62.39129,
    "lng": 17.3063
  },
  {
    "id": 2685750,
    "name": "Östersund",
    "lat": 63.1792,
    "lng": 14.63566
  },
  {
    "id": 2667303,
    "name": "Trollhättan",
    "lat": 58.28365,
    "lng": 12.28864
  },
  {
    "id": 2696334,
    "name": "Lidingö",
    "lat": 59.36667,
    "lng": 18.13333
  },
  {
    "id": 2720383,
    "name": "Borlänge",
    "lat": 60.4858,
    "lng": 15.43714
  },
  {
    "id": 2667094,
    "name": "Tumba",
    "lat": 59.19858,
    "lng": 17.83317
  },
  {
    "id": 2699310,
    "name": "Kristianstad",
    "lat": 56.03129,
    "lng": 14.15242
  },
  {
    "id": 2687700,
    "name": "Nyköping",
    "lat": 58.753,
    "lng": 17.00788
  },
  {
    "id": 2702261,
    "name": "Kalmar",
    "lat": 56.66157,
    "lng": 16.36163
  },
  {
    "id": 2715459,
    "name": "Falun",
    "lat": 60.60357,
    "lng": 15.62597
  },
  {
    "id": 2677234,
    "name": "Skövde",
    "lat": 58.39118,
    "lng": 13.84506
  },
  {
    "id": 2666238,
    "name": "Upplands Väsby",
    "lat": 59.51839,
    "lng": 17.91128
  },
  {
    "id": 602913,
    "name": "Skellefteå",
    "lat": 64.75067,
    "lng": 20.95279
  },
  {
    "id": 2666670,
    "name": "Uddevalla",
    "lat": 58.34784,
    "lng": 11.9424
  },
  {
    "id": 2670879,
    "name": "Sundbyberg",
    "lat": 59.36128,
    "lng": 17.97114
  },
  {
    "id": 2664996,
    "name": "Varberg",
    "lat": 57.10557,
    "lng": 12.25078
  },
  {
    "id": 2727234,
    "name": "Åkersberga",
    "lat": 59.47944,
    "lng": 18.29967
  },
  {
    "id": 2686469,
    "name": "Örnsköldsvik",
    "lat": 63.29091,
    "lng": 18.71525
  },
  {
    "id": 2718000,
    "name": "Danderyd",
    "lat": 59.40398,
    "lng": 18.02376
  },
  {
    "id": 2697720,
    "name": "Landskrona",
    "lat": 55.8708,
    "lng": 12.83016
  },
  {
    "id": 2665452,
    "name": "Vallentuna",
    "lat": 59.53436,
    "lng": 18.07758
  },
  {
    "id": 2690960,
    "name": "Motala",
    "lat": 58.53706,
    "lng": 15.03649
  },
  {
    "id": 2667402,
    "name": "Trelleborg",
    "lat": 55.37514,
    "lng": 13.15691
  },
  {
    "id": 2684395,
    "name": "Partille",
    "lat": 57.7395,
    "lng": 12.10642
  },
  {
    "id": 2701715,
    "name": "Karlskoga",
    "lat": 59.32667,
    "lng": 14.52386
  },
  {
    "id": 2692475,
    "name": "Märsta",
    "lat": 59.62157,
    "lng": 17.85476
  },
  {
    "id": 2696503,
    "name": "Lerum",
    "lat": 57.77051,
    "lng": 12.26904
  },
  {
    "id": 2726756,
    "name": "Alingsås",
    "lat": 57.93033,
    "lng": 12.53345
  },
  {
    "id": 2690580,
    "name": "Nacka",
    "lat": 59.31053,
    "lng": 18.16372
  },
  {
    "id": 2707684,
    "name": "Härnösand",
    "lat": 62.63228,
    "lng": 17.93794
  },
  {
    "id": 2680075,
    "name": "Sandviken",
    "lat": 60.61667,
    "lng": 16.76667
  },
  {
    "id": 2698739,
    "name": "Kungälv",
    "lat": 57.87096,
    "lng": 11.98054
  },
  {
    "id": 2715573,
    "name": "Falkenberg",
    "lat": 56.90552,
    "lng": 12.49118
  },
  {
    "id": 2703396,
    "name": "Jakobsberg",
    "lat": 59.42268,
    "lng": 17.83508
  },
  {
    "id": 2662689,
    "name": "Visby",
    "lat": 57.64089,
    "lng": 18.29602
  },
  {
    "id": 2701223,
    "name": "Katrineholm",
    "lat": 58.99587,
    "lng": 16.20721
  },
  {
    "id": 2725901,
    "name": "Ängelholm",
    "lat": 56.2428,
    "lng": 12.86219
  },
  {
    "id": 2665171,
    "name": "Vänersborg",
    "lat": 58.38075,
    "lng": 12.3234
  },
  {
    "id": 2721946,
    "name": "Björlanda",
    "lat": 57.76667,
    "lng": 11.83333
  },
  {
    "id": 603570,
    "name": "Piteå",
    "lat": 65.31717,
    "lng": 21.47944
  },
  {
    "id": 2696329,
    "name": "Lidköping",
    "lat": 58.50517,
    "lng": 13.15765
  },
  {
    "id": 2716166,
    "name": "Enköping",
    "lat": 59.63607,
    "lng": 17.07768
  },
  {
    "id": 2704136,
    "name": "Huskvarna",
    "lat": 57.78596,
    "lng": 14.30214
  },
  {
    "id": 2664203,
    "name": "Västervik",
    "lat": 57.7584,
    "lng": 16.63733
  },
  {
    "id": 2709628,
    "name": "Gustavsberg",
    "lat": 59.32684,
    "lng": 18.38975
  },
  {
    "id": 2701727,
    "name": "Karlshamn",
    "lat": 56.1706,
    "lng": 14.86188
  },
  {
    "id": 2688250,
    "name": "Norrtälje",
    "lat": 59.75799,
    "lng": 18.70496
  },
  {
    "id": 2682484,
    "name": "Rinkeby",
    "lat": 59.38708,
    "lng": 17.92754
  },
  {
    "id": 2707399,
    "name": "Hässleholm",
    "lat": 56.15905,
    "lng": 13.76638
  },
  {
    "id": 2664855,
    "name": "Värnamo",
    "lat": 57.18604,
    "lng": 14.04001
  },
  {
    "id": 2662149,
    "name": "Ystad",
    "lat": 55.42966,
    "lng": 13.82041
  },
  {
    "id": 2698729,
    "name": "Kungsbacka",
    "lat": 57.48719,
    "lng": 12.07612
  },
  {
    "id": 2715946,
    "name": "Eslöv",
    "lat": 55.83928,
    "lng": 13.30393
  },
  {
    "id": 2699282,
    "name": "Kristinehamn",
    "lat": 59.30978,
    "lng": 14.10808
  },
  {
    "id": 2699791,
    "name": "Köping",
    "lat": 59.51404,
    "lng": 15.99255
  },
  {
    "id": 2686162,
    "name": "Oskarshamn",
    "lat": 57.26455,
    "lng": 16.44837
  },
  {
    "id": 2690170,
    "name": "Nässjö",
    "lat": 57.65307,
    "lng": 14.69676
  },
  {
    "id": 2691440,
    "name": "Mölnlycke",
    "lat": 57.65893,
    "lng": 12.11792
  },
  {
    "id": 2715568,
    "name": "Falköping",
    "lat": 58.17347,
    "lng": 13.55068
  },
  {
    "id": 605155,
    "name": "Kiruna",
    "lat": 67.85572,
    "lng": 20.22513
  },
  {
    "id": 606531,
    "name": "Boden",
    "lat": 65.82518,
    "lng": 21.68864
  },
  {
    "id": 2698767,
    "name": "Kumla",
    "lat": 59.1277,
    "lng": 15.14341
  },
  {
    "id": 2692613,
    "name": "Mariestad",
    "lat": 58.70971,
    "lng": 13.82367
  },
  {
    "id": 2704613,
    "name": "Hudiksvall",
    "lat": 61.72744,
    "lng": 17.10558
  },
  {
    "id": 2667109,
    "name": "Tullinge",
    "lat": 59.2,
    "lng": 17.9
  },
  {
    "id": 2664050,
    "name": "Västra Frölunda",
    "lat": 57.64667,
    "lng": 11.92944
  },
  {
    "id": 2694560,
    "name": "Ljungby",
    "lat": 56.83324,
    "lng": 13.94082
  },
  {
    "id": 2674649,
    "name": "Staffanstorp",
    "lat": 55.64277,
    "lng": 13.20638
  },
  {
    "id": 2693759,
    "name": "Ludvika",
    "lat": 60.14959,
    "lng": 15.18776
  },
  {
    "id": 2700839,
    "name": "Kinna",
    "lat": 57.50728,
    "lng": 12.69463
  },
  {
    "id": 2705402,
    "name": "Höllviken",
    "lat": 55.40982,
    "lng": 12.9558
  },
  {
    "id": 2722570,
    "name": "Billdal",
    "lat": 57.56667,
    "lng": 11.93333
  },
  {
    "id": 2706003,
    "name": "Höganäs",
    "lat": 56.19971,
    "lng": 12.55795
  },
  {
    "id": 2667628,
    "name": "Tranås",
    "lat": 58.03717,
    "lng": 14.9782
  },
  {
    "id": 2687636,
    "name": "Nynäshamn",
    "lat": 58.90337,
    "lng": 17.94793
  },
  {
    "id": 2725123,
    "name": "Arvika",
    "lat": 59.65528,
    "lng": 12.58518
  },
  {
    "id": 2720679,
    "name": "Bollnäs",
    "lat": 61.34817,
    "lng": 16.39464
  },
  {
    "id": 2671392,
    "name": "Strängnäs",
    "lat": 59.37741,
    "lng": 17.03119
  },
  {
    "id": 2677456,
    "name": "Skoghall",
    "lat": 59.32324,
    "lng": 13.46552
  },
  {
    "id": 2663293,
    "name": "Vetlanda",
    "lat": 57.42887,
    "lng": 15.07762
  },
  {
    "id": 2723567,
    "name": "Bålsta",
    "lat": 59.5671,
    "lng": 17.52781
  },
  {
    "id": 2673875,
    "name": "Stenungsund",
    "lat": 58.07046,
    "lng": 11.8181
  },
  {
    "id": 2680662,
    "name": "Sala",
    "lat": 59.91993,
    "lng": 16.60655
  },
  {
    "id": 2718759,
    "name": "Bunkeflostrand",
    "lat": 55.54478,
    "lng": 12.92375
  },
  {
    "id": 2687902,
    "name": "Nybro",
    "lat": 56.74461,
    "lng": 15.90714
  },
  {
    "id": 2691743,
    "name": "Mjölby",
    "lat": 58.32595,
    "lng": 15.12365
  },
  {
    "id": 2714903,
    "name": "Finspång",
    "lat": 58.70578,
    "lng": 15.76739
  },
  {
    "id": 2684636,
    "name": "Oxie",
    "lat": 55.54014,
    "lng": 13.09605
  },
  {
    "id": 2681825,
    "name": "Ronneby",
    "lat": 56.20999,
    "lng": 15.27602
  },
  {
    "id": 2691400,
    "name": "Mora",
    "lat": 61.00704,
    "lng": 14.54316
  },
  {
    "id": 2694264,
    "name": "Lomma",
    "lat": 55.67244,
    "lng": 13.06849
  },
  {
    "id": 6943587,
    "name": "Onsala",
    "lat": 57.42531,
    "lng": 12.02903
  },
  {
    "id": 2676224,
    "name": "Söderhamn",
    "lat": 61.30373,
    "lng": 17.05921
  },
  {
    "id": 2705055,
    "name": "Höör",
    "lat": 55.93444,
    "lng": 13.5385
  },
  {
    "id": 2724231,
    "name": "Avesta",
    "lat": 60.14274,
    "lng": 16.16295
  },
  {
    "id": 2715656,
    "name": "Fagersta",
    "lat": 60.00418,
    "lng": 15.79316
  },
  {
    "id": 2670128,
    "name": "Svedala",
    "lat": 55.50788,
    "lng": 13.23515
  },
  {
    "id": 2708016,
    "name": "Handen",
    "lat": 59.16809,
    "lng": 18.13796
  },
  {
    "id": 2716586,
    "name": "Ekerö",
    "lat": 59.291,
    "lng": 17.81212
  },
  {
    "id": 2678210,
    "name": "Skara",
    "lat": 58.38659,
    "lng": 13.43836
  },
  {
    "id": 7931985,
    "name": "Alby",
    "lat": 59.2335,
    "lng": 17.8538
  },
  {
    "id": 2684653,
    "name": "Oxelösund",
    "lat": 58.67057,
    "lng": 17.10152
  },
  {
    "id": 2694831,
    "name": "Lindome",
    "lat": 57.56667,
    "lng": 12.08333
  },
  {
    "id": 2725471,
    "name": "Arboga",
    "lat": 59.39387,
    "lng": 15.83882
  },
  {
    "id": 2708429,
    "name": "Hallstahammar",
    "lat": 59.61395,
    "lng": 16.22846
  },
  {
    "id": 2702908,
    "name": "Jordbro",
    "lat": 59.14972,
    "lng": 18.11667
  },
  {
    "id": 2666493,
    "name": "Ulricehamn",
    "lat": 57.79159,
    "lng": 13.41422
  },
  {
    "id": 2721534,
    "name": "Bjuv",
    "lat": 56.08372,
    "lng": 12.91914
  },
  {
    "id": 2669047,
    "name": "Timrå",
    "lat": 62.48654,
    "lng": 17.32613
  },
  {
    "id": 606086,
    "name": "Gällivare",
    "lat": 67.13387,
    "lng": 20.65278
  },
  {
    "id": 2700791,
    "name": "Kista",
    "lat": 59.40316,
    "lng": 17.94479
  },
  {
    "id": 2712045,
    "name": "Gislaved",
    "lat": 57.3044,
    "lng": 13.54078
  },
  {
    "id": 2716437,
    "name": "Eksjö",
    "lat": 57.66643,
    "lng": 14.97205
  },
  {
    "id": 2698733,
    "name": "Kungsängen",
    "lat": 59.47857,
    "lng": 17.74834
  },
  {
    "id": 2667809,
    "name": "Torslanda",
    "lat": 57.72432,
    "lng": 11.77013
  },
  {
    "id": 2664989,
    "name": "Vårby",
    "lat": 59.26671,
    "lng": 17.88407
  },
  {
    "id": 2722362,
    "name": "Bjärred",
    "lat": 55.71667,
    "lng": 13.01667
  },
  {
    "id": 2727363,
    "name": "Åhus",
    "lat": 55.91667,
    "lng": 14.28333
  },
  {
    "id": 2679721,
    "name": "Sävja",
    "lat": 59.81872,
    "lng": 17.69958
  },
  {
    "id": 2694893,
    "name": "Lindesberg",
    "lat": 59.59202,
    "lng": 15.2304
  },
  {
    "id": 2726576,
    "name": "Älmhult",
    "lat": 56.55146,
    "lng": 14.13827
  },
  {
    "id": 2680460,
    "name": "Saltsjöbaden",
    "lat": 59.28333,
    "lng": 18.3
  },
  {
    "id": 2726240,
    "name": "Åmål",
    "lat": 59.051,
    "lng": 12.70492
  },
  {
    "id": 2701096,
    "name": "Kävlinge",
    "lat": 55.79188,
    "lng": 13.11021
  },
  {
    "id": 2726394,
    "name": "Älta",
    "lat": 59.26667,
    "lng": 18.18333
  },
  {
    "id": 2724435,
    "name": "Åstorp",
    "lat": 56.13566,
    "lng": 12.9443
  },
  {
    "id": 2680764,
    "name": "Säffle",
    "lat": 59.13229,
    "lng": 12.92888
  },
  {
    "id": 2725336,
    "name": "Arlöv",
    "lat": 55.63248,
    "lng": 13.07141
  },
  {
    "id": 2679302,
    "name": "Sigtuna",
    "lat": 59.61731,
    "lng": 17.72361
  },
  {
    "id": 2675365,
    "name": "Sölvesborg",
    "lat": 56.05205,
    "lng": 14.57525
  },
  {
    "id": 2667847,
    "name": "Torshälla",
    "lat": 59.41667,
    "lng": 16.46667
  },
  {
    "id": 2717517,
    "name": "Djursholm",
    "lat": 59.39926,
    "lng": 18.05619
  },
  {
    "id": 2697703,
    "name": "Landvetter",
    "lat": 57.68665,
    "lng": 12.21169
  },
  {
    "id": 2698242,
    "name": "Kvissleby",
    "lat": 62.29361,
    "lng": 17.375
  },
  {
    "id": 2726314,
    "name": "Alvesta",
    "lat": 56.89935,
    "lng": 14.55559
  },
  {
    "id": 2693347,
    "name": "Lycksele",
    "lat": 64.59537,
    "lng": 18.67351
  },
  {
    "id": 2723503,
    "name": "Bankeryd",
    "lat": 57.86021,
    "lng": 14.124
  },
  {
    "id": 2700487,
    "name": "Klippan",
    "lat": 56.13559,
    "lng": 13.13086
  },
  {
    "id": 2669118,
    "name": "Tibro",
    "lat": 58.42453,
    "lng": 14.16162
  },
  {
    "id": 2719245,
    "name": "Bro",
    "lat": 59.51667,
    "lng": 17.63333
  },
  {
    "id": 2669113,
    "name": "Tidaholm",
    "lat": 58.18035,
    "lng": 13.95824
  },
  {
    "id": 2708511,
    "name": "Hallsberg",
    "lat": 59.06463,
    "lng": 15.10993
  },
  {
    "id": 3336566,
    "name": "Fisksätra",
    "lat": 59.29153,
    "lng": 18.2549
  },
  {
    "id": 2677025,
    "name": "Skurup",
    "lat": 55.47839,
    "lng": 13.50186
  },
  {
    "id": 2662881,
    "name": "Vimmerby",
    "lat": 57.66588,
    "lng": 15.85515
  },
  {
    "id": 8288547,
    "name": "Gårdsten",
    "lat": 57.8048,
    "lng": 12.02883
  },
  {
    "id": 2719312,
    "name": "Brevik",
    "lat": 59.35,
    "lng": 18.2
  },
  {
    "id": 2700199,
    "name": "Knivsta",
    "lat": 59.72564,
    "lng": 17.78753
  },
  {
    "id": 8288543,
    "name": "Hammarkullen",
    "lat": 57.78049,
    "lng": 12.03604
  },
  {
    "id": 2678913,
    "name": "Sjöbo",
    "lat": 55.63135,
    "lng": 13.70622
  },
  {
    "id": 2719106,
    "name": "Bromölla",
    "lat": 56.07551,
    "lng": 14.46958
  },
  {
    "id": 2709494,
    "name": "Habo",
    "lat": 57.91185,
    "lng": 14.07444
  },
  {
    "id": 2693301,
    "name": "Lysekil",
    "lat": 58.27429,
    "lng": 11.43576
  },
  {
    "id": 2700960,
    "name": "Kil",
    "lat": 59.50234,
    "lng": 13.31277
  },
  {
    "id": 2686209,
    "name": "Osby",
    "lat": 56.38165,
    "lng": 13.99364
  },
  {
    "id": 2687062,
    "name": "Olofström",
    "lat": 56.2773,
    "lng": 14.53402
  },
  {
    "id": 2714795,
    "name": "Fittja",
    "lat": 59.24868,
    "lng": 17.85991
  },
  {
    "id": 605393,
    "name": "Kalix",
    "lat": 65.85298,
    "lng": 23.15645
  },
  {
    "id": 2705049,
    "name": "Hörby",
    "lat": 55.85238,
    "lng": 13.66094
  },
  {
    "id": 2676215,
    "name": "Söderköping",
    "lat": 58.48057,
    "lng": 16.32221
  },
  {
    "id": 2675416,
    "name": "Sollefteå",
    "lat": 63.16667,
    "lng": 17.26667
  },
  {
    "id": 2706982,
    "name": "Hedemora",
    "lat": 60.27973,
    "lng": 15.98855
  },
  {
    "id": 2687693,
    "name": "Nykvarn",
    "lat": 59.17718,
    "lng": 17.4323
  },
  {
    "id": 2722742,
    "name": "Bergshamra",
    "lat": 59.38083,
    "lng": 18.03427
  },
  {
    "id": 2694503,
    "name": "Ljusdal",
    "lat": 61.82883,
    "lng": 16.09126
  },
  {
    "id": 2717884,
    "name": "Degerfors",
    "lat": 59.23797,
    "lng": 14.43077
  },
  {
    "id": 2671224,
    "name": "Strömstad",
    "lat": 58.93945,
    "lng": 11.1712
  },
  {
    "id": 2665691,
    "name": "Valbo",
    "lat": 60.65,
    "lng": 17.03333
  },
  {
    "id": 8288548,
    "name": "Lövgärdet",
    "lat": 57.81555,
    "lng": 12.03861
  },
  {
    "id": 3336568,
    "name": "Skanör med Falsterbo",
    "lat": 55.4,
    "lng": 12.85
  },
  {
    "id": 2724321,
    "name": "Åtvidaberg",
    "lat": 58.20152,
    "lng": 15.9977
  },
  {
    "id": 2727594,
    "name": "Åby",
    "lat": 58.66667,
    "lng": 16.18333
  },
  {
    "id": 2668365,
    "name": "Tomelilla",
    "lat": 55.54293,
    "lng": 13.9546
  },
  {
    "id": 2702449,
    "name": "Kållered",
    "lat": 57.60992,
    "lng": 12.05106
  },
  {
    "id": 2679107,
    "name": "Simrishamn",
    "lat": 55.55653,
    "lng": 14.35037
  },
  {
    "id": 2694529,
    "name": "Ljungsbro",
    "lat": 58.51667,
    "lng": 15.5
  },
  {
    "id": 605859,
    "name": "Haparanda",
    "lat": 65.83549,
    "lng": 24.13676
  },
  {
    "id": 2689471,
    "name": "Nora",
    "lat": 59.51926,
    "lng": 15.03979
  },
  {
    "id": 2714401,
    "name": "Flen",
    "lat": 59.05834,
    "lng": 16.58781
  },
  {
    "id": 2699394,
    "name": "Kramfors",
    "lat": 62.93161,
    "lng": 17.77646
  },
  {
    "id": 2697861,
    "name": "Laholm",
    "lat": 56.51207,
    "lng": 13.04371
  },
  {
    "id": 2663399,
    "name": "Vellinge",
    "lat": 55.47124,
    "lng": 13.01971
  },
  {
    "id": 2694375,
    "name": "Löddeköpinge",
    "lat": 55.76667,
    "lng": 13.01667
  },
  {
    "id": 2713971,
    "name": "Forshaga",
    "lat": 59.52541,
    "lng": 13.48127
  },
  {
    "id": 2671490,
    "name": "Storvreta",
    "lat": 59.95933,
    "lng": 17.70588
  },
  {
    "id": 2675692,
    "name": "Södra Sandby",
    "lat": 55.71677,
    "lng": 13.34659
  },
  {
    "id": 2718248,
    "name": "Dalby",
    "lat": 55.66655,
    "lng": 13.34976
  },
  {
    "id": 2677019,
    "name": "Skutskär",
    "lat": 60.62507,
    "lng": 17.41552
  },
  {
    "id": 2670613,
    "name": "Surahammar",
    "lat": 59.70725,
    "lng": 16.22188
  },
  {
    "id": 2706184,
    "name": "Hjo",
    "lat": 58.30133,
    "lng": 14.28784
  },
  {
    "id": 2715081,
    "name": "Filipstad",
    "lat": 59.71236,
    "lng": 14.16831
  },
  {
    "id": 2696650,
    "name": "Leksand",
    "lat": 60.7303,
    "lng": 14.99994
  },
  {
    "id": 2706057,
    "name": "Hofors",
    "lat": 60.54573,
    "lng": 16.28668
  },
  {
    "id": 2725066,
    "name": "Åsa",
    "lat": 57.35,
    "lng": 12.11667
  },
  {
    "id": 2703269,
    "name": "Järna",
    "lat": 59.09165,
    "lng": 17.56615
  },
  {
    "id": 2687690,
    "name": "Nykvarn",
    "lat": 59.8,
    "lng": 18.3
  },
  {
    "id": 2711451,
    "name": "Gråbo",
    "lat": 57.83625,
    "lng": 12.29954
  },
  {
    "id": 604419,
    "name": "Malmberget",
    "lat": 67.17529,
    "lng": 20.65495
  },
  {
    "id": 2670603,
    "name": "Surte",
    "lat": 57.82533,
    "lng": 12.01604
  },
  {
    "id": 605676,
    "name": "Holmsund",
    "lat": 63.70602,
    "lng": 20.36409
  },
  {
    "id": 2727320,
    "name": "Åkarp",
    "lat": 55.65396,
    "lng": 13.11107
  },
  {
    "id": 2675691,
    "name": "Södra Sandby",
    "lat": 56.56667,
    "lng": 16.61667
  },
  {
    "id": 2680969,
    "name": "Rydebäck",
    "lat": 55.96667,
    "lng": 12.76667
  },
  {
    "id": 2698681,
    "name": "Kungsör",
    "lat": 59.42245,
    "lng": 16.09656
  },
  {
    "id": 2684213,
    "name": "Perstorp",
    "lat": 56.13829,
    "lng": 13.39476
  },
  {
    "id": 3336565,
    "name": "Vi",
    "lat": 62.43333,
    "lng": 17.41667
  },
  {
    "id": 2667253,
    "name": "Trosa",
    "lat": 58.89621,
    "lng": 17.54812
  },
  {
    "id": 2669098,
    "name": "Tierp",
    "lat": 60.34269,
    "lng": 17.51812
  },
  {
    "id": 2711798,
    "name": "Gnesta",
    "lat": 59.04751,
    "lng": 17.31191
  },
  {
    "id": 2694808,
    "name": "Lindsdal",
    "lat": 56.73333,
    "lng": 16.3
  },
  {
    "id": 2665902,
    "name": "Vadstena",
    "lat": 58.44863,
    "lng": 14.88969
  },
  {
    "id": 2715324,
    "name": "Färjestaden",
    "lat": 56.6499,
    "lng": 16.46859
  },
  {
    "id": 2663036,
    "name": "Viken",
    "lat": 56.15063,
    "lng": 12.57429
  },
  {
    "id": 2690902,
    "name": "Mullsjö",
    "lat": 57.9171,
    "lng": 13.87831
  },
  {
    "id": 2704398,
    "name": "Hultsfred",
    "lat": 57.48815,
    "lng": 15.84357
  },
  {
    "id": 2678156,
    "name": "Skåre",
    "lat": 59.43333,
    "lng": 13.43333
  },
  {
    "id": 2713661,
    "name": "Fristad",
    "lat": 57.82483,
    "lng": 13.01064
  },
  {
    "id": 2727314,
    "name": "Åkarp",
    "lat": 58.23333,
    "lng": 13.65
  },
  {
    "id": 2664939,
    "name": "Vårgårda",
    "lat": 58.03706,
    "lng": 12.80907
  },
  {
    "id": 2679698,
    "name": "Sävsjö",
    "lat": 57.40327,
    "lng": 14.66244
  },
  {
    "id": 2686380,
    "name": "Orsa",
    "lat": 61.12034,
    "lng": 14.6155
  },
  {
    "id": 2705075,
    "name": "Hönö",
    "lat": 57.68972,
    "lng": 11.64972
  },
  {
    "id": 2676586,
    "name": "Smedjebacken",
    "lat": 60.14181,
    "lng": 15.41416
  },
  {
    "id": 2687498,
    "name": "Ödåkra",
    "lat": 56.10412,
    "lng": 12.7477
  },
  {
    "id": 2686596,
    "name": "Örkelljunga",
    "lat": 56.28338,
    "lng": 13.27773
  },
  {
    "id": 2678153,
    "name": "Skåre",
    "lat": 55.38333,
    "lng": 13.05
  },
  {
    "id": 2682995,
    "name": "Rättvik",
    "lat": 60.88632,
    "lng": 15.11787
  },
  {
    "id": 2723287,
    "name": "Båstad",
    "lat": 56.42689,
    "lng": 12.85339
  },
  {
    "id": 2665857,
    "name": "Vaggeryd",
    "lat": 57.49807,
    "lng": 14.14842
  },
  {
    "id": 2726032,
    "name": "Anderstorp",
    "lat": 57.28333,
    "lng": 13.63333
  },
  {
    "id": 2692943,
    "name": "Malmslätt",
    "lat": 58.41102,
    "lng": 15.51647
  },
  {
    "id": 2699206,
    "name": "Krokek",
    "lat": 58.67231,
    "lng": 16.36741
  },
  {
    "id": 2710343,
    "name": "Grums",
    "lat": 59.35141,
    "lng": 13.11105
  },
  {
    "id": 2711526,
    "name": "Götene",
    "lat": 58.52824,
    "lng": 13.49458
  },
  {
    "id": 2670710,
    "name": "Sunne",
    "lat": 59.83764,
    "lng": 13.14302
  },
  {
    "id": 2716202,
    "name": "Enebyberg",
    "lat": 59.43333,
    "lng": 18.05
  },
  {
    "id": 2691407,
    "name": "Mönsterås",
    "lat": 57.04134,
    "lng": 16.44463
  },
  {
    "id": 2726026,
    "name": "Anderstorp",
    "lat": 58.88333,
    "lng": 14.28333
  },
  {
    "id": 2664921,
    "name": "Vargön",
    "lat": 58.35599,
    "lng": 12.3906
  },
  {
    "id": 606834,
    "name": "Älvsbyn",
    "lat": 65.67624,
    "lng": 21.00162
  },
  {
    "id": 2692876,
    "name": "Malung",
    "lat": 60.68329,
    "lng": 13.71542
  },
  {
    "id": 606072,
    "name": "Gammelstad",
    "lat": 65.63931,
    "lng": 22.01145
  },
  {
    "id": 2682570,
    "name": "Rimbo",
    "lat": 59.75,
    "lng": 18.36667
  },
  {
    "id": 2709214,
    "name": "Hagfors",
    "lat": 60.02378,
    "lng": 13.67214
  },
  {
    "id": 2663514,
    "name": "Veberöd",
    "lat": 55.63333,
    "lng": 13.48333
  },
  {
    "id": 2663540,
    "name": "Vaxholm",
    "lat": 59.40225,
    "lng": 18.35317
  },
  {
    "id": 2716281,
    "name": "Emmaboda",
    "lat": 56.63268,
    "lng": 15.53648
  },
  {
    "id": 2694838,
    "name": "Lindö",
    "lat": 58.61667,
    "lng": 16.25
  },
  {
    "id": 2726347,
    "name": "Älvängen",
    "lat": 57.95872,
    "lng": 12.1235
  },
  {
    "id": 2663161,
    "name": "Vi",
    "lat": 62.3,
    "lng": 17.16667
  },
  {
    "id": 2666264,
    "name": "Hjärup",
    "lat": 55.6688,
    "lng": 13.13931
  },
  {
    "id": 2685699,
    "name": "Östhammar",
    "lat": 60.25909,
    "lng": 18.37408
  },
  {
    "id": 2666772,
    "name": "Tyringe",
    "lat": 56.16037,
    "lng": 13.59811
  },
  {
    "id": 2702405,
    "name": "Kallinge",
    "lat": 56.24841,
    "lng": 15.28721
  },
  {
    "id": 2692596,
    "name": "Markaryd",
    "lat": 56.46135,
    "lng": 13.59644
  },
  {
    "id": 2725136,
    "name": "Arvidsjaur",
    "lat": 65.59033,
    "lng": 19.16682
  },
  {
    "id": 2689452,
    "name": "Norberg",
    "lat": 60.06505,
    "lng": 15.92366
  },
  {
    "id": 2668247,
    "name": "Töreboda",
    "lat": 58.70739,
    "lng": 14.12597
  },
  {
    "id": 2679855,
    "name": "Säter",
    "lat": 60.34778,
    "lng": 15.75051
  },
  {
    "id": 2706713,
    "name": "Hemmesta",
    "lat": 59.32273,
    "lng": 18.48675
  },
  {
    "id": 2676644,
    "name": "Smålandsstenar",
    "lat": 57.16241,
    "lng": 13.41212
  },
  {
    "id": 2662830,
    "name": "Vingåker",
    "lat": 59.0433,
    "lng": 15.87374
  },
  {
    "id": 2706324,
    "name": "Hittarp",
    "lat": 56.1,
    "lng": 12.63333
  },
  {
    "id": 2708426,
    "name": "Hallstavik",
    "lat": 60.05,
    "lng": 18.6
  },
  {
    "id": 2711790,
    "name": "Gnosjö",
    "lat": 57.3585,
    "lng": 13.73686
  },
  {
    "id": 2669788,
    "name": "Taberg",
    "lat": 57.67722,
    "lng": 14.08876
  },
  {
    "id": 2708665,
    "name": "Hällefors",
    "lat": 59.78388,
    "lng": 14.52197
  },
  {
    "id": 2667876,
    "name": "Torsby",
    "lat": 60.13527,
    "lng": 13.0082
  },
  {
    "id": 2687272,
    "name": "Öjersjö",
    "lat": 57.69882,
    "lng": 12.13448
  },
  {
    "id": 2665093,
    "name": "Vännäs",
    "lat": 63.90676,
    "lng": 19.75712
  },
  {
    "id": 8288544,
    "name": "Rannebergen",
    "lat": 57.80236,
    "lng": 12.07131
  },
  {
    "id": 2713386,
    "name": "Furulund",
    "lat": 55.7738,
    "lng": 13.09022
  },
  {
    "id": 2720437,
    "name": "Borgholm",
    "lat": 56.8793,
    "lng": 16.65634
  },
  {
    "id": 2680653,
    "name": "Sålanda",
    "lat": 57.98333,
    "lng": 12.21667
  },
  {
    "id": 2716863,
    "name": "Edsbyn",
    "lat": 61.37692,
    "lng": 15.81747
  },
  {
    "id": 2686160,
    "name": "Oskarström",
    "lat": 56.8,
    "lng": 12.96667
  },
  {
    "id": 2725277,
    "name": "Arnö",
    "lat": 58.72675,
    "lng": 17.02322
  },
  {
    "id": 2698975,
    "name": "Krylbo",
    "lat": 60.13333,
    "lng": 16.21667
  },
  {
    "id": 2665018,
    "name": "Vara",
    "lat": 58.26234,
    "lng": 12.95413
  },
  {
    "id": 2678173,
    "name": "Skärblacka",
    "lat": 58.56667,
    "lng": 15.9
  },
  {
    "id": 2724778,
    "name": "Askersund",
    "lat": 58.87988,
    "lng": 14.9023
  },
  {
    "id": 2704008,
    "name": "Hyltebruk",
    "lat": 56.99892,
    "lng": 13.23958
  },
  {
    "id": 2662778,
    "name": "Vinslöv",
    "lat": 56.1,
    "lng": 13.91667
  },
  {
    "id": 2706523,
    "name": "Herrljunga",
    "lat": 58.07739,
    "lng": 13.02662
  },
  {
    "id": 2677644,
    "name": "Skillingaryd",
    "lat": 57.43044,
    "lng": 14.09383
  },
  {
    "id": 2718981,
    "name": "Brunna",
    "lat": 59.51667,
    "lng": 17.75
  },
  {
    "id": 2665487,
    "name": "Vallda",
    "lat": 57.4775,
    "lng": 12.00139
  },
  {
    "id": 2725271,
    "name": "Arnö",
    "lat": 60.11667,
    "lng": 18.63333
  },
  {
    "id": 2718991,
    "name": "Brunflo",
    "lat": 63.07586,
    "lng": 14.83203
  },
  {
    "id": 602137,
    "name": "Ursviken",
    "lat": 64.71261,
    "lng": 21.1658
  },
  {
    "id": 2692633,
    "name": "Mariefred",
    "lat": 59.25963,
    "lng": 17.223
  },
  {
    "id": 2690843,
    "name": "Munkedal",
    "lat": 58.46634,
    "lng": 11.67345
  },
  {
    "id": 2691271,
    "name": "Mörrum",
    "lat": 56.19281,
    "lng": 14.74739
  },
  {
    "id": 2713385,
    "name": "Furulund",
    "lat": 57.71667,
    "lng": 12.13333
  },
  {
    "id": 2720689,
    "name": "Bollebygd",
    "lat": 57.66866,
    "lng": 12.57272
  },
  {
    "id": 2686153,
    "name": "Ösmo",
    "lat": 58.98333,
    "lng": 17.9
  },
  {
    "id": 2718975,
    "name": "Brunna",
    "lat": 60.26255,
    "lng": 16.01034
  },
  {
    "id": 2670542,
    "name": "Svalöv",
    "lat": 55.9134,
    "lng": 13.10762
  },
  {
    "id": 2706323,
    "name": "Hittarp",
    "lat": 56.28333,
    "lng": 14.11667
  },
  {
    "id": 2726470,
    "name": "Alsike",
    "lat": 59.75324,
    "lng": 17.77331
  },
  {
    "id": 2706054,
    "name": "Hofterup",
    "lat": 55.80485,
    "lng": 12.9797
  },
  {
    "id": 2692049,
    "name": "Mellerud",
    "lat": 58.69979,
    "lng": 12.45312
  },
  {
    "id": 2692748,
    "name": "Mantorp",
    "lat": 58.35,
    "lng": 15.28333
  },
  {
    "id": 2700800,
    "name": "Kisa",
    "lat": 57.98781,
    "lng": 15.63303
  },
  {
    "id": 2696059,
    "name": "Lilla Edet",
    "lat": 58.13333,
    "lng": 12.13333
  },
  {
    "id": 2706100,
    "name": "Hjuvik",
    "lat": 57.70167,
    "lng": 11.71639
  },
  {
    "id": 601972,
    "name": "Viken",
    "lat": 64.72587,
    "lng": 20.91548
  },
  {
    "id": 2687066,
    "name": "Olofstorp",
    "lat": 57.80444,
    "lng": 12.17131
  },
  {
    "id": 2723489,
    "name": "Bara",
    "lat": 55.58155,
    "lng": 13.17862
  },
  {
    "id": 2662666,
    "name": "Viskafors",
    "lat": 57.62941,
    "lng": 12.8489
  },
  {
    "id": 2671221,
    "name": "Strömsund",
    "lat": 63.85206,
    "lng": 15.55583
  },
  {
    "id": 2694522,
    "name": "Ljungskile",
    "lat": 58.22452,
    "lng": 11.92014
  },
  {
    "id": 2698697,
    "name": "Kungshamn",
    "lat": 58.36305,
    "lng": 11.25938
  },
  {
    "id": 2677063,
    "name": "Skultorp",
    "lat": 58.35,
    "lng": 13.83333
  },
  {
    "id": 2701757,
    "name": "Karlsborg",
    "lat": 58.53724,
    "lng": 14.5047
  },
  {
    "id": 2676596,
    "name": "Smedby",
    "lat": 56.67413,
    "lng": 16.2432
  },
  {
    "id": 2718144,
    "name": "Dalsjöfors",
    "lat": 57.71667,
    "lng": 13.08333
  },
  {
    "id": 606649,
    "name": "Bergnäset",
    "lat": 65.57791,
    "lng": 22.10844
  },
  {
    "id": 2670044,
    "name": "Svenljunga",
    "lat": 57.49551,
    "lng": 13.11078
  },
  {
    "id": 2674209,
    "name": "Stenhamra",
    "lat": 59.3344,
    "lng": 17.68842
  },
  {
    "id": 2662935,
    "name": "Vilhelmina",
    "lat": 64.62417,
    "lng": 16.65596
  },
  {
    "id": 2687509,
    "name": "Öckerö",
    "lat": 57.70814,
    "lng": 11.65585
  },
  {
    "id": 9114206,
    "name": "Åre",
    "lat": 63.39911,
    "lng": 13.07995
  },
  {
    "id": 2676592,
    "name": "Smedby",
    "lat": 60.7,
    "lng": 15.05
  },
  {
    "id": 2682155,
    "name": "Rödeby",
    "lat": 56.26078,
    "lng": 15.62143
  },
  {
    "id": 2726005,
    "name": "Aneby",
    "lat": 57.83895,
    "lng": 14.81016
  },
  {
    "id": 2678129,
    "name": "Skärhamn",
    "lat": 57.98665,
    "lng": 11.55742
  },
  {
    "id": 2692349,
    "name": "Matfors",
    "lat": 62.34864,
    "lng": 17.03173
  },
  {
    "id": 2666823,
    "name": "Tygelsjö",
    "lat": 55.51667,
    "lng": 13.0
  },
  {
    "id": 2703827,
    "name": "Iggesund",
    "lat": 61.64219,
    "lng": 17.07477
  },
  {
    "id": 2692059,
    "name": "Mellbystrand",
    "lat": 56.48561,
    "lng": 12.93958
  },
  {
    "id": 2668430,
    "name": "Tollarp",
    "lat": 55.93333,
    "lng": 13.98333
  },
  {
    "id": 2665844,
    "name": "Vagnhärad",
    "lat": 58.94587,
    "lng": 17.48757
  },
  {
    "id": 2677062,
    "name": "Skultuna",
    "lat": 59.71667,
    "lng": 16.41667
  },
  {
    "id": 2698745,
    "name": "Kummelnäs",
    "lat": 59.35,
    "lng": 18.28333
  },
  {
    "id": 2678266,
    "name": "Skänninge",
    "lat": 58.39427,
    "lng": 15.08659
  },
  {
    "id": 2670278,
    "name": "Svärtinge",
    "lat": 58.65507,
    "lng": 16.02823
  },
  {
    "id": 2708710,
    "name": "Hällbybrunn",
    "lat": 59.39152,
    "lng": 16.42229
  },
  {
    "id": 2708238,
    "name": "Hammar",
    "lat": 56.01667,
    "lng": 14.21667
  },
  {
    "id": 2669633,
    "name": "Tallboda",
    "lat": 58.42521,
    "lng": 15.68154
  },
  {
    "id": 2725379,
    "name": "Årjäng",
    "lat": 59.39217,
    "lng": 12.13336
  },
  {
    "id": 3336567,
    "name": "Ekeby",
    "lat": 56.0,
    "lng": 12.96667
  },
  {
    "id": 2690061,
    "name": "Nättraby",
    "lat": 56.2,
    "lng": 15.51667
  },
  {
    "id": 2720037,
    "name": "Boxholm",
    "lat": 58.19719,
    "lng": 15.05376
  },
  {
    "id": 2682706,
    "name": "Resarö",
    "lat": 59.4291,
    "lng": 18.33386
  },
  {
    "id": 2678265,
    "name": "Skänninge",
    "lat": 59.93333,
    "lng": 18.48333
  },
  {
    "id": 2667599,
    "name": "Tranemo",
    "lat": 57.48333,
    "lng": 13.35
  },
  {
    "id": 2716085,
    "name": "Eriksberg",
    "lat": 59.24241,
    "lng": 17.81631
  },
  {
    "id": 2599415,
    "name": "Björklinge",
    "lat": 60.03004,
    "lng": 17.55203
  },
  {
    "id": 2668429,
    "name": "Tollarp1",
    "lat": 56.16667,
    "lng": 14.28333
  },
  {
    "id": 602804,
    "name": "Södra Sunderbyn",
    "lat": 65.65983,
    "lng": 21.94004
  },
  {
    "id": 2690866,
    "name": "Munka-Ljungby",
    "lat": 56.25,
    "lng": 12.96667
  },
  {
    "id": 2700218,
    "name": "Knislinge",
    "lat": 56.18333,
    "lng": 14.08333
  },
  {
    "id": 2708891,
    "name": "Häljarp",
    "lat": 55.85,
    "lng": 12.91667
  },
  {
    "id": 2723079,
    "name": "Bengtsfors",
    "lat": 59.02912,
    "lng": 12.23207
  },
  {
    "id": 2696804,
    "name": "Laxå",
    "lat": 58.9863,
    "lng": 14.61904
  },
  {
    "id": 2669193,
    "name": "Tenhult",
    "lat": 57.70761,
    "lng": 14.32205
  },
  {
    "id": 2719212,
    "name": "Broby",
    "lat": 56.25521,
    "lng": 14.07797
  },
  {
    "id": 603448,
    "name": "Sävast",
    "lat": 65.77002,
    "lng": 21.73113
  },
  {
    "id": 2669019,
    "name": "Tingsryd",
    "lat": 56.5247,
    "lng": 14.97902
  },
  {
    "id": 2704654,
    "name": "Hovmantorp",
    "lat": 56.78685,
    "lng": 15.14023
  },
  {
    "id": 602909,
    "name": "Skelleftehamn",
    "lat": 64.68333,
    "lng": 21.23333
  },
  {
    "id": 2699768,
    "name": "Kopparberg",
    "lat": 59.87597,
    "lng": 14.99436
  },
  {
    "id": 2716968,
    "name": "Ed",
    "lat": 58.91247,
    "lng": 11.93308
  },
  {
    "id": 2680352,
    "name": "Sandared",
    "lat": 57.70992,
    "lng": 12.79238
  },
  {
    "id": 2705562,
    "name": "Hökåsen",
    "lat": 59.66667,
    "lng": 16.58333
  },
  {
    "id": 2679920,
    "name": "Särö",
    "lat": 57.50577,
    "lng": 11.9321
  },
  {
    "id": 603037,
    "name": "Sävar",
    "lat": 63.90383,
    "lng": 20.55014
  },
  {
    "id": 2712373,
    "name": "Genarp",
    "lat": 55.59907,
    "lng": 13.3982
  },
  {
    "id": 2710885,
    "name": "Grästorp",
    "lat": 58.33219,
    "lng": 12.68122
  },
  {
    "id": 2720485,
    "name": "Borensberg",
    "lat": 58.56667,
    "lng": 15.28333
  },
  {
    "id": 2684596,
    "name": "Påarp",
    "lat": 56.03333,
    "lng": 12.81667
  },
  {
    "id": 2706392,
    "name": "Hindås",
    "lat": 57.70338,
    "lng": 12.44657
  },
  {
    "id": 2725924,
    "name": "Ånge",
    "lat": 62.52495,
    "lng": 15.65904
  },
  {
    "id": 2687517,
    "name": "Ockelbo",
    "lat": 60.8912,
    "lng": 16.71846
  },
  {
    "id": 2696473,
    "name": "Lessebo",
    "lat": 56.75185,
    "lng": 15.26969
  },
  {
    "id": 2694779,
    "name": "Linghem",
    "lat": 58.43333,
    "lng": 15.78333
  },
  {
    "id": 2665708,
    "name": "Vålberg",
    "lat": 59.39145,
    "lng": 13.18633
  },
  {
    "id": 2673076,
    "name": "Stora Höga",
    "lat": 58.01667,
    "lng": 11.83333
  },
  {
    "id": 2690829,
    "name": "Munkfors",
    "lat": 59.83856,
    "lng": 13.54361
  },
  {
    "id": 2713679,
    "name": "Frillesås",
    "lat": 57.31667,
    "lng": 12.16667
  },
  {
    "id": 2704638,
    "name": "Hovsta",
    "lat": 59.35,
    "lng": 15.21667
  },
  {
    "id": 2713350,
    "name": "Fyllinge",
    "lat": 56.65,
    "lng": 12.91667
  },
  {
    "id": 2703526,
    "name": "Irsta",
    "lat": 59.6,
    "lng": 16.7
  },
  {
    "id": 2722563,
    "name": "Billesholm",
    "lat": 56.05,
    "lng": 13.0
  },
  {
    "id": 2702997,
    "name": "Jokkmokk",
    "lat": 66.60665,
    "lng": 19.82324
  },
  {
    "id": 2687063,
    "name": "Olofstorp",
    "lat": 58.25,
    "lng": 14.0
  },
  {
    "id": 2663432,
    "name": "Vejbystrand",
    "lat": 56.31778,
    "lng": 12.76722
  },
  {
    "id": 2712988,
    "name": "Gamleby",
    "lat": 57.89485,
    "lng": 16.40508
  },
  {
    "id": 2722363,
    "name": "Bjärnum",
    "lat": 56.29032,
    "lng": 13.71128
  },
  {
    "id": 2723350,
    "name": "Bårslöv",
    "lat": 56.0091,
    "lng": 12.8058
  },
  {
    "id": 2727222,
    "name": "Åkers Styckebruk",
    "lat": 59.25,
    "lng": 17.08333
  },
  {
    "id": 2711174,
    "name": "Gränna",
    "lat": 58.01667,
    "lng": 14.46667
  },
  {
    "id": 2707057,
    "name": "Heby",
    "lat": 59.93815,
    "lng": 16.86217
  },
  {
    "id": 2717842,
    "name": "Deje",
    "lat": 59.603,
    "lng": 13.472
  },
  {
    "id": 2667328,
    "name": "Gimo",
    "lat": 60.17304,
    "lng": 18.18507
  },
  {
    "id": 2665675,
    "name": "Valdemarsvik",
    "lat": 58.2031,
    "lng": 16.60225
  },
  {
    "id": 2689336,
    "name": "Nordmaling",
    "lat": 63.56852,
    "lng": 19.50244
  },
  {
    "id": 2687444,
    "name": "Odensjö",
    "lat": 57.71667,
    "lng": 14.16667
  },
  {
    "id": 2666950,
    "name": "Tvååker",
    "lat": 57.04147,
    "lng": 12.3995
  },
  {
    "id": 2703349,
    "name": "Jämjö",
    "lat": 56.19187,
    "lng": 15.84115
  },
  {
    "id": 2678804,
    "name": "Sjömarken",
    "lat": 57.71533,
    "lng": 12.83495
  },
  {
    "id": 2703038,
    "name": "Johannedal",
    "lat": 62.43424,
    "lng": 17.37273
  },
  {
    "id": 8288546,
    "name": "Eriksbo",
    "lat": 57.77141,
    "lng": 12.04183
  },
  {
    "id": 2724962,
    "name": "Åseda",
    "lat": 57.1701,
    "lng": 15.3443
  },
  {
    "id": 2687420,
    "name": "Ödeshög",
    "lat": 58.22949,
    "lng": 14.65294
  },
  {
    "id": 2670061,
    "name": "Sveg",
    "lat": 62.03407,
    "lng": 14.36577
  },
  {
    "id": 2703525,
    "name": "Irsta",
    "lat": 59.7,
    "lng": 16.93333
  },
  {
    "id": 2712887,
    "name": "Gånghester",
    "lat": 57.7,
    "lng": 13.01667
  },
  {
    "id": 606370,
    "name": "Bureå",
    "lat": 64.61667,
    "lng": 21.2
  },
  {
    "id": 2673693,
    "name": "Stockvik",
    "lat": 62.33667,
    "lng": 17.36583
  },
  {
    "id": 2704956,
    "name": "Hörnefors",
    "lat": 63.62312,
    "lng": 19.90856
  },
  {
    "id": 2726353,
    "name": "Alunda",
    "lat": 60.06667,
    "lng": 18.08333
  },
  {
    "id": 2716758,
    "name": "Ekängen",
    "lat": 58.46667,
    "lng": 15.63333
  },
  {
    "id": 2713516,
    "name": "Frövi",
    "lat": 59.46667,
    "lng": 15.36667
  },
  {
    "id": 2664783,
    "name": "Vårsta",
    "lat": 59.16528,
    "lng": 17.79722
  },
  {
    "id": 2671292,
    "name": "Strömma",
    "lat": 59.28333,
    "lng": 18.53333
  },
  {
    "id": 603304,
    "name": "Röbäck",
    "lat": 63.80879,
    "lng": 20.18901
  },
  {
    "id": 2694537,
    "name": "Ljunghusen",
    "lat": 55.39793,
    "lng": 12.92486
  },
  {
    "id": 2699879,
    "name": "Kolsva",
    "lat": 59.6,
    "lng": 15.83333
  },
  {
    "id": 2706543,
    "name": "Herrestad",
    "lat": 58.38333,
    "lng": 14.8
  },
  {
    "id": 2723655,
    "name": "Bälinge",
    "lat": 59.95,
    "lng": 17.53333
  },
  {
    "id": 2662851,
    "name": "Vindeln",
    "lat": 64.20175,
    "lng": 19.71945
  },
  {
    "id": 2681368,
    "name": "Rottne",
    "lat": 57.01667,
    "lng": 14.9
  },
  {
    "id": 2713943,
    "name": "Förslöv",
    "lat": 56.35,
    "lng": 12.81667
  },
  {
    "id": 2714678,
    "name": "Fjärås kyrkby",
    "lat": 57.45913,
    "lng": 12.17508
  },
  {
    "id": 2677593,
    "name": "Skinnskatteberg",
    "lat": 59.83028,
    "lng": 15.69337
  },
  {
    "id": 2721285,
    "name": "Blomstermåla",
    "lat": 56.98333,
    "lng": 16.33333
  },
  {
    "id": 605428,
    "name": "Kåge",
    "lat": 64.83571,
    "lng": 20.98453
  },
  {
    "id": 2675280,
    "name": "Söråker",
    "lat": 62.50561,
    "lng": 17.51032
  },
  {
    "id": 2718393,
    "name": "Charlottenberg",
    "lat": 59.88422,
    "lng": 12.30398
  },
  {
    "id": 2726939,
    "name": "Alfta",
    "lat": 61.34675,
    "lng": 16.07499
  },
  {
    "id": 2662996,
    "name": "Vikingstad",
    "lat": 58.38304,
    "lng": 15.43201
  },
  {
    "id": 2685903,
    "name": "Österbybruk",
    "lat": 60.2,
    "lng": 17.9
  },
  {
    "id": 2713656,
    "name": "Fritsla",
    "lat": 57.55655,
    "lng": 12.78457
  },
  {
    "id": 2713596,
    "name": "Frösakull",
    "lat": 56.68333,
    "lng": 12.73333
  },
  {
    "id": 2719670,
    "name": "Brastad",
    "lat": 58.38333,
    "lng": 11.48333
  },
  {
    "id": 2704042,
    "name": "Hyllinge",
    "lat": 56.1,
    "lng": 12.85
  },
  {
    "id": 2662758,
    "name": "Vintrosa",
    "lat": 59.25,
    "lng": 14.95
  },
  {
    "id": 2699749,
    "name": "Kopparmora",
    "lat": 59.33306,
    "lng": 18.58306
  },
  {
    "id": 2663482,
    "name": "Veddige",
    "lat": 57.26591,
    "lng": 12.3322
  },
  {
    "id": 2682569,
    "name": "Rimforsa",
    "lat": 58.13624,
    "lng": 15.6865
  },
  {
    "id": 606638,
    "name": "Bergsviken",
    "lat": 65.3,
    "lng": 21.38333
  },
  {
    "id": 602566,
    "name": "Storvik",
    "lat": 65.15,
    "lng": 20.73333
  },
  {
    "id": 2671230,
    "name": "Strömsnäsbruk",
    "lat": 56.55,
    "lng": 13.71667
  },
  {
    "id": 2706619,
    "name": "Henån",
    "lat": 58.23848,
    "lng": 11.67598
  },
  {
    "id": 2684231,
    "name": "Pershagen",
    "lat": 59.15494,
    "lng": 17.6534
  },
  {
    "id": 2671060,
    "name": "Sturefors",
    "lat": 58.33333,
    "lng": 15.73333
  },
  {
    "id": 2599289,
    "name": "Alunda",
    "lat": 60.26667,
    "lng": 18.4
  },
  {
    "id": 2672053,
    "name": "Storfors",
    "lat": 59.53183,
    "lng": 14.27201
  },
  {
    "id": 2678687,
    "name": "Sjuntorp",
    "lat": 58.2,
    "lng": 12.21667
  },
  {
    "id": 2671501,
    "name": "Storvik",
    "lat": 60.58333,
    "lng": 16.53333
  },
  {
    "id": 2671530,
    "name": "Storuman",
    "lat": 65.0959,
    "lng": 17.11731
  },
  {
    "id": 2717824,
    "name": "Delsbo",
    "lat": 61.80104,
    "lng": 16.55571
  },
  {
    "id": 2677370,
    "name": "Skogstorp",
    "lat": 59.32472,
    "lng": 16.48284
  },
  {
    "id": 2698295,
    "name": "Kvicksund",
    "lat": 59.45099,
    "lng": 16.32131
  },
  {
    "id": 603919,
    "name": "Obbola",
    "lat": 63.7,
    "lng": 20.31667
  },
  {
    "id": 2714618,
    "name": "Fjugesta",
    "lat": 59.17375,
    "lng": 14.87227
  },
  {
    "id": 2669086,
    "name": "Tillberga",
    "lat": 59.68333,
    "lng": 16.61667
  },
  {
    "id": 2703546,
    "name": "Insjön",
    "lat": 64.4,
    "lng": 17.48333
  },
  {
    "id": 2711256,
    "name": "Grängesberg",
    "lat": 60.07465,
    "lng": 15.00784
  },
  {
    "id": 2703547,
    "name": "Insjön",
    "lat": 60.67688,
    "lng": 15.09487
  },
  {
    "id": 2717558,
    "name": "Djurås",
    "lat": 60.56061,
    "lng": 15.13281
  },
  {
    "id": 2694554,
    "name": "Ljungbyhed",
    "lat": 56.07437,
    "lng": 13.2401
  },
  {
    "id": 2692972,
    "name": "Malmköping",
    "lat": 59.13333,
    "lng": 16.73333
  },
  {
    "id": 2670833,
    "name": "Sundsbruk",
    "lat": 62.45806,
    "lng": 17.34889
  },
  {
    "id": 2711820,
    "name": "Glumslöv",
    "lat": 55.94091,
    "lng": 12.80929
  },
  {
    "id": 2713975,
    "name": "Forserum",
    "lat": 57.7,
    "lng": 14.46667
  },
  {
    "id": 2713797,
    "name": "Fränsta",
    "lat": 62.49855,
    "lng": 16.17016
  },
  {
    "id": 2688172,
    "name": "Norsjö",
    "lat": 64.91206,
    "lng": 19.48153
  },
  {
    "id": 2704245,
    "name": "Hunnebostrand",
    "lat": 58.44127,
    "lng": 11.3032
  },
  {
    "id": 2693152,
    "name": "Malå",
    "lat": 65.18501,
    "lng": 18.74243
  },
  {
    "id": 2665063,
    "name": "Vansbro",
    "lat": 60.50893,
    "lng": 14.22458
  },
  {
    "id": 2700011,
    "name": "Kolbäck",
    "lat": 59.56516,
    "lng": 16.23037
  },
  {
    "id": 603761,
    "name": "Pajala",
    "lat": 67.21284,
    "lng": 23.36607
  },
  {
    "id": 603303,
    "name": "Robertsfors",
    "lat": 64.19324,
    "lng": 20.84806
  },
  {
    "id": 2686674,
    "name": "Örbyhus",
    "lat": 60.22407,
    "lng": 17.70138
  },
  {
    "id": 2674181,
    "name": "Stenkullen",
    "lat": 57.79476,
    "lng": 12.31688
  },
  {
    "id": 2667904,
    "name": "Torsås",
    "lat": 56.41251,
    "lng": 15.99844
  },
  {
    "id": 2715351,
    "name": "Färgelanda",
    "lat": 58.56816,
    "lng": 11.99235
  },
  {
    "id": 2694165,
    "name": "Lönsboda",
    "lat": 56.4,
    "lng": 14.31667
  },
  {
    "id": 2667499,
    "name": "Träslövsläge",
    "lat": 57.05417,
    "lng": 12.27899
  },
  {
    "id": 2677869,
    "name": "Skattkärr",
    "lat": 59.41208,
    "lng": 13.67078
  },
  {
    "id": 2702928,
    "name": "Jonstorp",
    "lat": 56.2338,
    "lng": 12.67184
  },
  {
    "id": 2721581,
    "name": "Bjursås",
    "lat": 60.73726,
    "lng": 15.45291
  },
  {
    "id": 2673621,
    "name": "Storå",
    "lat": 59.71409,
    "lng": 15.13169
  },
  {
    "id": 603035,
    "name": "Råneå",
    "lat": 65.85482,
    "lng": 22.29126
  },
  {
    "id": 2726049,
    "name": "Anderslöv",
    "lat": 55.43836,
    "lng": 13.31966
  },
  {
    "id": 2725456,
    "name": "Arbrå",
    "lat": 61.46667,
    "lng": 16.38333
  },
  {
    "id": 2689580,
    "name": "Njurundabommen",
    "lat": 62.26339,
    "lng": 17.38354
  },
  {
    "id": 2721035,
    "name": "Bodafors",
    "lat": 57.5,
    "lng": 14.7
  },
  {
    "id": 2699176,
    "name": "Krokom",
    "lat": 63.32589,
    "lng": 14.44883
  },
  {
    "id": 2673829,
    "name": "Stigtomta",
    "lat": 58.8,
    "lng": 16.78333
  },
  {
    "id": 2694475,
    "name": "Ljusne",
    "lat": 61.2117,
    "lng": 17.1279
  },
  {
    "id": 2670478,
    "name": "Svanesund",
    "lat": 58.14292,
    "lng": 11.81821
  },
  {
    "id": 2674512,
    "name": "Stångby",
    "lat": 55.7503,
    "lng": 13.19797
  },
  {
    "id": 2700694,
    "name": "Klågerup",
    "lat": 55.59416,
    "lng": 13.24574
  },
  {
    "id": 2691387,
    "name": "Mörarp",
    "lat": 56.05749,
    "lng": 12.88018
  },
  {
    "id": 2705718,
    "name": "Högsby",
    "lat": 57.16597,
    "lng": 16.02562
  },
  {
    "id": 2691602,
    "name": "Mockfjärd",
    "lat": 60.5,
    "lng": 14.96667
  },
  {
    "id": 2712255,
    "name": "Getinge",
    "lat": 56.81667,
    "lng": 12.73333
  },
  {
    "id": 603814,
    "name": "Övertorneå",
    "lat": 66.38778,
    "lng": 23.65425
  },
  {
    "id": 2670470,
    "name": "Svängsta",
    "lat": 56.26667,
    "lng": 14.76667
  },
  {
    "id": 2716235,
    "name": "Enbacka",
    "lat": 60.40993,
    "lng": 15.59575
  },
  {
    "id": 3331621,
    "name": "Andalen",
    "lat": 57.70039,
    "lng": 11.76136
  },
  {
    "id": 2691510,
    "name": "Molkom",
    "lat": 59.60057,
    "lng": 13.72115
  },
  {
    "id": 2688131,
    "name": "Nossebro",
    "lat": 58.18808,
    "lng": 12.71599
  },
  {
    "id": 2720670,
    "name": "Bollstabruk",
    "lat": 62.99777,
    "lng": 17.67348
  },
  {
    "id": 2691542,
    "name": "Moheda",
    "lat": 57.0,
    "lng": 14.56667
  },
  {
    "id": 2710797,
    "name": "Grebbestad",
    "lat": 58.70248,
    "lng": 11.25738
  },
  {
    "id": 2710205,
    "name": "Grycksbo",
    "lat": 60.68751,
    "lng": 15.48507
  },
  {
    "id": 2726332,
    "name": "Älvdalen",
    "lat": 61.22774,
    "lng": 14.03935
  },
  {
    "id": 2718271,
    "name": "Dalarö",
    "lat": 59.13306,
    "lng": 18.40639
  },
  {
    "id": 603261,
    "name": "Rosvik",
    "lat": 65.43333,
    "lng": 21.7
  },
  {
    "id": 2677149,
    "name": "Skrea",
    "lat": 56.88333,
    "lng": 12.56667
  },
  {
    "id": 2722320,
    "name": "Bjästa",
    "lat": 63.2,
    "lng": 18.5
  },
  {
    "id": 2714765,
    "name": "Fjälkinge",
    "lat": 56.04364,
    "lng": 14.27562
  },
  {
    "id": 2691348,
    "name": "Mörbylånga",
    "lat": 56.5248,
    "lng": 16.37877
  },
  {
    "id": 2698293,
    "name": "Kvidinge",
    "lat": 56.13386,
    "lng": 13.04678
  },
  {
    "id": 2673953,
    "name": "Stenstorp",
    "lat": 58.27254,
    "lng": 13.71454
  },
  {
    "id": 2725372,
    "name": "Arjeplog",
    "lat": 66.05173,
    "lng": 17.88606
  },
  {
    "id": 2677719,
    "name": "Skepplanda",
    "lat": 57.98333,
    "lng": 12.2
  },
  {
    "id": 2719318,
    "name": "Brevik",
    "lat": 59.21667,
    "lng": 18.38333
  },
  {
    "id": 2727731,
    "name": "Abborrberget",
    "lat": 60.15,
    "lng": 14.8
  },
  {
    "id": 2703300,
    "name": "Järbo",
    "lat": 60.71667,
    "lng": 16.6
  },
  {
    "id": 2662659,
    "name": "Vislanda",
    "lat": 56.78333,
    "lng": 14.45
  },
  {
    "id": 2674993,
    "name": "Sösdala",
    "lat": 56.03992,
    "lng": 13.67811
  },
  {
    "id": 2708821,
    "name": "Hällabrottet",
    "lat": 59.11667,
    "lng": 15.2
  },
  {
    "id": 2718836,
    "name": "Bua",
    "lat": 57.2378,
    "lng": 12.12187
  },
  {
    "id": 2722836,
    "name": "Bergeforsen",
    "lat": 62.53074,
    "lng": 17.38123
  },
  {
    "id": 2662518,
    "name": "Vittsjö",
    "lat": 56.34366,
    "lng": 13.66081
  },
  {
    "id": 606350,
    "name": "Byske",
    "lat": 64.95258,
    "lng": 21.2058
  },
  {
    "id": 2674343,
    "name": "Stavsnäs",
    "lat": 59.28333,
    "lng": 18.68333
  },
  {
    "id": 2669415,
    "name": "Tanumshede",
    "lat": 58.72385,
    "lng": 11.32587
  },
  {
    "id": 2702923,
    "name": "Jonstorp",
    "lat": 58.0,
    "lng": 12.71667
  },
  {
    "id": 2662706,
    "name": "Virserum",
    "lat": 57.31667,
    "lng": 15.58333
  },
  {
    "id": 2681576,
    "name": "Rosersberg",
    "lat": 59.58333,
    "lng": 17.88333
  },
  {
    "id": 2703686,
    "name": "Ingelstad",
    "lat": 56.75,
    "lng": 14.91667
  },
  {
    "id": 2696608,
    "name": "Lenhovda",
    "lat": 57.0,
    "lng": 15.28333
  },
  {
    "id": 2714009,
    "name": "Forsbacka",
    "lat": 60.61667,
    "lng": 16.88333
  },
  {
    "id": 2704662,
    "name": "Höviksnäs",
    "lat": 58.03333,
    "lng": 11.76667
  },
  {
    "id": 606141,
    "name": "Forsbacka",
    "lat": 64.76667,
    "lng": 20.5
  },
  {
    "id": 2706435,
    "name": "Hillerstorp",
    "lat": 57.31293,
    "lng": 13.88437
  },
  {
    "id": 2685404,
    "name": "Östra Ljungby",
    "lat": 56.19601,
    "lng": 13.09199
  },
  {
    "id": 2702489,
    "name": "Källby",
    "lat": 58.50999,
    "lng": 13.30582
  },
  {
    "id": 2681913,
    "name": "Romme",
    "lat": 60.43333,
    "lng": 15.5
  },
  {
    "id": 10942905,
    "name": "Marielund",
    "lat": 65.85307,
    "lng": 24.10486
  },
  {
    "id": 2703268,
    "name": "Järna",
    "lat": 60.53333,
    "lng": 14.36667
  },
  {
    "id": 2694552,
    "name": "Ljungbyholm",
    "lat": 56.63333,
    "lng": 16.16667
  },
  {
    "id": 2663254,
    "name": "Vibble",
    "lat": 57.60452,
    "lng": 18.25601
  },
  {
    "id": 2719965,
    "name": "Bräkne-Hoby",
    "lat": 56.23333,
    "lng": 15.11667
  },
  {
    "id": 2724958,
    "name": "Åsele",
    "lat": 64.16026,
    "lng": 17.34762
  },
  {
    "id": 2676240,
    "name": "Söderfors",
    "lat": 60.38333,
    "lng": 17.23333
  },
  {
    "id": 6269436,
    "name": "Ingared",
    "lat": 57.85989,
    "lng": 12.45161
  },
  {
    "id": 2669254,
    "name": "Teckomatorp",
    "lat": 55.86667,
    "lng": 13.08333
  },
  {
    "id": 2685724,
    "name": "Östervåla",
    "lat": 60.18333,
    "lng": 17.18333
  },
  {
    "id": 2697766,
    "name": "Lammhult",
    "lat": 57.16667,
    "lng": 14.58333
  },
  {
    "id": 2707217,
    "name": "Hästveda",
    "lat": 56.28468,
    "lng": 13.93547
  },
  {
    "id": 2720028,
    "name": "Braås",
    "lat": 57.06667,
    "lng": 15.05
  },
  {
    "id": 2726983,
    "name": "Åled",
    "lat": 56.75,
    "lng": 12.93333
  },
  {
    "id": 2707138,
    "name": "Haverdal",
    "lat": 56.72222,
    "lng": 12.67194
  },
  {
    "id": 2680350,
    "name": "Sandarne",
    "lat": 61.25893,
    "lng": 17.15284
  },
  {
    "id": 2674594,
    "name": "Stallarholmen",
    "lat": 59.36667,
    "lng": 17.2
  },
  {
    "id": 2706678,
    "name": "Hemse",
    "lat": 57.23788,
    "lng": 18.37443
  },
  {
    "id": 606507,
    "name": "Boliden",
    "lat": 64.86667,
    "lng": 20.38333
  },
  {
    "id": 606249,
    "name": "Ersmark",
    "lat": 63.88333,
    "lng": 20.31667
  },
  {
    "id": 2702776,
    "name": "Jursla",
    "lat": 58.65466,
    "lng": 16.16259
  },
  {
    "id": 2709969,
    "name": "Gullbrandstorp",
    "lat": 56.7,
    "lng": 12.73333
  },
  {
    "id": 2697310,
    "name": "Långsele",
    "lat": 63.18333,
    "lng": 17.06667
  },
  {
    "id": 2682487,
    "name": "Rinkabyholm",
    "lat": 56.64972,
    "lng": 16.26667
  },
  {
    "id": 2673952,
    "name": "Stenstorp",
    "lat": 58.48333,
    "lng": 15.06667
  },
  {
    "id": 2708663,
    "name": "Hälleforsnäs",
    "lat": 59.15208,
    "lng": 16.497
  },
  {
    "id": 604779,
    "name": "Långsele",
    "lat": 64.81667,
    "lng": 20.25
  },
  {
    "id": 2712642,
    "name": "Garphyttan",
    "lat": 59.30429,
    "lng": 14.94623
  },
  {
    "id": 2703339,
    "name": "Jämshög",
    "lat": 56.23333,
    "lng": 14.51667
  },
  {
    "id": 2684485,
    "name": "Pålsboda",
    "lat": 59.06565,
    "lng": 15.33747
  },
  {
    "id": 2697295,
    "name": "Långshyttan",
    "lat": 60.45238,
    "lng": 16.03831
  },
  {
    "id": 2707366,
    "name": "Hasslö",
    "lat": 56.11667,
    "lng": 15.48333
  },
  {
    "id": 2700079,
    "name": "Kode",
    "lat": 57.94263,
    "lng": 11.85051
  },
  {
    "id": 2692625,
    "name": "Marieholm",
    "lat": 55.86667,
    "lng": 13.15
  },
  {
    "id": 2667405,
    "name": "Trekanten",
    "lat": 56.7,
    "lng": 16.11667
  },
  {
    "id": 2676238,
    "name": "Söderfors",
    "lat": 64.81667,
    "lng": 18.05
  },
  {
    "id": 2686649,
    "name": "Öregrund",
    "lat": 60.33333,
    "lng": 18.43333
  },
  {
    "id": 2680977,
    "name": "Rydaholm",
    "lat": 56.98388,
    "lng": 14.30849
  },
  {
    "id": 2665578,
    "name": "Valla",
    "lat": 63.55,
    "lng": 13.8
  },
  {
    "id": 2675146,
    "name": "Sörforsa",
    "lat": 61.73333,
    "lng": 16.98333
  },
  {
    "id": 2665090,
    "name": "Vännäsby",
    "lat": 63.91564,
    "lng": 19.82438
  },
  {
    "id": 2692624,
    "name": "Marieholm",
    "lat": 57.38333,
    "lng": 13.85
  },
  {
    "id": 606363,
    "name": "Burträsk",
    "lat": 64.51667,
    "lng": 20.65
  },
  {
    "id": 2725076,
    "name": "Ås",
    "lat": 63.25,
    "lng": 14.56667
  },
  {
    "id": 2667264,
    "name": "Trönninge",
    "lat": 56.61667,
    "lng": 12.93333
  },
  {
    "id": 2709912,
    "name": "Gullspång",
    "lat": 58.98615,
    "lng": 14.09644
  },
  {
    "id": 2724693,
    "name": "Asmundtorp",
    "lat": 55.88333,
    "lng": 12.93333
  },
  {
    "id": 2716601,
    "name": "Ekenässjön",
    "lat": 57.49175,
    "lng": 15.02226
  },
  {
    "id": 2704114,
    "name": "Husum",
    "lat": 63.33333,
    "lng": 19.16667
  },
  {
    "id": 2714327,
    "name": "Floby",
    "lat": 58.13333,
    "lng": 13.33333
  },
  {
    "id": 604006,
    "name": "Norrfjärden",
    "lat": 65.41805,
    "lng": 21.50151
  },
  {
    "id": 2701078,
    "name": "Kaxholmen",
    "lat": 57.85345,
    "lng": 14.30457
  },
  {
    "id": 2720004,
    "name": "Bräcke",
    "lat": 62.75067,
    "lng": 15.42193
  },
  {
    "id": 2703145,
    "name": "Järvsö",
    "lat": 61.71667,
    "lng": 16.16667
  },
  {
    "id": 2681866,
    "name": "Rönnäng",
    "lat": 57.93333,
    "lng": 11.58333
  },
  {
    "id": 2697944,
    "name": "Lagan",
    "lat": 56.91667,
    "lng": 13.98333
  },
  {
    "id": 2722861,
    "name": "Bergby",
    "lat": 60.92931,
    "lng": 17.04194
  },
  {
    "id": 2719485,
    "name": "Bredaryd",
    "lat": 57.17343,
    "lng": 13.73789
  },
  {
    "id": 2708584,
    "name": "Hällevik",
    "lat": 56.01667,
    "lng": 14.7
  },
  {
    "id": 2694366,
    "name": "Lödöse",
    "lat": 58.02994,
    "lng": 12.15934
  },
  {
    "id": 2703212,
    "name": "Järpen",
    "lat": 63.3462,
    "lng": 13.46572
  },
  {
    "id": 2716663,
    "name": "Ekeby-Almby",
    "lat": 59.26,
    "lng": 15.33
  },
  {
    "id": 2682913,
    "name": "Rävlanda",
    "lat": 57.65338,
    "lng": 12.49791
  },
  {
    "id": 2719961,
    "name": "Brålanda",
    "lat": 58.56344,
    "lng": 12.34923
  },
  {
    "id": 2726285,
    "name": "Älvkarleby",
    "lat": 60.57081,
    "lng": 17.44895
  },
  {
    "id": 2702683,
    "name": "Kågeröd",
    "lat": 55.99976,
    "lng": 13.08795
  },
  {
    "id": 606714,
    "name": "Backa",
    "lat": 64.98333,
    "lng": 21.06667
  },
  {
    "id": 2713964,
    "name": "Forsheda",
    "lat": 57.16415,
    "lng": 13.83016
  },
  {
    "id": 2692661,
    "name": "Mariannelund",
    "lat": 57.61667,
    "lng": 15.56667
  },
  {
    "id": 2707664,
    "name": "Harplinge",
    "lat": 56.74491,
    "lng": 12.72758
  },
  {
    "id": 2722029,
    "name": "Björkö",
    "lat": 57.73221,
    "lng": 11.67916
  },
  {
    "id": 2717401,
    "name": "Dorotea",
    "lat": 64.26185,
    "lng": 16.41306
  },
  {
    "id": 2700497,
    "name": "Klintehamn",
    "lat": 57.38667,
    "lng": 18.20371
  },
  {
    "id": 2665589,
    "name": "Valla",
    "lat": 59.01667,
    "lng": 16.38333
  },
  {
    "id": 2675418,
    "name": "Sollebrunn",
    "lat": 58.11667,
    "lng": 12.53333
  },
  {
    "id": 2705128,
    "name": "Hölö",
    "lat": 59.01667,
    "lng": 17.53333
  },
  {
    "id": 2715164,
    "name": "Fellingsbro",
    "lat": 59.43333,
    "lng": 15.58333
  },
  {
    "id": 2681007,
    "name": "Ryd",
    "lat": 56.46667,
    "lng": 14.68333
  },
  {
    "id": 2700858,
    "name": "Kimstad",
    "lat": 58.54967,
    "lng": 15.96296
  },
  {
    "id": 2711896,
    "name": "Glimåkra",
    "lat": 56.3,
    "lng": 14.13333
  },
  {
    "id": 2702892,
    "name": "Jörlanda",
    "lat": 57.9863,
    "lng": 11.82943
  },
  {
    "id": 2712377,
    "name": "Gemla",
    "lat": 56.86753,
    "lng": 14.64379
  },
  {
    "id": 2662324,
    "name": "Vrigstad",
    "lat": 57.35,
    "lng": 14.46667
  },
  {
    "id": 2690713,
    "name": "Myggenäs",
    "lat": 58.06176,
    "lng": 11.74936
  },
  {
    "id": 2721348,
    "name": "Blentarp",
    "lat": 55.58333,
    "lng": 13.6
  },
  {
    "id": 2717412,
    "name": "Donsö",
    "lat": 57.6,
    "lng": 11.79917
  },
  {
    "id": 2680985,
    "name": "Ryd",
    "lat": 58.66667,
    "lng": 15.08333
  },
  {
    "id": 2717532,
    "name": "Djurö",
    "lat": 59.32653,
    "lng": 18.71152
  },
  {
    "id": 2691326,
    "name": "Morgongåva",
    "lat": 59.93395,
    "lng": 16.96353
  },
  {
    "id": 2697727,
    "name": "Landsbro",
    "lat": 57.36667,
    "lng": 14.9
  },
  {
    "id": 2695016,
    "name": "Limmared",
    "lat": 57.53592,
    "lng": 13.35566
  },
  {
    "id": 2679397,
    "name": "Sibbhult",
    "lat": 56.26667,
    "lng": 14.2
  },
  {
    "id": 2663435,
    "name": "Veinge",
    "lat": 56.55,
    "lng": 13.06667
  },
  {
    "id": 2687384,
    "name": "Ödsmål",
    "lat": 58.1,
    "lng": 11.85
  },
  {
    "id": 2663585,
    "name": "Vattholma",
    "lat": 60.01667,
    "lng": 17.73333
  },
  {
    "id": 2718133,
    "name": "Dals Långed",
    "lat": 58.92555,
    "lng": 12.30865
  },
  {
    "id": 2723434,
    "name": "Barkarö",
    "lat": 59.54935,
    "lng": 16.5074
  },
  {
    "id": 2693812,
    "name": "Lövstalöt",
    "lat": 59.9574,
    "lng": 17.57826
  },
  {
    "id": 2715341,
    "name": "Färila",
    "lat": 61.80011,
    "lng": 15.84422
  },
  {
    "id": 2599299,
    "name": "Anneberg",
    "lat": 60.24167,
    "lng": 18.41667
  },
  {
    "id": 2686858,
    "name": "Önnestad",
    "lat": 56.05747,
    "lng": 14.02233
  },
  {
    "id": 2708025,
    "name": "Hanaskog",
    "lat": 56.16061,
    "lng": 14.09307
  },
  {
    "id": 2680959,
    "name": "Rydsgård",
    "lat": 55.47285,
    "lng": 13.58829
  },
  {
    "id": 2687454,
    "name": "Odensbacken",
    "lat": 59.16667,
    "lng": 15.53333
  },
  {
    "id": 2726544,
    "name": "Älmsta",
    "lat": 59.96667,
    "lng": 18.8
  },
  {
    "id": 3331674,
    "name": "Nolvik",
    "lat": 57.775,
    "lng": 11.83333
  },
  {
    "id": 2673629,
    "name": "Stöpen",
    "lat": 58.47802,
    "lng": 13.86611
  },
  {
    "id": 2669057,
    "name": "Timmernabben",
    "lat": 56.96667,
    "lng": 16.43333
  },
  {
    "id": 2693049,
    "name": "Målilla",
    "lat": 57.38773,
    "lng": 15.80675
  },
  {
    "id": 2726163,
    "name": "Åmotfors",
    "lat": 59.76191,
    "lng": 12.36211
  },
  {
    "id": 2670403,
    "name": "Svärdsjö",
    "lat": 60.74022,
    "lng": 15.90173
  },
  {
    "id": 2683436,
    "name": "Ramnäs",
    "lat": 59.76667,
    "lng": 16.2
  },
  {
    "id": 2717898,
    "name": "Degeberga",
    "lat": 55.83333,
    "lng": 14.08333
  },
  {
    "id": 2717720,
    "name": "Diseröd",
    "lat": 57.92636,
    "lng": 12.02598
  },
  {
    "id": 2706486,
    "name": "Hestra",
    "lat": 57.44232,
    "lng": 13.59575
  },
  {
    "id": 2706483,
    "name": "Hestra",
    "lat": 57.91667,
    "lng": 14.58333
  },
  {
    "id": 2671055,
    "name": "Sturkö",
    "lat": 56.08333,
    "lng": 15.7
  },
  {
    "id": 2670995,
    "name": "Styrsö",
    "lat": 57.61639,
    "lng": 11.78556
  },
  {
    "id": 2712859,
    "name": "Gantofta",
    "lat": 55.98729,
    "lng": 12.80482
  },
  {
    "id": 2725003,
    "name": "Åsbro",
    "lat": 59.0,
    "lng": 15.05
  },
  {
    "id": 3234968,
    "name": "Västra Hagen",
    "lat": 57.42444,
    "lng": 11.93583
  },
  {
    "id": 2691793,
    "name": "Mjällby",
    "lat": 56.05,
    "lng": 14.68333
  },
  {
    "id": 2690101,
    "name": "Näsum",
    "lat": 56.17693,
    "lng": 14.49706
  },
  {
    "id": 602426,
    "name": "Täfteå",
    "lat": 63.8397,
    "lng": 20.47857
  },
  {
    "id": 2686286,
    "name": "Örsundsbro",
    "lat": 59.73333,
    "lng": 17.3
  },
  {
    "id": 2676488,
    "name": "Smygehamn",
    "lat": 55.34337,
    "lng": 13.36989
  },
  {
    "id": 2722734,
    "name": "Bergsjö",
    "lat": 61.98253,
    "lng": 17.06368
  },
  {
    "id": 2676511,
    "name": "Smögen",
    "lat": 58.35593,
    "lng": 11.22411
  },
  {
    "id": 2691230,
    "name": "Mörtnäs",
    "lat": 59.31862,
    "lng": 18.44312
  },
  {
    "id": 2682834,
    "name": "Reftele",
    "lat": 57.17467,
    "lng": 13.59498
  },
  {
    "id": 2698520,
    "name": "Kvänum",
    "lat": 58.3,
    "lng": 13.18333
  },
  {
    "id": 2679226,
    "name": "Siljansnäs",
    "lat": 60.78333,
    "lng": 14.85
  },
  {
    "id": 2725348,
    "name": "Ärla",
    "lat": 59.27983,
    "lng": 16.67896
  },
  {
    "id": 2691792,
    "name": "Mjällby",
    "lat": 56.68333,
    "lng": 12.76667
  },
  {
    "id": 2720504,
    "name": "Bor",
    "lat": 57.11667,
    "lng": 14.16667
  },
  {
    "id": 603292,
    "name": "Roknäs",
    "lat": 65.35,
    "lng": 21.2
  },
  {
    "id": 2677548,
    "name": "Skivarp",
    "lat": 55.41667,
    "lng": 13.56667
  },
  {
    "id": 2704716,
    "name": "Hova",
    "lat": 58.85363,
    "lng": 14.21914
  },
  {
    "id": 2699786,
    "name": "Köpingebro",
    "lat": 55.45526,
    "lng": 13.93453
  },
  {
    "id": 2694417,
    "name": "Löberöd",
    "lat": 55.7761,
    "lng": 13.52414
  },
  {
    "id": 2689192,
    "name": "Norra Åsum",
    "lat": 55.98333,
    "lng": 14.15
  },
  {
    "id": 2667757,
    "name": "Torup",
    "lat": 56.95663,
    "lng": 13.07725
  },
  {
    "id": 2721828,
    "name": "Björneborg",
    "lat": 59.24122,
    "lng": 14.24942
  },
  {
    "id": 2725722,
    "name": "Ankarsrum",
    "lat": 57.69896,
    "lng": 16.33407
  },
  {
    "id": 2722996,
    "name": "Berg",
    "lat": 58.48831,
    "lng": 15.52969
  },
  {
    "id": 2725670,
    "name": "Annelund",
    "lat": 57.98843,
    "lng": 13.07483
  },
  {
    "id": 2709642,
    "name": "Gustav Adolf",
    "lat": 56.01667,
    "lng": 14.25
  },
  {
    "id": 2668552,
    "name": "Töcksfors",
    "lat": 59.50816,
    "lng": 11.84431
  },
  {
    "id": 2700279,
    "name": "Knäred",
    "lat": 56.51861,
    "lng": 13.32423
  },
  {
    "id": 2679825,
    "name": "Sätila",
    "lat": 57.54172,
    "lng": 12.43429
  },
  {
    "id": 2671206,
    "name": "Strövelstorp",
    "lat": 56.16979,
    "lng": 12.83925
  },
  {
    "id": 2697065,
    "name": "Långvik",
    "lat": 59.24583,
    "lng": 18.51667
  },
  {
    "id": 2704885,
    "name": "Horred",
    "lat": 57.35475,
    "lng": 12.47777
  },
  {
    "id": 2719466,
    "name": "Bredbyn",
    "lat": 63.44655,
    "lng": 18.11019
  },
  {
    "id": 2689520,
    "name": "Nolby",
    "lat": 62.2875,
    "lng": 17.36917
  },
  {
    "id": 2713219,
    "name": "Gagnef",
    "lat": 60.59856,
    "lng": 15.07745
  },
  {
    "id": 2711803,
    "name": "Gnarp",
    "lat": 62.04874,
    "lng": 17.25858
  },
  {
    "id": 2705127,
    "name": "Hölö",
    "lat": 59.28333,
    "lng": 18.66667
  },
  {
    "id": 2700947,
    "name": "Kilafors",
    "lat": 61.23333,
    "lng": 16.56667
  },
  {
    "id": 2699777,
    "name": "Köpmanholmen",
    "lat": 63.16667,
    "lng": 18.56667
  },
  {
    "id": 2701792,
    "name": "Karlholmsbruk",
    "lat": 60.52091,
    "lng": 17.63152
  },
  {
    "id": 2663077,
    "name": "Vikarbyn",
    "lat": 60.91667,
    "lng": 15.01667
  },
  {
    "id": 2674326,
    "name": "Stehag",
    "lat": 55.90188,
    "lng": 13.39577
  },
  {
    "id": 2599418,
    "name": "Marieberg",
    "lat": 60.23333,
    "lng": 18.5
  },
  {
    "id": 2718983,
    "name": "Brunn",
    "lat": 59.28,
    "lng": 18.43
  },
  {
    "id": 2675079,
    "name": "Sorsele",
    "lat": 65.53484,
    "lng": 17.53702
  },
  {
    "id": 3331429,
    "name": "Saxtorpsskogen",
    "lat": 55.83208,
    "lng": 12.94429
  },
  {
    "id": 2669342,
    "name": "Tärnsjö",
    "lat": 60.15,
    "lng": 16.93333
  },
  {
    "id": 2684945,
    "name": "Överum",
    "lat": 57.98856,
    "lng": 16.3139
  },
  {
    "id": 2724134,
    "name": "Axvall",
    "lat": 58.38333,
    "lng": 13.56667
  },
  {
    "id": 2705492,
    "name": "Hököpinge",
    "lat": 55.49411,
    "lng": 13.00782
  },
  {
    "id": 2679819,
    "name": "Sätofta",
    "lat": 55.91667,
    "lng": 13.55
  },
  {
    "id": 2677770,
    "name": "Skegrie",
    "lat": 55.40633,
    "lng": 13.07693
  },
  {
    "id": 2709600,
    "name": "Gusum",
    "lat": 58.2688,
    "lng": 16.49894
  },
  {
    "id": 2694869,
    "name": "Lindholmen",
    "lat": 59.58333,
    "lng": 18.1
  },
  {
    "id": 2675561,
    "name": "Södra Vi",
    "lat": 57.73993,
    "lng": 15.79391
  },
  {
    "id": 605647,
    "name": "Hortlax",
    "lat": 65.28188,
    "lng": 21.40544
  },
  {
    "id": 2704962,
    "name": "Horndal",
    "lat": 60.3,
    "lng": 16.41667
  },
  {
    "id": 2694631,
    "name": "Lit",
    "lat": 63.32029,
    "lng": 14.84594
  },
  {
    "id": 2708152,
    "name": "Hammarstrand",
    "lat": 63.11041,
    "lng": 16.35377
  },
  {
    "id": 2674201,
    "name": "Steninge",
    "lat": 56.769,
    "lng": 12.63034
  },
  {
    "id": 2722545,
    "name": "Billingsfors",
    "lat": 58.98333,
    "lng": 12.25
  },
  {
    "id": 2682562,
    "name": "Rindö",
    "lat": 59.39688,
    "lng": 18.39434
  },
  {
    "id": 2684386,
    "name": "Påskallavik",
    "lat": 57.16667,
    "lng": 16.45
  },
  {
    "id": 2725073,
    "name": "Ås",
    "lat": 63.36667,
    "lng": 16.58333
  },
  {
    "id": 2706222,
    "name": "Hjärnarp",
    "lat": 56.31667,
    "lng": 12.91667
  },
  {
    "id": 2670536,
    "name": "Svalsta",
    "lat": 58.74273,
    "lng": 16.86978
  },
  {
    "id": 2712628,
    "name": "Gärsnäs",
    "lat": 55.54949,
    "lng": 14.17923
  },
  {
    "id": 3326962,
    "name": "Enhagen-Ekbacken",
    "lat": 59.56543,
    "lng": 16.53045
  },
  {
    "id": 2691462,
    "name": "Mölnbo",
    "lat": 59.05,
    "lng": 17.41667
  },
  {
    "id": 2693002,
    "name": "Malmbäck",
    "lat": 57.57667,
    "lng": 14.4617
  },
  {
    "id": 2697455,
    "name": "Länghem",
    "lat": 57.6,
    "lng": 13.23333
  },
  {
    "id": 2686493,
    "name": "Ornäs",
    "lat": 60.50944,
    "lng": 15.54128
  },
  {
    "id": 2711863,
    "name": "Glommen",
    "lat": 56.93333,
    "lng": 12.35
  },
  {
    "id": 2677356,
    "name": "Sköllersta",
    "lat": 59.13738,
    "lng": 15.3394
  },
  {
    "id": 2668244,
    "name": "Torekov",
    "lat": 56.425,
    "lng": 12.63333
  },
  {
    "id": 2706914,
    "name": "Hedesunda",
    "lat": 60.4,
    "lng": 17.0
  },
  {
    "id": 2665627,
    "name": "Valje",
    "lat": 56.06279,
    "lng": 14.54388
  },
  {
    "id": 2725872,
    "name": "Angered",
    "lat": 57.78628,
    "lng": 12.09852
  },
  {
    "id": 2687738,
    "name": "Nyhammar",
    "lat": 60.28333,
    "lng": 14.96667
  },
  {
    "id": 2677239,
    "name": "Skottsund",
    "lat": 62.29056,
    "lng": 17.38694
  },
  {
    "id": 602261,
    "name": "Töre",
    "lat": 65.91243,
    "lng": 22.65128
  },
  {
    "id": 2722567,
    "name": "Billeberga",
    "lat": 55.88333,
    "lng": 13.0
  },
  {
    "id": 2710796,
    "name": "Grebo",
    "lat": 58.30145,
    "lng": 15.87085
  },
  {
    "id": 2691471,
    "name": "Mölltorp",
    "lat": 58.5,
    "lng": 14.4
  },
  {
    "id": 2708135,
    "name": "Hammerdal",
    "lat": 63.57615,
    "lng": 15.36516
  },
  {
    "id": 2668180,
    "name": "Tormestorp",
    "lat": 56.1135,
    "lng": 13.74516
  },
  {
    "id": 2722302,
    "name": "Björboholm",
    "lat": 57.87096,
    "lng": 12.32546
  },
  {
    "id": 2716324,
    "name": "Ellös",
    "lat": 58.18333,
    "lng": 11.46667
  },
  {
    "id": 603823,
    "name": "Överkalix",
    "lat": 66.32754,
    "lng": 22.84414
  },
  {
    "id": 2662795,
    "name": "Vinninga",
    "lat": 58.45,
    "lng": 13.26667
  },
  {
    "id": 2710731,
    "name": "Grillby",
    "lat": 59.62603,
    "lng": 17.25787
  },
  {
    "id": 2709761,
    "name": "Gunnebo",
    "lat": 57.71667,
    "lng": 16.53333
  },
  {
    "id": 2722794,
    "name": "Bergkvara",
    "lat": 56.39063,
    "lng": 16.07274
  },
  {
    "id": 2717727,
    "name": "Dingtuna",
    "lat": 59.57279,
    "lng": 16.38722
  },
  {
    "id": 2716443,
    "name": "Ekshärad",
    "lat": 60.17275,
    "lng": 13.49647
  },
  {
    "id": 2673758,
    "name": "Stockaryd",
    "lat": 57.31737,
    "lng": 14.59341
  },
  {
    "id": 7283918,
    "name": "Olstorp",
    "lat": 57.82277,
    "lng": 12.27696
  },
  {
    "id": 2686979,
    "name": "Olstorp",
    "lat": 58.81667,
    "lng": 16.63333
  },
  {
    "id": 2715313,
    "name": "Färlöv",
    "lat": 56.06667,
    "lng": 14.08333
  },
  {
    "id": 2699313,
    "name": "Kristdala",
    "lat": 57.4007,
    "lng": 16.20496
  },
  {
    "id": 2668591,
    "name": "Tjuvkil",
    "lat": 57.9,
    "lng": 11.73333
  },
  {
    "id": 2725192,
    "name": "Årsunda",
    "lat": 60.51644,
    "lng": 16.73436
  },
  {
    "id": 2672122,
    "name": "Storebro",
    "lat": 57.58333,
    "lng": 15.85
  },
  {
    "id": 2676700,
    "name": "Slottsbron",
    "lat": 59.3227,
    "lng": 13.10268
  },
  {
    "id": 2711561,
    "name": "Göta",
    "lat": 58.10617,
    "lng": 12.15254
  },
  {
    "id": 603291,
    "name": "Rolfs",
    "lat": 65.85,
    "lng": 23.11667
  },
  {
    "id": 2721585,
    "name": "Bjurholm",
    "lat": 63.93027,
    "lng": 19.21369
  },
  {
    "id": 2670482,
    "name": "Svaneholm",
    "lat": 57.61667,
    "lng": 12.81667
  },
  {
    "id": 2698093,
    "name": "Kyrkhult",
    "lat": 56.55,
    "lng": 13.26667
  },
  {
    "id": 2698705,
    "name": "Kungsgården",
    "lat": 63.0,
    "lng": 17.83333
  },
  {
    "id": 2704327,
    "name": "Hummelsta",
    "lat": 59.62673,
    "lng": 16.9438
  },
  {
    "id": 2680970,
    "name": "Rydboholm",
    "lat": 57.65,
    "lng": 12.88333
  },
  {
    "id": 2714208,
    "name": "Flyinge",
    "lat": 55.75373,
    "lng": 13.36671
  },
  {
    "id": 2676716,
    "name": "Slöinge",
    "lat": 56.85,
    "lng": 12.68333
  },
  {
    "id": 2670162,
    "name": "Svartvik",
    "lat": 62.58639,
    "lng": 17.90849
  },
  {
    "id": 2716668,
    "name": "Ekeby",
    "lat": 59.25,
    "lng": 17.52
  },
  {
    "id": 2669111,
    "name": "Tidan",
    "lat": 58.57467,
    "lng": 14.00495
  },
  {
    "id": 2689498,
    "name": "Nolvik",
    "lat": 57.78333,
    "lng": 11.81667
  },
  {
    "id": 2663521,
    "name": "Våxtorp",
    "lat": 56.41678,
    "lng": 13.12008
  },
  {
    "id": 2725719,
    "name": "Ankarsvik",
    "lat": 62.37028,
    "lng": 17.41167
  },
  {
    "id": 2690503,
    "name": "Nälden",
    "lat": 63.35,
    "lng": 14.25
  },
  {
    "id": 2699557,
    "name": "Kosta",
    "lat": 56.84332,
    "lng": 15.39618
  },
  {
    "id": 2698094,
    "name": "Kyrkhult",
    "lat": 56.35,
    "lng": 14.58333
  },
  {
    "id": 2720341,
    "name": "Borrby",
    "lat": 55.45707,
    "lng": 14.18041
  },
  {
    "id": 2677641,
    "name": "Skillinge",
    "lat": 55.47428,
    "lng": 14.28283
  },
  {
    "id": 2676278,
    "name": "Söderbärke",
    "lat": 60.07011,
    "lng": 15.56025
  },
  {
    "id": 2694640,
    "name": "Listerby",
    "lat": 56.2,
    "lng": 15.4
  },
  {
    "id": 2688255,
    "name": "Norrsundet",
    "lat": 60.95,
    "lng": 17.13333
  },
  {
    "id": 2669517,
    "name": "Tångaberg",
    "lat": 57.17358,
    "lng": 12.22753
  },
  {
    "id": 2683389,
    "name": "Ramsele",
    "lat": 64.06667,
    "lng": 19.55
  },
  {
    "id": 2700831,
    "name": "Kinnarp",
    "lat": 58.07786,
    "lng": 13.52061
  },
  {
    "id": 2676297,
    "name": "Söderala",
    "lat": 61.28333,
    "lng": 16.96667
  },
  {
    "id": 2663452,
    "name": "Vedum",
    "lat": 58.16667,
    "lng": 12.98333
  },
  {
    "id": 2715304,
    "name": "Färnäs",
    "lat": 61.0,
    "lng": 14.63333
  },
  {
    "id": 2713447,
    "name": "Funäsdalen",
    "lat": 62.54607,
    "lng": 12.5428
  },
  {
    "id": 2712627,
    "name": "Gärsnäs",
    "lat": 59.41667,
    "lng": 12.9
  },
  {
    "id": 2665975,
    "name": "Väckelsång",
    "lat": 56.63333,
    "lng": 14.91667
  },
  {
    "id": 2715893,
    "name": "Everöd",
    "lat": 55.9,
    "lng": 14.1
  },
  {
    "id": 2727571,
    "name": "Åbyggeby",
    "lat": 60.73333,
    "lng": 17.11667
  },
  {
    "id": 2703762,
    "name": "Indal",
    "lat": 62.57732,
    "lng": 17.09807
  },
  {
    "id": 2698297,
    "name": "Kvibille",
    "lat": 56.78333,
    "lng": 12.83333
  },
  {
    "id": 2696479,
    "name": "Lesjöfors",
    "lat": 59.9759,
    "lng": 14.18264
  },
  {
    "id": 2677419,
    "name": "Skogsby",
    "lat": 56.63643,
    "lng": 16.52321
  },
  {
    "id": 2676731,
    "name": "Slite",
    "lat": 57.70461,
    "lng": 18.8031
  },
  {
    "id": 603933,
    "name": "Nyland",
    "lat": 64.81667,
    "lng": 20.76667
  },
  {
    "id": 2684420,
    "name": "Parksidan",
    "lat": 59.28071,
    "lng": 17.84783
  },
  {
    "id": 2676298,
    "name": "Söderåkra",
    "lat": 56.45,
    "lng": 16.06667
  },
  {
    "id": 2666177,
    "name": "Urshult",
    "lat": 56.53333,
    "lng": 14.78333
  },
  {
    "id": 3325994,
    "name": "Grevie",
    "lat": 56.39167,
    "lng": 12.78333
  },
  {
    "id": 2663237,
    "name": "Viby",
    "lat": 60.1,
    "lng": 17.2
  },
  {
    "id": 2718695,
    "name": "Burseryd",
    "lat": 57.2,
    "lng": 13.28333
  },
  {
    "id": 2702949,
    "name": "Jonsered",
    "lat": 57.74588,
    "lng": 12.1735
  },
  {
    "id": 2678727,
    "name": "Sjövik",
    "lat": 57.91667,
    "lng": 12.36667
  },
  {
    "id": 2727116,
    "name": "Älandsbro",
    "lat": 62.67714,
    "lng": 17.8406
  },
  {
    "id": 2712715,
    "name": "Gärds Köpinge",
    "lat": 55.93333,
    "lng": 14.15
  },
  {
    "id": 2683767,
    "name": "Råby",
    "lat": 59.53333,
    "lng": 17.5
  },
  {
    "id": 2670900,
    "name": "Sundborn",
    "lat": 60.65,
    "lng": 15.76667
  },
  {
    "id": 2670306,
    "name": "Svarte",
    "lat": 55.43184,
    "lng": 13.71394
  },
  {
    "id": 2668423,
    "name": "Tollered",
    "lat": 57.81667,
    "lng": 12.41667
  },
  {
    "id": 2719735,
    "name": "Brännö",
    "lat": 57.64528,
    "lng": 11.78167
  },
  {
    "id": 2708442,
    "name": "Hållsta",
    "lat": 59.29491,
    "lng": 16.45434
  },
  {
    "id": 2694567,
    "name": "Ljungaverk",
    "lat": 62.48947,
    "lng": 16.04257
  },
  {
    "id": 2669958,
    "name": "Svenstavik",
    "lat": 62.76667,
    "lng": 14.43535
  },
  {
    "id": 2700742,
    "name": "Kjulaås",
    "lat": 59.38306,
    "lng": 16.66667
  },
  {
    "id": 2664959,
    "name": "Varekil",
    "lat": 58.12293,
    "lng": 11.70777
  },
  {
    "id": 2692909,
    "name": "Målsryd",
    "lat": 57.68333,
    "lng": 13.05
  },
  {
    "id": 2690092,
    "name": "Näsviken",
    "lat": 61.76667,
    "lng": 16.86667
  },
  {
    "id": 2693562,
    "name": "Lundsbrunn",
    "lat": 58.47168,
    "lng": 13.44727
  },
  {
    "id": 2714670,
    "name": "Fjärdhundra",
    "lat": 59.77554,
    "lng": 16.92106
  },
  {
    "id": 2717730,
    "name": "Dingersjö",
    "lat": 62.27467,
    "lng": 17.37994
  },
  {
    "id": 2717725,
    "name": "Diö",
    "lat": 56.63333,
    "lng": 14.21667
  },
  {
    "id": 2681930,
    "name": "Roma",
    "lat": 57.50357,
    "lng": 18.45899
  },
  {
    "id": 2717728,
    "name": "Dingle",
    "lat": 58.5275,
    "lng": 11.5777
  },
  {
    "id": 2691136,
    "name": "Mosås",
    "lat": 59.2,
    "lng": 15.13333
  },
  {
    "id": 2682211,
    "name": "Rockneby",
    "lat": 56.80223,
    "lng": 16.35014
  },
  {
    "id": 2685900,
    "name": "Österbymo",
    "lat": 57.82465,
    "lng": 15.27357
  },
  {
    "id": 603207,
    "name": "Rutvik",
    "lat": 65.67171,
    "lng": 22.08973
  },
  {
    "id": 2700754,
    "name": "Kivik",
    "lat": 55.6851,
    "lng": 14.22025
  },
  {
    "id": 2669053,
    "name": "Timmersdala",
    "lat": 58.53333,
    "lng": 13.75
  },
  {
    "id": 2687678,
    "name": "Nyland",
    "lat": 63.00619,
    "lng": 17.7594
  },
  {
    "id": 2678724,
    "name": "Sjövik",
    "lat": 60.15,
    "lng": 16.31667
  },
  {
    "id": 606796,
    "name": "Antnäs",
    "lat": 65.55462,
    "lng": 21.83551
  },
  {
    "id": 2682821,
    "name": "Rejmyre",
    "lat": 58.83333,
    "lng": 15.91667
  },
  {
    "id": 2666539,
    "name": "Ullervad",
    "lat": 58.66667,
    "lng": 13.86667
  },
  {
    "id": 2713509,
    "name": "Frufällan",
    "lat": 57.78333,
    "lng": 12.96667
  },
  {
    "id": 2718130,
    "name": "Dals Rostock",
    "lat": 58.71667,
    "lng": 12.35
  },
  {
    "id": 2689135,
    "name": "Norra Bro",
    "lat": 59.21667,
    "lng": 15.25
  },
  {
    "id": 2708136,
    "name": "Hammenhög",
    "lat": 55.5,
    "lng": 14.15
  },
  {
    "id": 2683760,
    "name": "Råby",
    "lat": 60.1,
    "lng": 16.36667
  },
  {
    "id": 2669656,
    "name": "Tällberg",
    "lat": 60.81667,
    "lng": 15.0
  },
  {
    "id": 606248,
    "name": "Ersmark",
    "lat": 64.84806,
    "lng": 20.896
  },
  {
    "id": 2719435,
    "name": "Bredsand",
    "lat": 59.58333,
    "lng": 17.06667
  },
  {
    "id": 2681461,
    "name": "Röstånga",
    "lat": 56.0,
    "lng": 13.28333
  },
  {
    "id": 2725252,
    "name": "Aröd",
    "lat": 57.96841,
    "lng": 11.78487
  },
  {
    "id": 2702805,
    "name": "Junsele",
    "lat": 63.69586,
    "lng": 16.88256
  },
  {
    "id": 2667911,
    "name": "Torsåker",
    "lat": 63.06667,
    "lng": 17.75
  },
  {
    "id": 2695364,
    "name": "Lilla Tjärby",
    "lat": 56.527,
    "lng": 13.05676
  },
  {
    "id": 2709323,
    "name": "Hagby",
    "lat": 56.55175,
    "lng": 16.18684
  },
  {
    "id": 2702664,
    "name": "Kåhög",
    "lat": 57.75086,
    "lng": 12.15224
  },
  {
    "id": 2712091,
    "name": "Gimåt",
    "lat": 63.31667,
    "lng": 18.71667
  },
  {
    "id": 2686066,
    "name": "Östansjö",
    "lat": 59.05,
    "lng": 14.98333
  },
  {
    "id": 2666751,
    "name": "Tystberga",
    "lat": 58.85,
    "lng": 17.23306
  },
  {
    "id": 2685483,
    "name": "Östra Husby",
    "lat": 58.58306,
    "lng": 16.55
  },
  {
    "id": 2717382,
    "name": "Dösjebro",
    "lat": 55.82098,
    "lng": 13.02897
  },
  {
    "id": 2668422,
    "name": "Tollered",
    "lat": 57.95,
    "lng": 12.1
  },
  {
    "id": 2726787,
    "name": "Algutsrum",
    "lat": 56.68299,
    "lng": 16.52722
  },
  {
    "id": 2686049,
    "name": "Östansjö",
    "lat": 66.09188,
    "lng": 17.52283
  },
  {
    "id": 2707609,
    "name": "Härryda",
    "lat": 57.65436,
    "lng": 12.36318
  },
  {
    "id": 2675404,
    "name": "Sollerön",
    "lat": 60.91667,
    "lng": 14.61667
  },
  {
    "id": 2720593,
    "name": "Bönan",
    "lat": 60.73962,
    "lng": 17.31239
  },
  {
    "id": 2718694,
    "name": "Burseryd",
    "lat": 57.36667,
    "lng": 14.78333
  },
  {
    "id": 2710130,
    "name": "Grythyttan",
    "lat": 59.70593,
    "lng": 14.53453
  },
  {
    "id": 2662985,
    "name": "Viksäter",
    "lat": 59.24091,
    "lng": 17.61486
  },
  {
    "id": 2683390,
    "name": "Ramsele",
    "lat": 63.53947,
    "lng": 16.46791
  },
  {
    "id": 2691281,
    "name": "Mörlunda",
    "lat": 57.31667,
    "lng": 15.85
  },
  {
    "id": 2701918,
    "name": "Karby",
    "lat": 59.56087,
    "lng": 18.22007
  },
  {
    "id": 2662326,
    "name": "Vretstorp",
    "lat": 59.03333,
    "lng": 14.86667
  },
  {
    "id": 2714737,
    "name": "Fjällbacka",
    "lat": 58.6,
    "lng": 11.28333
  },
  {
    "id": 2683181,
    "name": "Ransta",
    "lat": 59.81037,
    "lng": 16.63738
  },
  {
    "id": 2689578,
    "name": "Njutånger",
    "lat": 61.6125,
    "lng": 17.05556
  },
  {
    "id": 2667912,
    "name": "Torsåker",
    "lat": 60.5109,
    "lng": 16.47069
  },
  {
    "id": 2667263,
    "name": "Trönninge",
    "lat": 57.14474,
    "lng": 12.29253
  },
  {
    "id": 2714044,
    "name": "Fors",
    "lat": 63.41667,
    "lng": 18.58333
  },
  {
    "id": 2701915,
    "name": "Karby",
    "lat": 60.15,
    "lng": 17.58333
  },
  {
    "id": 2716115,
    "name": "Enviken",
    "lat": 60.8,
    "lng": 15.78333
  },
  {
    "id": 2662993,
    "name": "Vikmanshyttan",
    "lat": 60.29752,
    "lng": 15.83141
  },
  {
    "id": 2721768,
    "name": "Björnlunda",
    "lat": 59.06465,
    "lng": 17.15931
  },
  {
    "id": 2706994,
    "name": "Hede",
    "lat": 62.41367,
    "lng": 13.51255
  },
  {
    "id": 2726409,
    "name": "Alstermo",
    "lat": 56.97303,
    "lng": 15.65413
  },
  {
    "id": 2676648,
    "name": "Anneberg",
    "lat": 57.72349,
    "lng": 14.80627
  },
  {
    "id": 2665209,
    "name": "Våmhus",
    "lat": 61.11491,
    "lng": 14.4718
  },
  {
    "id": 2715285,
    "name": "Fårösund",
    "lat": 57.85822,
    "lng": 19.0619
  },
  {
    "id": 2668679,
    "name": "Tjörnarp",
    "lat": 55.99543,
    "lng": 13.6279
  },
  {
    "id": 2692144,
    "name": "Mellansel",
    "lat": 63.42512,
    "lng": 18.31555
  },
  {
    "id": 2663979,
    "name": "Västra Ingelstad",
    "lat": 55.49108,
    "lng": 13.1121
  },
  {
    "id": 2666286,
    "name": "Unnaryd",
    "lat": 56.95,
    "lng": 13.51667
  },
  {
    "id": 603948,
    "name": "Nyborg",
    "lat": 65.78333,
    "lng": 23.2
  },
  {
    "id": 2715927,
    "name": "Essvik",
    "lat": 62.31639,
    "lng": 17.39306
  },
  {
    "id": 605028,
    "name": "Koskullskulle",
    "lat": 67.18333,
    "lng": 20.75
  },
  {
    "id": 2726534,
    "name": "Almunge",
    "lat": 59.88333,
    "lng": 18.05
  },
  {
    "id": 2708590,
    "name": "Hällevadsholm",
    "lat": 58.5796,
    "lng": 11.54058
  },
  {
    "id": 2725361,
    "name": "Arkelstorp",
    "lat": 56.16989,
    "lng": 14.29082
  },
  {
    "id": 2689246,
    "name": "Norje",
    "lat": 56.11667,
    "lng": 14.66667
  },
  {
    "id": 2662469,
    "name": "Vollsjö",
    "lat": 55.70039,
    "lng": 13.7915
  },
  {
    "id": 2714736,
    "name": "Fjällbacka",
    "lat": 59.04972,
    "lng": 12.56667
  },
  {
    "id": 2727558,
    "name": "Åbytorp",
    "lat": 59.12559,
    "lng": 15.07363
  },
  {
    "id": 2681195,
    "name": "Rundvik",
    "lat": 63.53333,
    "lng": 19.43333
  },
  {
    "id": 604504,
    "name": "Lövånger",
    "lat": 64.36667,
    "lng": 21.3
  },
  {
    "id": 2672873,
    "name": "Stora Levene",
    "lat": 58.32468,
    "lng": 12.92533
  },
  {
    "id": 2721912,
    "name": "Björnås",
    "lat": 56.12487,
    "lng": 12.96502
  },
  {
    "id": 2708434,
    "name": "Hållsta",
    "lat": 63.0,
    "lng": 14.96667
  },
  {
    "id": 2704805,
    "name": "Hörvik",
    "lat": 56.04233,
    "lng": 14.76175
  },
  {
    "id": 2679426,
    "name": "Sexdrega",
    "lat": 57.58333,
    "lng": 13.11667
  },
  {
    "id": 2722744,
    "name": "Bergshammar",
    "lat": 58.7405,
    "lng": 16.91284
  },
  {
    "id": 2672805,
    "name": "Stora Mellösa",
    "lat": 59.21667,
    "lng": 15.5
  },
  {
    "id": 2665570,
    "name": "Vallåkra",
    "lat": 55.96133,
    "lng": 12.85611
  },
  {
    "id": 2666982,
    "name": "Tureholm",
    "lat": 59.31667,
    "lng": 17.71667
  },
  {
    "id": 2726970,
    "name": "Ålem",
    "lat": 56.95,
    "lng": 16.38333
  },
  {
    "id": 2691401,
    "name": "Mora",
    "lat": 60.4,
    "lng": 15.6
  },
  {
    "id": 601931,
    "name": "Vittangi",
    "lat": 67.67589,
    "lng": 21.64204
  },
  {
    "id": 2703219,
    "name": "Järpås",
    "lat": 58.38333,
    "lng": 12.96667
  },
  {
    "id": 2685458,
    "name": "Östra Karup",
    "lat": 56.42608,
    "lng": 12.93595
  },
  {
    "id": 2675344,
    "name": "Sommen",
    "lat": 58.13333,
    "lng": 14.96667
  },
  {
    "id": 2696655,
    "name": "Lekeryd",
    "lat": 57.76667,
    "lng": 14.4
  },
  {
    "id": 2687696,
    "name": "Nykroppa",
    "lat": 59.62274,
    "lng": 14.30313
  },
  {
    "id": 2669066,
    "name": "Timmele",
    "lat": 57.85946,
    "lng": 13.42891
  },
  {
    "id": 2686566,
    "name": "Ölmanäs",
    "lat": 57.36241,
    "lng": 12.08839
  },
  {
    "id": 3331036,
    "name": "Skavkulla",
    "lat": 56.18333,
    "lng": 15.51667
  },
  {
    "id": 2705117,
    "name": "Holsbybrunn",
    "lat": 57.43333,
    "lng": 15.2
  },
  {
    "id": 2691264,
    "name": "Mörsil",
    "lat": 63.30906,
    "lng": 13.66356
  },
  {
    "id": 2707713,
    "name": "Harlösa",
    "lat": 55.71725,
    "lng": 13.52623
  },
  {
    "id": 2705702,
    "name": "Högsjö",
    "lat": 62.52177,
    "lng": 17.09133
  },
  {
    "id": 2690032,
    "name": "Nävekvarn",
    "lat": 58.63306,
    "lng": 16.8
  },
  {
    "id": 2711927,
    "name": "Glanshammar",
    "lat": 59.31667,
    "lng": 15.4
  },
  {
    "id": 2662905,
    "name": "Villshärad",
    "lat": 56.69466,
    "lng": 12.69586
  },
  {
    "id": 2662759,
    "name": "Vintrie",
    "lat": 55.55,
    "lng": 12.96667
  },
  {
    "id": 605493,
    "name": "Jörn",
    "lat": 65.05914,
    "lng": 20.03919
  },
  {
    "id": 2727570,
    "name": "Åbyggeby",
    "lat": 60.91667,
    "lng": 16.65
  },
  {
    "id": 2698707,
    "name": "Kungsgården",
    "lat": 60.6,
    "lng": 16.61667
  },
  {
    "id": 2662076,
    "name": "Ytternäs",
    "lat": 59.78333,
    "lng": 17.6
  },
  {
    "id": 2679747,
    "name": "Säve",
    "lat": 57.8,
    "lng": 11.91667
  },
  {
    "id": 2663308,
    "name": "Vessigebro",
    "lat": 56.98333,
    "lng": 12.65
  },
  {
    "id": 2725360,
    "name": "Arkelstorp",
    "lat": 56.2,
    "lng": 13.81667
  },
  {
    "id": 2714051,
    "name": "Fors",
    "lat": 60.20767,
    "lng": 16.30787
  },
  {
    "id": 606838,
    "name": "Alvik",
    "lat": 65.51667,
    "lng": 21.76667
  },
  {
    "id": 2710742,
    "name": "Grevie",
    "lat": 56.36667,
    "lng": 12.8
  },
  {
    "id": 2680615,
    "name": "Sälen",
    "lat": 61.15,
    "lng": 13.26667
  },
  {
    "id": 2674200,
    "name": "Steninge",
    "lat": 59.60199,
    "lng": 17.80459
  },
  {
    "id": 2682491,
    "name": "Rinkaby",
    "lat": 55.98333,
    "lng": 14.26667
  },
  {
    "id": 2703005,
    "name": "Johannishus",
    "lat": 56.21667,
    "lng": 15.41667
  },
  {
    "id": 2686438,
    "name": "Orrefors",
    "lat": 56.84058,
    "lng": 15.74599
  },
  {
    "id": 2664822,
    "name": "Väröbacka",
    "lat": 57.25,
    "lng": 12.18333
  },
  {
    "id": 2705393,
    "name": "Holm",
    "lat": 56.73948,
    "lng": 12.85462
  },
  {
    "id": 7283999,
    "name": "Sylta",
    "lat": 59.48014,
    "lng": 17.71631
  },
  {
    "id": 2669833,
    "name": "Sylta",
    "lat": 59.53333,
    "lng": 15.98333
  },
  {
    "id": 2685533,
    "name": "Östra Grevie",
    "lat": 55.46667,
    "lng": 13.13333
  },
  {
    "id": 2727748,
    "name": "Abbekås",
    "lat": 55.4,
    "lng": 13.6
  },
  {
    "id": 2713129,
    "name": "Gällö",
    "lat": 62.91275,
    "lng": 15.2319
  },
  {
    "id": 2679558,
    "name": "Segersäng",
    "lat": 59.02791,
    "lng": 17.93379
  },
  {
    "id": 2726416,
    "name": "Alster",
    "lat": 59.39853,
    "lng": 13.61369
  },
  {
    "id": 2726275,
    "name": "Älvnäs",
    "lat": 59.28333,
    "lng": 17.76667
  },
  {
    "id": 2663468,
    "name": "Vedevåg",
    "lat": 59.5269,
    "lng": 15.29254
  },
  {
    "id": 2681822,
    "name": "Ronnebyhamn",
    "lat": 56.18333,
    "lng": 15.3
  },
  {
    "id": 2724887,
    "name": "Åsensbruk",
    "lat": 58.79878,
    "lng": 12.42194
  },
  {
    "id": 2683296,
    "name": "Ramvik",
    "lat": 62.81667,
    "lng": 17.85
  },
  {
    "id": 2725439,
    "name": "Ardala",
    "lat": 58.36134,
    "lng": 13.33648
  },
  {
    "id": 2717093,
    "name": "Dvärsätt",
    "lat": 63.31667,
    "lng": 14.46667
  },
  {
    "id": 2705728,
    "name": "Högsäter",
    "lat": 59.9,
    "lng": 11.98333
  },
  {
    "id": 2693763,
    "name": "Ludvigsborg",
    "lat": 55.9,
    "lng": 13.6
  },
  {
    "id": 2667261,
    "name": "Trönningenäs",
    "lat": 57.13846,
    "lng": 12.22596
  },
  {
    "id": 2688053,
    "name": "Nusnäs",
    "lat": 60.96667,
    "lng": 14.63333
  },
  {
    "id": 2663197,
    "name": "Vidja",
    "lat": 59.2,
    "lng": 18.06667
  },
  {
    "id": 2703930,
    "name": "Idala",
    "lat": 55.62,
    "lng": 13.5
  },
  {
    "id": 2724706,
    "name": "Åsljunga",
    "lat": 56.31667,
    "lng": 13.36667
  },
  {
    "id": 2677773,
    "name": "Skee",
    "lat": 58.9257,
    "lng": 11.26931
  },
  {
    "id": 2718127,
    "name": "Dalstorp",
    "lat": 57.60405,
    "lng": 13.52317
  },
  {
    "id": 2674852,
    "name": "Sparreholm",
    "lat": 59.06667,
    "lng": 16.81667
  },
  {
    "id": 2701209,
    "name": "Kattarp",
    "lat": 56.14024,
    "lng": 12.78234
  },
  {
    "id": 2686166,
    "name": "Oskar-Fredriksborg",
    "lat": 59.4,
    "lng": 18.43333
  },
  {
    "id": 2699644,
    "name": "Korsberga",
    "lat": 57.30246,
    "lng": 15.12519
  },
  {
    "id": 2715094,
    "name": "Figeholm",
    "lat": 57.36667,
    "lng": 16.55
  },
  {
    "id": 2673847,
    "name": "Stidsvig",
    "lat": 56.2,
    "lng": 13.13333
  },
  {
    "id": 2673773,
    "name": "Stoby",
    "lat": 56.17772,
    "lng": 13.82828
  },
  {
    "id": 2690656,
    "name": "Myresjö",
    "lat": 57.38509,
    "lng": 14.96325
  },
  {
    "id": 2696846,
    "name": "Latorpsbruk",
    "lat": 59.27264,
    "lng": 14.98328
  },
  {
    "id": 2694589,
    "name": "Ljung",
    "lat": 57.98678,
    "lng": 13.05579
  },
  {
    "id": 2723402,
    "name": "Barnarp",
    "lat": 57.704,
    "lng": 14.178
  },
  {
    "id": 2726690,
    "name": "Allerum",
    "lat": 56.12009,
    "lng": 12.69406
  },
  {
    "id": 2694583,
    "name": "Ljunga",
    "lat": 58.51667,
    "lng": 16.35
  },
  {
    "id": 2716825,
    "name": "Edsvalla",
    "lat": 59.43472,
    "lng": 13.20887
  },
  {
    "id": 2678053,
    "name": "Skärplinge",
    "lat": 60.46667,
    "lng": 17.76667
  },
  {
    "id": 2722665,
    "name": "Bergvik",
    "lat": 61.25349,
    "lng": 16.82749
  },
  {
    "id": 2719085,
    "name": "Brösarp",
    "lat": 55.72442,
    "lng": 14.10254
  },
  {
    "id": 2675001,
    "name": "Sörvik",
    "lat": 64.13333,
    "lng": 15.71667
  },
  {
    "id": 2720078,
    "name": "Bottnaryd",
    "lat": 57.77186,
    "lng": 13.82631
  },
  {
    "id": 2713762,
    "name": "Fredriksberg",
    "lat": 60.13333,
    "lng": 14.38333
  },
  {
    "id": 2714349,
    "name": "Fliseryd",
    "lat": 57.13333,
    "lng": 16.26667
  },
  {
    "id": 2707828,
    "name": "Harbo",
    "lat": 60.1,
    "lng": 17.2
  },
  {
    "id": 2725384,
    "name": "Arild",
    "lat": 56.275,
    "lng": 12.575
  },
  {
    "id": 2722938,
    "name": "Berga",
    "lat": 57.21667,
    "lng": 16.03333
  },
  {
    "id": 2667907,
    "name": "Torsång",
    "lat": 60.46667,
    "lng": 15.56667
  },
  {
    "id": 2702876,
    "name": "Jössefors",
    "lat": 59.67295,
    "lng": 12.50335
  },
  {
    "id": 2723944,
    "name": "Bäckefors",
    "lat": 58.8049,
    "lng": 12.16202
  },
  {
    "id": 2713707,
    "name": "Fridlevstad",
    "lat": 56.27298,
    "lng": 15.53415
  },
  {
    "id": 2698721,
    "name": "Kungsberga",
    "lat": 59.40483,
    "lng": 17.62926
  },
  {
    "id": 2708248,
    "name": "Hamburgsund",
    "lat": 58.55254,
    "lng": 11.27268
  },
  {
    "id": 2703880,
    "name": "Idre",
    "lat": 61.85821,
    "lng": 12.71401
  },
  {
    "id": 2680282,
    "name": "Sandhem",
    "lat": 58.01667,
    "lng": 13.48333
  },
  {
    "id": 2700152,
    "name": "Knutby",
    "lat": 59.90867,
    "lng": 18.26568
  },
  {
    "id": 2673690,
    "name": "Stöde",
    "lat": 62.41917,
    "lng": 16.58727
  },
  {
    "id": 2714322,
    "name": "Floda",
    "lat": 60.5061,
    "lng": 14.79275
  },
  {
    "id": 2697030,
    "name": "Länna",
    "lat": 59.87149,
    "lng": 17.95125
  },
  {
    "id": 2682488,
    "name": "Rinkaby",
    "lat": 59.46667,
    "lng": 15.58333
  },
  {
    "id": 2675003,
    "name": "Sörvik",
    "lat": 60.18393,
    "lng": 15.15633
  },
  {
    "id": 2666562,
    "name": "Ullared",
    "lat": 57.13333,
    "lng": 12.71667
  },
  {
    "id": 2713368,
    "name": "Furuvik",
    "lat": 60.65,
    "lng": 17.33333
  },
  {
    "id": 2707878,
    "name": "Häradsbygden",
    "lat": 60.7,
    "lng": 15.03333
  },
  {
    "id": 2672259,
    "name": "Stora Vika",
    "lat": 58.95569,
    "lng": 17.78644
  },
  {
    "id": 2710703,
    "name": "Grimsås",
    "lat": 57.4838,
    "lng": 13.55027
  },
  {
    "id": 2665252,
    "name": "Valskog",
    "lat": 59.44179,
    "lng": 15.94429
  },
  {
    "id": 2705703,
    "name": "Högsjö",
    "lat": 59.02669,
    "lng": 15.66873
  },
  {
    "id": 2680890,
    "name": "Ryssby",
    "lat": 56.86667,
    "lng": 14.16667
  },
  {
    "id": 3331425,
    "name": "Sandskogen",
    "lat": 55.758,
    "lng": 12.98333
  },
  {
    "id": 2723365,
    "name": "Barsebäck",
    "lat": 55.76667,
    "lng": 12.95
  },
  {
    "id": 2717535,
    "name": "Djurmo",
    "lat": 60.55027,
    "lng": 15.18362
  },
  {
    "id": 2715063,
    "name": "Filsbäck",
    "lat": 58.492,
    "lng": 13.247
  },
  {
    "id": 2680889,
    "name": "Ryssby",
    "lat": 57.71667,
    "lng": 14.65
  },
  {
    "id": 2725105,
    "name": "Åryd",
    "lat": 56.82762,
    "lng": 14.97937
  },
  {
    "id": 2711862,
    "name": "Glommen",
    "lat": 57.93333,
    "lng": 12.35
  },
  {
    "id": 2685128,
    "name": "Otterbäcken",
    "lat": 58.95,
    "lng": 14.03333
  },
  {
    "id": 2694062,
    "name": "Lotorp",
    "lat": 58.73333,
    "lng": 15.83333
  },
  {
    "id": 2677361,
    "name": "Sköldinge",
    "lat": 59.03106,
    "lng": 16.44713
  },
  {
    "id": 2715667,
    "name": "Fagersanna",
    "lat": 58.46667,
    "lng": 14.3
  },
  {
    "id": 2708658,
    "name": "Hällekis",
    "lat": 58.62919,
    "lng": 13.43801
  },
  {
    "id": 601901,
    "name": "Vuollerim",
    "lat": 66.43038,
    "lng": 20.62434
  },
  {
    "id": 2679165,
    "name": "Silverdalen",
    "lat": 57.54095,
    "lng": 15.75104
  },
  {
    "id": 2725307,
    "name": "Årnäs",
    "lat": 57.20627,
    "lng": 12.21293
  },
  {
    "id": 2716393,
    "name": "Eldsberga",
    "lat": 56.6,
    "lng": 13.0
  },
  {
    "id": 2713802,
    "name": "Frånö",
    "lat": 62.90843,
    "lng": 17.84729
  },
  {
    "id": 2671248,
    "name": "Strömsholm",
    "lat": 59.52717,
    "lng": 16.243
  },
  {
    "id": 2679926,
    "name": "Särna",
    "lat": 61.69284,
    "lng": 13.14257
  },
  {
    "id": 2708774,
    "name": "Hällaryd",
    "lat": 56.2,
    "lng": 14.95
  },
  {
    "id": 2680283,
    "name": "Sandhem",
    "lat": 57.98333,
    "lng": 13.76667
  },
  {
    "id": 2678779,
    "name": "Sjörröd",
    "lat": 56.28333,
    "lng": 13.91667
  },
  {
    "id": 2709531,
    "name": "Gyttorp",
    "lat": 59.50503,
    "lng": 14.96661
  },
  {
    "id": 2692811,
    "name": "Månkarbo",
    "lat": 60.22822,
    "lng": 17.46213
  },
  {
    "id": 2699727,
    "name": "Koppom",
    "lat": 59.70348,
    "lng": 12.1542
  },
  {
    "id": 2709968,
    "name": "Gullbranna",
    "lat": 56.59167,
    "lng": 12.95
  },
  {
    "id": 2716957,
    "name": "Edane",
    "lat": 59.62918,
    "lng": 12.82564
  },
  {
    "id": 2680022,
    "name": "Sankt Olof",
    "lat": 55.63333,
    "lng": 14.13333
  },
  {
    "id": 2703975,
    "name": "Hyssna",
    "lat": 57.55726,
    "lng": 12.53841
  },
  {
    "id": 2696341,
    "name": "Lidhult",
    "lat": 56.83333,
    "lng": 13.43333
  },
  {
    "id": 2684391,
    "name": "Påryd",
    "lat": 56.56667,
    "lng": 15.91667
  },
  {
    "id": 602724,
    "name": "Stensjön",
    "lat": 64.98333,
    "lng": 21.1
  },
  {
    "id": 2681427,
    "name": "Rot",
    "lat": 61.25,
    "lng": 14.03333
  },
  {
    "id": 2664836,
    "name": "Varnhem",
    "lat": 58.38333,
    "lng": 13.65
  },
  {
    "id": 2722206,
    "name": "Björke",
    "lat": 60.76667,
    "lng": 17.2
  },