[
  {
    "id": 2365267,
    "name": "Lomé",
    "lat": 6.12874,
    "lng": 1.22154
  },
  {
    "id": 2364104,
    "name": "Sokodé",
    "lat": 8.98333,
    "lng": 1.13333
  },
  {
    "id": 2366152,
    "name": "Kara",
    "lat": 9.55111,
    "lng": 1.18611
  },
  {
    "id": 2367886,
    "name": "Atakpamé",
    "lat": 7.53333,
    "lng": 1.13333
  },
  {
    "id": 2365560,
    "name": "Kpalimé",
    "lat": 6.9,
    "lng": 0.63333
  },
  {
    "id": 2367568,
    "name": "Bassar",
    "lat": 9.25025,
    "lng": 0.78213
  },
  {
    "id": 2367164,
    "name": "Dapaong",
    "lat": 10.86225,
    "lng": 0.20762
  },
  {
    "id": 2363534,
    "name": "Tsévié",
    "lat": 6.42611,
    "lng": 1.21333
  },
  {
    "id": 2367990,
    "name": "Aného",
    "lat": 6.22798,
    "lng": 1.5919
  },
  {
    "id": 2365190,
    "name": "Mango",
    "lat": 10.35917,
    "lng": 0.47083
  },
  {
    "id": 2367981,
    "name": "Anié",
    "lat": 7.75,
    "lng": 1.2
  },
  {
    "id": 2364752,
    "name": "Notsé",
    "lat": 6.95,
    "lng": 1.16667
  },
  {
    "id": 2367226,
    "name": "Sinkassé",
    "lat": 11.10389,
    "lng": 0.00944
  },
  {
    "id": 2363908,
    "name": "Tchamba",
    "lat": 9.03333,
    "lng": 1.41667
  },
  {
    "id": 2364079,
    "name": "Sotouboua",
    "lat": 8.5634,
    "lng": 0.98399
  },
  {
    "id": 2367660,
    "name": "Badou",
    "lat": 7.58333,
    "lng": 0.6
  },
  {
    "id": 2364812,
    "name": "Niamtougou",
    "lat": 9.76806,
    "lng": 1.10528
  },
  {
    "id": 2367656,
    "name": "Bafilo",
    "lat": 9.35,
    "lng": 1.26667
  },
  {
    "id": 2364041,
    "name": "Tabligbo",
    "lat": 6.58333,
    "lng": 1.5
  },
  {
    "id": 2363490,
    "name": "Vogan",
    "lat": 6.33333,
    "lng": 1.53333
  }
]