[
  {
    "id": 2464470,
    "name": "Tunis",
    "lat": 36.81897,
    "lng": 10.16579
  },
  {
    "id": 2467454,
    "name": "Sfax",
    "lat": 34.74056,
    "lng": 10.76028
  },
  {
    "id": 2464915,
    "name": "Sousse",
    "lat": 35.82539,
    "lng": 10.63699
  },
  {
    "id": 2473449,
    "name": "Kairouan",
    "lat": 35.6781,
    "lng": 10.09633
  },
  {
    "id": 2472706,
    "name": "Bizerte",
    "lat": 37.27442,
    "lng": 9.87391
  },
  {
    "id": 2464960,
    "name": "Sukrah",
    "lat": 36.87744,
    "lng": 10.2468
  },
  {
    "id": 2473247,
    "name": "Aryanah",
    "lat": 36.86012,
    "lng": 10.19337
  },
  {
    "id": 2468369,
    "name": "Gabès",
    "lat": 33.88146,
    "lng": 10.0982
  },
  {
    "id": 2473164,
    "name": "Sejoumi",
    "lat": 36.75583,
    "lng": 10.11833
  },
  {
    "id": 11204413,
    "name": "El Mourouj",
    "lat": 36.71364,
    "lng": 10.2096
  },
  {
    "id": 2473744,
    "name": "Hammamet",
    "lat": 36.4,
    "lng": 10.61667
  },
  {
    "id": 2468353,
    "name": "Gafsa",
    "lat": 34.425,
    "lng": 8.78417
  },
  {
    "id": 7870240,
    "name": "La Gazelle",
    "lat": 36.89479,
    "lng": 10.18604
  },
  {
    "id": 2473493,
    "name": "Monastir",
    "lat": 35.77799,
    "lng": 10.82617
  },
  {
    "id": 2473540,
    "name": "La Marsa",
    "lat": 36.87818,
    "lng": 10.32466
  },
  {
    "id": 2472479,
    "name": "Ben Arous",
    "lat": 36.75452,
    "lng": 10.22167
  },
  {
    "id": 2473457,
    "name": "Kasserine",
    "lat": 35.16758,
    "lng": 8.83651
  },
  {
    "id": 13132712,
    "name": "Ettadhamen",
    "lat": 36.83246,
    "lng": 10.10995
  },
  {
    "id": 13132711,
    "name": "Douar Hicher",
    "lat": 36.82657,
    "lng": 10.08974
  },
  {
    "id": 2470656,
    "name": "La Goulette",
    "lat": 36.81919,
    "lng": 10.30646
  },
  {
    "id": 2470173,
    "name": "Zarzis",
    "lat": 33.50398,
    "lng": 11.11215
  },
  {
    "id": 2470384,
    "name": "Houmt Souk",
    "lat": 33.87576,
    "lng": 10.85745
  },
  {
    "id": 2473626,
    "name": "Le Kram",
    "lat": 36.83578,
    "lng": 10.31641
  },
  {
    "id": 2473747,
    "name": "El Hamma",
    "lat": 33.89152,
    "lng": 9.79629
  },
  {
    "id": 2469140,
    "name": "Msaken",
    "lat": 35.72917,
    "lng": 10.58082
  },
  {
    "id": 2472675,
    "name": "Le Bardo",
    "lat": 36.81058,
    "lng": 10.13481
  },
  {
    "id": 2469473,
    "name": "Medenine",
    "lat": 33.35495,
    "lng": 10.50548
  },
  {
    "id": 2468579,
    "name": "Nabeul",
    "lat": 36.45606,
    "lng": 10.73763
  },
  {
    "id": 2464701,
    "name": "Tataouine",
    "lat": 32.92967,
    "lng": 10.45177
  },
  {
    "id": 2473499,
    "name": "La Mohammedia",
    "lat": 36.67446,
    "lng": 10.15633
  },
  {
    "id": 2472431,
    "name": "Ben Gardane",
    "lat": 33.13783,
    "lng": 11.21965
  },
  {
    "id": 2467246,
    "name": "Skanes",
    "lat": 35.7749,
    "lng": 10.79464
  },
  {
    "id": 2473551,
    "name": "El Mgarsa",
    "lat": 33.81682,
    "lng": 10.9923
  },
  {
    "id": 2472774,
    "name": "Béja",
    "lat": 36.72564,
    "lng": 9.18169
  },
  {
    "id": 2581754,
    "name": "Douane",
    "lat": 36.44766,
    "lng": 10.7557
  },
  {
    "id": 2467815,
    "name": "Radès",
    "lat": 36.76946,
    "lng": 10.27468
  },
  {
    "id": 13132710,
    "name": "Mnihla",
    "lat": 36.84774,
    "lng": 10.11083
  },
  {
    "id": 2467959,
    "name": "Kélibia",
    "lat": 36.84757,
    "lng": 11.09386
  },
  {
    "id": 2464168,
    "name": "Oued Lill",
    "lat": 36.83408,
    "lng": 10.04057
  },
  {
    "id": 2473496,
    "name": "Moknine",
    "lat": 35.63333,
    "lng": 10.9
  },
  {
    "id": 2469264,
    "name": "Menzel Bourguiba",
    "lat": 37.15368,
    "lng": 9.78594
  },
  {
    "id": 2473634,
    "name": "El Kef",
    "lat": 36.17424,
    "lng": 8.70486
  },
  {
    "id": 2473483,
    "name": "Kelaa Kebira",
    "lat": 35.87278,
    "lng": 10.53722
  },
  {
    "id": 2467242,
    "name": "Sakiet ez Zit",
    "lat": 34.80194,
    "lng": 10.76361
  },
  {
    "id": 2473572,
    "name": "Mahdia",
    "lat": 35.50472,
    "lng": 11.06222
  },
  {
    "id": 2470088,
    "name": "Jendouba",
    "lat": 36.50114,
    "lng": 8.78024
  },
  {
    "id": 2470191,
    "name": "Djemmal",
    "lat": 35.62231,
    "lng": 10.75696
  },
  {
    "id": 2468106,
    "name": "Ksar Hellal",
    "lat": 35.64773,
    "lng": 10.89046
  },
  {
    "id": 2470588,
    "name": "Hammam-Lif",
    "lat": 36.72866,
    "lng": 10.34163
  },
  {
    "id": 2465840,
    "name": "Sidi Bouzid",
    "lat": 35.03823,
    "lng": 9.48494
  },
  {
    "id": 2471055,
    "name": "Fouchana",
    "lat": 36.70048,
    "lng": 10.1685
  },
  {
    "id": 2473835,
    "name": "El Ain",
    "lat": 34.8,
    "lng": 10.78333
  },
  {
    "id": 2470579,
    "name": "Hammam Sousse",
    "lat": 35.8609,
    "lng": 10.60313
  },
  {
    "id": 2471637,
    "name": "Dar Chabanne",
    "lat": 36.46798,
    "lng": 10.75167
  },
  {
    "id": 2473470,
    "name": "Gremda",
    "lat": 34.79075,
    "lng": 10.72059
  },
  {
    "id": 2469250,
    "name": "Menzel Temime",
    "lat": 36.78222,
    "lng": 10.9875
  },
  {
    "id": 2467920,
    "name": "Korba",
    "lat": 36.57861,
    "lng": 10.85861
  },
  {
    "id": 2473517,
    "name": "Metlaoui",
    "lat": 34.32081,
    "lng": 8.40157
  },
  {
    "id": 2467243,
    "name": "Sakiet ed Daier",
    "lat": 34.79435,
    "lng": 10.80617
  },
  {
    "id": 2464953,
    "name": "Soliman",
    "lat": 36.69639,
    "lng": 10.49167
  },
  {
    "id": 2464861,
    "name": "Teboulba",
    "lat": 35.64018,
    "lng": 10.96731
  },
  {
    "id": 2464648,
    "name": "Tozeur",
    "lat": 33.91968,
    "lng": 8.13352
  },
  {
    "id": 2467856,
    "name": "Ksour Essaf",
    "lat": 35.41808,
    "lng": 10.99475
  },
  {
    "id": 2586370,
    "name": "Ez Zahra",
    "lat": 36.74611,
    "lng": 10.30833
  },
  {
    "id": 2473481,
    "name": "Kalaa Srira",
    "lat": 35.82244,
    "lng": 10.55739
  },
  {
    "id": 2467521,
    "name": "La Sebala du Mornag",
    "lat": 36.67931,
    "lng": 10.29195
  },
  {
    "id": 2466698,
    "name": "Sidi Abid",
    "lat": 34.69999,
    "lng": 10.69501
  },
  {
    "id": 2469088,
    "name": "Mateur",
    "lat": 37.04045,
    "lng": 9.66557
  },
  {
    "id": 2469274,
    "name": "Manouba",
    "lat": 36.81006,
    "lng": 10.09557
  },
  {
    "id": 2468925,
    "name": "Midoun",
    "lat": 33.80813,
    "lng": 10.99228
  },
  {
    "id": 6692494,
    "name": "Borj Cedria",
    "lat": 36.69705,
    "lng": 10.38654
  },
  {
    "id": 2465030,
    "name": "Siliana",
    "lat": 36.08497,
    "lng": 9.37082
  },
  {
    "id": 2471287,
    "name": "Douz",
    "lat": 33.46632,
    "lng": 9.0203
  },
  {
    "id": 2471059,
    "name": "Feriana",
    "lat": 34.94529,
    "lng": 8.56789
  },
  {
    "id": 2473639,
    "name": "Jedeïda",
    "lat": 36.83111,
    "lng": 9.92417
  },
  {
    "id": 2467732,
    "name": "Rass el Djebel",
    "lat": 37.21572,
    "lng": 10.1253
  },
  {
    "id": 2471012,
    "name": "Rhennouch",
    "lat": 33.94055,
    "lng": 10.06439
  },
  {
    "id": 2464858,
    "name": "Tebourba",
    "lat": 36.82933,
    "lng": 9.83935
  },
  {
    "id": 2473913,
    "name": "Akouda",
    "lat": 35.8691,
    "lng": 10.5653
  },
  {
    "id": 2473257,
    "name": "Ar Rudayyif",
    "lat": 34.3827,
    "lng": 8.15549
  },
  {
    "id": 2469230,
    "name": "Mégrine",
    "lat": 36.76917,
    "lng": 10.23639
  },
  {
    "id": 2468018,
    "name": "Kebili",
    "lat": 33.70439,
    "lng": 8.96903
  },
  {
    "id": 2584420,
    "name": "Dar el Haj Taïeb",
    "lat": 34.78444,
    "lng": 10.74389
  },
  {
    "id": 2473937,
    "name": "Ajim",
    "lat": 33.72638,
    "lng": 10.75664
  },
  {
    "id": 2467898,
    "name": "Grombalia",
    "lat": 36.59894,
    "lng": 10.50032
  },
  {
    "id": 2464979,
    "name": "Sbeitla",
    "lat": 35.23151,
    "lng": 9.12321
  },
  {
    "id": 2468285,
    "name": "El Fahs",
    "lat": 36.37419,
    "lng": 9.90651
  },
  {
    "id": 2469386,
    "name": "Medjez el Bab",
    "lat": 36.64964,
    "lng": 9.61231
  },
  {
    "id": 2469256,
    "name": "Menzel Jemil",
    "lat": 37.23618,
    "lng": 9.91448
  },
  {
    "id": 2473229,
    "name": "Chebba",
    "lat": 35.23722,
    "lng": 11.115
  },
  {
    "id": 2464804,
    "name": "Takelsa",
    "lat": 36.78333,
    "lng": 10.63333
  },
  {
    "id": 7870039,
    "name": "Ouerdanine",
    "lat": 35.69006,
    "lng": 10.67598
  },
  {
    "id": 2468561,
    "name": "Nefta",
    "lat": 33.87309,
    "lng": 7.87765
  },
  {
    "id": 2472722,
    "name": "Beni Khiar",
    "lat": 36.46917,
    "lng": 10.78222
  },
  {
    "id": 2473654,
    "name": "El Jem",
    "lat": 35.3,
    "lng": 10.71667
  },
  {
    "id": 2464378,
    "name": "Moularès",
    "lat": 34.4888,
    "lng": 8.26874
  },
  {
    "id": 2464522,
    "name": "Tinja",
    "lat": 37.15964,
    "lng": 9.7606
  },
  {
    "id": 2463941,
    "name": "Zaouiet Sousse",
    "lat": 35.78553,
    "lng": 10.62725
  },
  {
    "id": 2471956,
    "name": "Bou Salem",
    "lat": 36.60732,
    "lng": 8.96981
  },
  {
    "id": 2464041,
    "name": "Zaghouan",
    "lat": 36.40291,
    "lng": 10.14292
  },
  {
    "id": 2473489,
    "name": "La Mornaghia",
    "lat": 36.75898,
    "lng": 10.01704
  },
  {
    "id": 2464871,
    "name": "Tabarka",
    "lat": 36.95442,
    "lng": 8.75801
  },
  {
    "id": 2471003,
    "name": "Ghardimaou",
    "lat": 36.44788,
    "lng": 8.4413
  },
  {
    "id": 2464809,
    "name": "Tajerouine",
    "lat": 35.89174,
    "lng": 8.55276
  },
  {
    "id": 2469268,
    "name": "Menzel Abderhaman",
    "lat": 37.23737,
    "lng": 9.86313
  },
  {
    "id": 2469081,
    "name": "Maatmeur",
    "lat": 35.75167,
    "lng": 10.69083
  },
  {
    "id": 2471475,
    "name": "Douar Tindja",
    "lat": 37.16667,
    "lng": 9.75
  },
  {
    "id": 2469262,
    "name": "Mennzel Bou Zelfa",
    "lat": 36.68312,
    "lng": 10.58431
  },
  {
    "id": 2473876,
    "name": "El Alia",
    "lat": 37.16911,
    "lng": 10.03478
  },
  {
    "id": 2473420,
    "name": "Ouardenine",
    "lat": 35.70915,
    "lng": 10.67397
  },
  {
    "id": 2464795,
    "name": "Thala",
    "lat": 35.57244,
    "lng": 8.67031
  },
  {
    "id": 2468329,
    "name": "Galaat el Andeless",
    "lat": 37.0629,
    "lng": 10.11829
  },
  {
    "id": 2473826,
    "name": "Bekalta",
    "lat": 35.61739,
    "lng": 10.99466
  },
  {
    "id": 11204573,
    "name": "Ezzouhour",
    "lat": 35.79014,
    "lng": 10.58264
  },
  {
    "id": 13132709,
    "name": "Chenini Nahal",
    "lat": 33.87223,
    "lng": 10.05521
  },
  {
    "id": 2468245,
    "name": "Carthage",
    "lat": 36.86108,
    "lng": 10.33161
  },
  {
    "id": 2464860,
    "name": "Teboulbou",
    "lat": 33.8455,
    "lng": 10.11423
  },
  {
    "id": 2472838,
    "name": "Zeramedine",
    "lat": 35.57525,
    "lng": 10.73456
  },
  {
    "id": 13132708,
    "name": "Bembla et Mnara",
    "lat": 35.6991,
    "lng": 10.7952
  },
  {
    "id": 2473570,
    "name": "Mahires",
    "lat": 34.5275,
    "lng": 10.50083
  },
  {
    "id": 2473633,
    "name": "Kellabine",
    "lat": 34.70882,
    "lng": 11.2147
  },
  {
    "id": 2472724,
    "name": "Beni Khalled",
    "lat": 36.65038,
    "lng": 10.59004
  },
  {
    "id": 2473513,
    "name": "El Maknassi",
    "lat": 34.60433,
    "lng": 9.60815
  },
  {
    "id": 2469341,
    "name": "Maktar",
    "lat": 35.85798,
    "lng": 9.20072
  },
  {
    "id": 2473738,
    "name": "Erriadh",
    "lat": 33.82063,
    "lng": 10.85394
  },
  {
    "id": 13132707,
    "name": "Bennane Bodheur",
    "lat": 35.67534,
    "lng": 10.83579
  },
  {
    "id": 2473454,
    "name": "El Guetar",
    "lat": 34.33628,
    "lng": 8.94964
  },
  {
    "id": 2473190,
    "name": "Sahline",
    "lat": 35.75166,
    "lng": 10.71109
  },
  {
    "id": 2464704,
    "name": "Testour",
    "lat": 36.5513,
    "lng": 9.44307
  },
  {
    "id": 2471788,
    "name": "Dahmani",
    "lat": 35.94388,
    "lng": 8.82778
  },
  {
    "id": 11862824,
    "name": "Souk Lahad",
    "lat": 33.77579,
    "lng": 8.85992
  },
  {
    "id": 2472261,
    "name": "Bou Arada",
    "lat": 36.35251,
    "lng": 9.62175
  },
  {
    "id": 2467890,
    "name": "Ksibet el Mediouni",
    "lat": 35.68561,
    "lng": 10.84256
  },
  {
    "id": 2473169,
    "name": "Seïada",
    "lat": 35.66887,
    "lng": 10.89246
  },
  {
    "id": 13132706,
    "name": "Menzel Hayet",
    "lat": 35.54206,
    "lng": 10.57436
  },
  {
    "id": 2473538,
    "name": "Messadine",
    "lat": 35.76444,
    "lng": 10.59694
  },
  {
    "id": 2473578,
    "name": "M’dhilla",
    "lat": 34.25101,
    "lng": 8.74704
  },
  {
    "id": 2464855,
    "name": "Tabursuq",
    "lat": 36.45692,
    "lng": 9.24751
  },
  {
    "id": 2472744,
    "name": "Banbalah",
    "lat": 35.7,
    "lng": 10.8
  },
  {
    "id": 2471915,
    "name": "Bou Arkoub",
    "lat": 36.53853,
    "lng": 10.55093
  },
  {
    "id": 2471944,
    "name": "Bou Chemma",
    "lat": 33.90248,
    "lng": 10.05976
  },
  {
    "id": 2473177,
    "name": "As Sars",
    "lat": 36.0764,
    "lng": 9.02117
  },
  {
    "id": 2473161,
    "name": "Skhira",
    "lat": 34.2992,
    "lng": 10.06999
  },
  {
    "id": 2463988,
    "name": "Zriba-Village",
    "lat": 36.34265,
    "lng": 10.24905
  },
  {
    "id": 13132705,
    "name": "Menzel Ennour",
    "lat": 35.66872,
    "lng": 10.78085
  },
  {
    "id": 2469174,
    "name": "Mareth",
    "lat": 33.61794,
    "lng": 10.28536
  },
  {
    "id": 2473859,
    "name": "Agareb",
    "lat": 34.74059,
    "lng": 10.52527
  },
  {
    "id": 2473258,
    "name": "Er Regueb",
    "lat": 34.85932,
    "lng": 9.78654
  },
  {
    "id": 2465146,
    "name": "Sidi Tabet",
    "lat": 36.9099,
    "lng": 10.04222
  },
  {
    "id": 2467889,
    "name": "Ksiba",
    "lat": 35.76972,
    "lng": 10.62806
  },
  {
    "id": 2469766,
    "name": "Khunays",
    "lat": 35.71667,
    "lng": 10.81667
  },
  {
    "id": 2473358,
    "name": "Enfidha",
    "lat": 36.13528,
    "lng": 10.38083
  },
  {
    "id": 2473531,
    "name": "Métouia",
    "lat": 33.95918,
    "lng": 9.99619
  },
  {
    "id": 2585234,
    "name": "Hajeb el Aïoun",
    "lat": 35.39564,
    "lng": 9.5438
  },
  {
    "id": 2470996,
    "name": "Rhar el Melah",
    "lat": 37.16939,
    "lng": 10.19064
  },
  {
    "id": 2473274,
    "name": "Rejiche",
    "lat": 35.46665,
    "lng": 11.03848
  },
  {
    "id": 2466034,
    "name": "Sidi Bou Ali",
    "lat": 35.95667,
    "lng": 10.47306
  },
  {
    "id": 2468349,
    "name": "Gafour",
    "lat": 36.32045,
    "lng": 9.32424
  },
  {
    "id": 2464179,
    "name": "Wadhraf",
    "lat": 33.98332,
    "lng": 9.97044
  },
  {
    "id": 2473533,
    "name": "Al Matlīn",
    "lat": 37.24516,
    "lng": 10.05
  },
  {
    "id": 2467813,
    "name": "Rafrāf",
    "lat": 37.19043,
    "lng": 10.18365
  },
  {
    "id": 2470146,
    "name": "Jerissa",
    "lat": 35.84509,
    "lng": 8.63028
  },
  {
    "id": 2472913,
    "name": "Aïne Draham",
    "lat": 36.77873,
    "lng": 8.68735
  },
  {
    "id": 2470927,
    "name": "Ghomrassen",
    "lat": 33.05936,
    "lng": 10.33712
  },
  {
    "id": 2473183,
    "name": "As Sanad",
    "lat": 34.4628,
    "lng": 9.26404
  },
  {
    "id": 2473716,
    "name": "El Haouaria",
    "lat": 37.05002,
    "lng": 11.01442
  },
  {
    "id": 2464637,
    "name": "Tazarka",
    "lat": 36.55367,
    "lng": 10.83868
  },
  {
    "id": 11862748,
    "name": "Ben Aoun",
    "lat": 34.85261,
    "lng": 9.14391
  },
  {
    "id": 2470586,
    "name": "Hammam el Rhezez",
    "lat": 36.87483,
    "lng": 11.10837
  },
  {
    "id": 2473417,
    "name": "Ousseltia",
    "lat": 35.84778,
    "lng": 9.58944
  },
  {
    "id": 2472732,
    "name": "Beni Hassane",
    "lat": 35.5672,
    "lng": 10.80869
  },
  {
    "id": 2470800,
    "name": "Haffouz",
    "lat": 35.63235,
    "lng": 9.67624
  },
  {
    "id": 2473608,
    "name": "Khledia",
    "lat": 36.64609,
    "lng": 10.19343
  },
  {
    "id": 2466294,
    "name": "Sidi Ameur",
    "lat": 35.75,
    "lng": 10.7
  },
  {
    "id": 2469255,
    "name": "Menzel Kamel",
    "lat": 35.62477,
    "lng": 10.66727
  },
  {
    "id": 11778224,
    "name": "Maagoula",
    "lat": 36.70903,
    "lng": 9.21195
  },
  {
    "id": 2472375,
    "name": "Bir M’cherga",
    "lat": 36.51815,
    "lng": 9.95792
  },
  {
    "id": 2468328,
    "name": "Kalaat es Senam",
    "lat": 35.76819,
    "lng": 8.34234
  },
  {
    "id": 2471454,
    "name": "Degache",
    "lat": 33.97606,
    "lng": 8.2081
  },
  {
    "id": 13132703,
    "name": "Amiret Hajjaj",
    "lat": 35.50128,
    "lng": 10.82032
  },
  {
    "id": 2473558,
    "name": "El Maamoura",
    "lat": 36.46499,
    "lng": 10.80612
  },
  {
    "id": 2473163,
    "name": "Sbikha",
    "lat": 35.93325,
    "lng": 10.02081
  },
  {
    "id": 2468187,
    "name": "Ksar el Ababsa",
    "lat": 33.15,
    "lng": 10.36667
  },
  {
    "id": 2473486,
    "name": "El Golaa",
    "lat": 33.48485,
    "lng": 9.00678
  },
  {
    "id": 2463951,
    "name": "Zaouiat Djedidi",
    "lat": 36.64375,
    "lng": 10.57428
  },
  {
    "id": 2473628,
    "name": "Le Krib",
    "lat": 36.32802,
    "lng": 9.13613
  },
  {
    "id": 2465108,
    "name": "Sidi Amor Bou Hajela",
    "lat": 35.39742,
    "lng": 10.0477
  },
  {
    "id": 2471700,
    "name": "Dar Ouled Khalifa",
    "lat": 35.35,
    "lng": 8.61667
  },
  {
    "id": 2465138,
    "name": "Sidi Alouane",
    "lat": 35.37505,
    "lng": 10.93899
  },
  {
    "id": 2473742,
    "name": "Hencha",
    "lat": 35.12226,
    "lng": 10.74219
  },
  {
    "id": 2473643,
    "name": "Djebibina",
    "lat": 36.11667,
    "lng": 10.1
  },
  {
    "id": 11239116,
    "name": "Nouvelle Matmata",
    "lat": 33.63,
    "lng": 10.06
  },
  {
    "id": 13132702,
    "name": "Kerker",
    "lat": 35.4816,
    "lng": 10.64215
  },
  {
    "id": 2470483,
    "name": "Harqalah",
    "lat": 36.03027,
    "lng": 10.50904
  },
  {
    "id": 2473811,
    "name": "El Bahira",
    "lat": 35.33333,
    "lng": 11.0
  },
  {
    "id": 2473525,
    "name": "Mezzouna",
    "lat": 34.57758,
    "lng": 9.84193
  },
  {
    "id": 2473662,
    "name": "Djebel Abiod",
    "lat": 36.97616,
    "lng": 9.07845
  },
  {
    "id": 2464427,
    "name": "Touza",
    "lat": 35.63544,
    "lng": 10.82732
  },
  {
    "id": 2470189,
    "name": "Jemna",
    "lat": 33.57778,
    "lng": 9.01472
  },
  {
    "id": 2466688,
    "name": "Sidi Bou Said",
    "lat": 36.8687,
    "lng": 10.34174
  },
  {
    "id": 2470260,
    "name": "Djebeniana",
    "lat": 35.035,
    "lng": 10.90809
  },
  {
    "id": 13132701,
    "name": "Menzel Bouzaiane",
    "lat": 34.5732,
    "lng": 9.42567
  },
  {
    "id": 2473172,
    "name": "Es Somaa",
    "lat": 36.54364,
    "lng": 10.78065
  },
  {
    "id": 2469321,
    "name": "Melloulèche",
    "lat": 35.16617,
    "lng": 11.03504
  },
  {
    "id": 2464569,
    "name": "Thelepte",
    "lat": 34.97776,
    "lng": 8.59264
  },
  {
    "id": 2463945,
    "name": "Zaouiet Kountech",
    "lat": 35.63333,
    "lng": 10.76667
  },
  {
    "id": 2584860,
    "name": "Borj el Amri",
    "lat": 36.71309,
    "lng": 9.88246
  },
  {
    "id": 2467506,
    "name": "Sbiba",
    "lat": 35.54332,
    "lng": 9.0737
  },
  {
    "id": 2472380,
    "name": "Bir el Hafey",
    "lat": 34.93212,
    "lng": 9.19321
  },
  {
    "id": 2471992,
    "name": "Borj Mejen Bel Abbès",
    "lat": 34.7501,
    "lng": 8.51976
  },
  {
    "id": 2470578,
    "name": "El-Hamma-Djerid",
    "lat": 34.01152,
    "lng": 8.15308
  },
  {
    "id": 2473823,
    "name": "El Battan",
    "lat": 36.80368,
    "lng": 9.84424
  },
  {
    "id": 2467239,
    "name": "Sakiet Sidi Youssef",
    "lat": 36.22292,
    "lng": 8.35547
  },
  {
    "id": 2467783,
    "name": "Remada",
    "lat": 32.31662,
    "lng": 10.39551
  },
  {
    "id": 13132700,
    "name": "Amiret Touazra",
    "lat": 35.48639,
    "lng": 10.76283
  },
  {
    "id": 2472196,
    "name": "Bou Hadjar",
    "lat": 35.68333,
    "lng": 10.86667
  },
  {
    "id": 6355180,
    "name": "Port el Kantaoui",
    "lat": 35.89239,
    "lng": 10.59434
  },
  {
    "id": 2470120,
    "name": "Jilma",
    "lat": 35.27311,
    "lng": 9.42385
  },
  {
    "id": 2469571,
    "name": "Lemta",
    "lat": 35.66667,
    "lng": 10.88333
  },
  {
    "id": 2467368,
    "name": "Sejenane",
    "lat": 37.05722,
    "lng": 9.23806
  },
  {
    "id": 2466897,
    "name": "Chorbane",
    "lat": 35.28581,
    "lng": 10.3858
  },
  {
    "id": 2472837,
    "name": "Zarat",
    "lat": 33.66655,
    "lng": 10.34896
  },
  {
    "id": 2473439,
    "name": "El Ksour",
    "lat": 35.89607,
    "lng": 8.88493
  },
  {
    "id": 2469258,
    "name": "Menzel Heurr",
    "lat": 36.72818,
    "lng": 10.95757
  },
  {
    "id": 2464020,
    "name": "Souassi",
    "lat": 35.34325,
    "lng": 10.54745
  },
  {
    "id": 2463946,
    "name": "Zaouiet Medien",
    "lat": 36.76767,
    "lng": 9.08894
  },
  {
    "id": 2466936,
    "name": "Cheylus",
    "lat": 36.55722,
    "lng": 10.06
  },
  {
    "id": 13132698,
    "name": "Amiret El Fhoul",
    "lat": 35.44446,
    "lng": 10.82765
  },
  {
    "id": 8335221,
    "name": "Aousja",
    "lat": 37.1413,
    "lng": 10.10174
  },
  {
    "id": 11204409,
    "name": "Chehimet Nord",
    "lat": 35.43405,
    "lng": 10.39448
  },
  {
    "id": 2471726,
    "name": "Dar Ali Ben Hassene",
    "lat": 35.5,
    "lng": 10.7
  },
  {
    "id": 2463948,
    "name": "Zaouiet Azmour",
    "lat": 36.92441,
    "lng": 11.0078
  },
  {
    "id": 7870038,
    "name": "Nasrallah",
    "lat": 35.35609,
    "lng": 9.83071
  },
  {
    "id": 2467820,
    "name": "Robâa Ouled Yahia",
    "lat": 36.09399,
    "lng": 9.56736
  },
  {
    "id": 2472379,
    "name": "Bir Ali Ben Khalifa",
    "lat": 34.73592,
    "lng": 10.0924
  },
  {
    "id": 2473537,
    "name": "El Masdour",
    "lat": 35.68206,
    "lng": 10.72746
  },
  {
    "id": 7870035,
    "name": "Rouhia",
    "lat": 35.69778,
    "lng": 9.14561
  },
  {
    "id": 2473788,
    "name": "Fernana",
    "lat": 36.65547,
    "lng": 8.69602
  },
  {
    "id": 2470506,
    "name": "Hennchir Ksar Rhaleb",
    "lat": 36.98333,
    "lng": 11.05
  },
  {
    "id": 2466075,
    "name": "Sidi Ben Nour",
    "lat": 35.53333,
    "lng": 10.91667
  },
  {
    "id": 2470649,
    "name": "Hamadet el Kebalou",
    "lat": 35.5,
    "lng": 10.86667
  },
  {
    "id": 7870034,
    "name": "Jedelienne",
    "lat": 35.59316,
    "lng": 9.05987
  },
  {
    "id": 2472119,
    "name": "Bou Merdès",
    "lat": 35.45716,
    "lng": 10.72809
  },
  {
    "id": 2474031,
    "name": "Dehiba",
    "lat": 32.00799,
    "lng": 10.70135
  },
  {
    "id": 2473264,
    "name": "Rohia",
    "lat": 35.65129,
    "lng": 9.05306
  },
  {
    "id": 2473514,
    "name": "El Mida",
    "lat": 36.72556,
    "lng": 10.85528
  },
  {
    "id": 2467980,
    "name": "Goubellat",
    "lat": 36.54178,
    "lng": 9.66334
  },
  {
    "id": 2587782,
    "name": "Menzel M’heri",
    "lat": 35.42031,
    "lng": 9.84899
  },
  {
    "id": 11821621,
    "name": "Kondhar",
    "lat": 35.93265,
    "lng": 10.30234
  },
  {
    "id": 2464037,
    "name": "Zahānah",
    "lat": 37.03959,
    "lng": 10.03876
  },
  {
    "id": 13132696,
    "name": "Menzel Fersi",
    "lat": 35.5515,
    "lng": 10.86952
  },
  {
    "id": 2472726,
    "name": "Beni Kheddache",
    "lat": 33.25279,
    "lng": 10.19883
  },
  {
    "id": 2467914,
    "name": "Korbous",
    "lat": 36.81668,
    "lng": 10.56865
  },
  {
    "id": 2468459,
    "name": "Nibbar",
    "lat": 36.29411,
    "lng": 8.76657
  },
  {
    "id": 2467341,
    "name": "Salakta",
    "lat": 35.39444,
    "lng": 11.04361
  },
  {
    "id": 2470789,
    "name": "Haïdra",
    "lat": 35.56626,
    "lng": 8.44412
  },
  {
    "id": 11862814,
    "name": "El Amra",
    "lat": 35.14795,
    "lng": 9.28111
  },
  {
    "id": 2473883,
    "name": "El Ala",
    "lat": 35.61384,
    "lng": 9.56256
  },
  {
    "id": 2465879,
    "name": "Sidi Bou Rouis",
    "lat": 36.17665,
    "lng": 9.1235
  },
  {
    "id": 2473776,
    "name": "Ghraiba",
    "lat": 34.49555,
    "lng": 10.21113
  },
  {
    "id": 2473803,
    "name": "El Borma",
    "lat": 31.69172,
    "lng": 9.2062
  },
  {
    "id": 13132695,
    "name": "Hebira",
    "lat": 35.16815,
    "lng": 10.22933
  },
  {
    "id": 2571434,
    "name": "Dar Haj Ahmed Ben Ameur",
    "lat": 35.66564,
    "lng": 9.96665
  },
  {
    "id": 2473851,
    "name": "El Aroussa",
    "lat": 36.38333,
    "lng": 9.45
  },
  {
    "id": 2469252,
    "name": "Menzel Salem",
    "lat": 35.85673,
    "lng": 8.47654
  },
  {
    "id": 2466499,
    "name": "Sidi el Hani",
    "lat": 35.67139,
    "lng": 10.31583
  },
  {
    "id": 2464770,
    "name": "Tamaghzah",
    "lat": 34.38849,
    "lng": 7.94313
  },
  {
    "id": 2469744,
    "name": "Kesra",
    "lat": 35.81363,
    "lng": 9.36434
  },
  {
    "id": 2472247,
    "name": "Bou Attouche",
    "lat": 33.89927,
    "lng": 9.78496
  },
  {
    "id": 2470028,
    "name": "Kalaat Khasba",
    "lat": 35.66259,
    "lng": 8.58577
  },
  {
    "id": 2473900,
    "name": "El Abadlia",
    "lat": 35.1399,
    "lng": 9.85316
  },
  {
    "id": 2464157,
    "name": "Wadi Maliz",
    "lat": 36.46813,
    "lng": 8.54951
  },
  {
    "id": 2463810,
    "name": "Matmata",
    "lat": 33.54445,
    "lng": 9.97157
  },
  {
    "id": 2469251,
    "name": "Menzel Chaker",
    "lat": 34.96472,
    "lng": 10.36944
  },
  {
    "id": 13132694,
    "name": "Touiref",
    "lat": 36.34058,
    "lng": 8.58696
  },
  {
    "id": 2467077,
    "name": "Chebika",
    "lat": 34.31909,
    "lng": 7.93519
  },
  {
    "id": 2472888,
    "name": "Ain Jaloulah",
    "lat": 35.79972,
    "lng": 9.80477
  },
  {
    "id": 2586938,
    "name": "Ailet Jridani",
    "lat": 35.10051,
    "lng": 10.03425
  },
  {
    "id": 2464050,
    "name": "Zaafrane",
    "lat": 33.44269,
    "lng": 8.92065
  },
  {
    "id": 2472439,
    "name": "Ben Metir",
    "lat": 36.75444,
    "lng": 8.75139
  },
  {
    "id": 2473173,
    "name": "Es Souda",
    "lat": 35.10107,
    "lng": 9.53446
  }
]