[
  {
    "id": 1512569,
    "name": "Tashkent",
    "lat": 41.26465,
    "lng": 69.21627
  },
  {
    "id": 1514588,
    "name": "Andijon",
    "lat": 40.78338,
    "lng": 72.35067
  },
  {
    "id": 1513157,
    "name": "Namangan",
    "lat": 40.9983,
    "lng": 71.67257
  },
  {
    "id": 1216265,
    "name": "Samarkand",
    "lat": 39.65456,
    "lng": 66.96445
  },
  {
    "id": 601294,
    "name": "Nukus",
    "lat": 42.45861,
    "lng": 59.60576
  },
  {
    "id": 1514019,
    "name": "Fergana",
    "lat": 40.38421,
    "lng": 71.78432
  },
  {
    "id": 1217662,
    "name": "Bukhara",
    "lat": 39.77026,
    "lng": 64.43069
  },
  {
    "id": 1216311,
    "name": "Qarshi",
    "lat": 38.86056,
    "lng": 65.78905
  },
  {
    "id": 1512979,
    "name": "Qo‘qon",
    "lat": 40.52861,
    "lng": 70.9425
  },
  {
    "id": 1513243,
    "name": "Marg‘ilon",
    "lat": 40.47237,
    "lng": 71.72463
  },
  {
    "id": 1514581,
    "name": "Angren",
    "lat": 41.01667,
    "lng": 70.14361
  },
  {
    "id": 1215957,
    "name": "Tirmiz",
    "lat": 37.22417,
    "lng": 67.27833
  },
  {
    "id": 1513886,
    "name": "Jizzax",
    "lat": 40.13351,
    "lng": 67.82956
  },
  {
    "id": 1514210,
    "name": "Chirchiq",
    "lat": 41.46889,
    "lng": 69.58222
  },
  {
    "id": 1512473,
    "name": "Urganch",
    "lat": 41.55177,
    "lng": 60.63143
  },
  {
    "id": 1513131,
    "name": "Navoiy",
    "lat": 40.08444,
    "lng": 65.37917
  },
  {
    "id": 1216187,
    "name": "Shahrisabz",
    "lat": 39.05778,
    "lng": 66.83417
  },
  {
    "id": 1513064,
    "name": "Olmaliq",
    "lat": 40.84472,
    "lng": 69.59833
  },
  {
    "id": 1513604,
    "name": "Xiva",
    "lat": 41.38555,
    "lng": 60.36408
  },
  {
    "id": 1514192,
    "name": "Chust",
    "lat": 41.00329,
    "lng": 71.23791
  },
  {
    "id": 1514402,
    "name": "Bekobod",
    "lat": 40.22083,
    "lng": 69.26972
  },
  {
    "id": 1514382,
    "name": "Beshariq",
    "lat": 40.43583,
    "lng": 70.61028
  },
  {
    "id": 1513331,
    "name": "Quvasoy",
    "lat": 40.29721,
    "lng": 71.98026
  },
  {
    "id": 1216982,
    "name": "Kattaqo’rg’on Shahri",
    "lat": 39.90546,
    "lng": 66.26556
  },
  {
    "id": 1513966,
    "name": "Guliston",
    "lat": 40.49536,
    "lng": 68.77542
  },
  {
    "id": 601323,
    "name": "Qŭnghirot",
    "lat": 43.04333,
    "lng": 58.83944
  },
  {
    "id": 1217474,
    "name": "Denov",
    "lat": 38.26746,
    "lng": 67.89886
  },
  {
    "id": 1512832,
    "name": "Shahrixon",
    "lat": 40.71331,
    "lng": 72.05706
  },
  {
    "id": 1217007,
    "name": "Koson",
    "lat": 39.0375,
    "lng": 65.585
  },
  {
    "id": 601339,
    "name": "Xo‘jayli Shahri",
    "lat": 42.40881,
    "lng": 59.44544
  },
  {
    "id": 1514387,
    "name": "Beruniy",
    "lat": 41.69111,
    "lng": 60.7525
  },
  {
    "id": 1215839,
    "name": "Urgut Shahri",
    "lat": 39.41902,
    "lng": 67.26118
  },
  {
    "id": 1217180,
    "name": "Kogon Shahri",
    "lat": 39.72746,
    "lng": 64.55466
  },
  {
    "id": 1513271,
    "name": "Asaka",
    "lat": 40.64153,
    "lng": 72.23868
  },
  {
    "id": 1512339,
    "name": "Yangiyŭl",
    "lat": 41.11202,
    "lng": 69.0471
  },
  {
    "id": 1513017,
    "name": "Parkent",
    "lat": 41.29444,
    "lng": 69.67639
  },
  {
    "id": 601417,
    "name": "Oltinko‘l",
    "lat": 43.06874,
    "lng": 58.90372
  },
  {
    "id": 1514258,
    "name": "Chortoq",
    "lat": 41.06924,
    "lng": 71.82372
  },
  {
    "id": 1512524,
    "name": "Tŭytepa",
    "lat": 41.0321,
    "lng": 69.36253
  },
  {
    "id": 1513962,
    "name": "Gurlan",
    "lat": 41.84123,
    "lng": 60.39268
  },
  {
    "id": 1513714,
    "name": "Kosonsoy",
    "lat": 41.24944,
    "lng": 71.54738
  },
  {
    "id": 1513092,
    "name": "Novyy Turtkul’",
    "lat": 41.55,
    "lng": 61.01667
  },
  {
    "id": 1526979,
    "name": "Quva",
    "lat": 40.52204,
    "lng": 72.07292
  },
  {
    "id": 1512342,
    "name": "Yangiyer",
    "lat": 40.275,
    "lng": 68.8225
  },
  {
    "id": 1513578,
    "name": "Xonobod",
    "lat": 40.8026,
    "lng": 72.97499
  },
  {
    "id": 1513983,
    "name": "G’ijduvon Shahri",
    "lat": 40.10223,
    "lng": 64.68226
  },
  {
    "id": 1216787,
    "name": "Kitob",
    "lat": 39.12158,
    "lng": 66.88605
  },
  {
    "id": 1512501,
    "name": "Uchqŭrghon Shahri",
    "lat": 41.11371,
    "lng": 72.07915
  },
  {
    "id": 1217926,
    "name": "Oqtosh",
    "lat": 39.92139,
    "lng": 65.92528
  },
  {
    "id": 1513072,
    "name": "Ohangaron",
    "lat": 40.90639,
    "lng": 69.63833
  },
  {
    "id": 1512480,
    "name": "Dashtobod",
    "lat": 40.12694,
    "lng": 68.49444
  },
  {
    "id": 1512986,
    "name": "Piskent",
    "lat": 40.89722,
    "lng": 69.35056
  },
  {
    "id": 1512955,
    "name": "Rishton",
    "lat": 40.35667,
    "lng": 71.28472
  },
  {
    "id": 1513245,
    "name": "Manghit",
    "lat": 42.11556,
    "lng": 60.05972
  },
  {
    "id": 1513953,
    "name": "Qorasuv",
    "lat": 40.72782,
    "lng": 72.88577
  },
  {
    "id": 1514716,
    "name": "Oyim",
    "lat": 40.81955,
    "lng": 72.74234
  },
  {
    "id": 1513087,
    "name": "Nurota",
    "lat": 40.56139,
    "lng": 65.68861
  },
  {
    "id": 1514396,
    "name": "Bektemir",
    "lat": 41.20972,
    "lng": 69.33417
  },
  {
    "id": 1512549,
    "name": "To‘rqao‘rg‘on",
    "lat": 40.99984,
    "lng": 71.51162
  },
  {
    "id": 1216475,
    "name": "Muborak",
    "lat": 39.25528,
    "lng": 65.15278
  },
  {
    "id": 1512449,
    "name": "Uychi",
    "lat": 41.08073,
    "lng": 71.92331
  },
  {
    "id": 1217658,
    "name": "Bulung’ur Shahri",
    "lat": 39.76003,
    "lng": 67.27441
  },
  {
    "id": 1512770,
    "name": "Sirdaryo",
    "lat": 40.84361,
    "lng": 68.66167
  },
  {
    "id": 1512658,
    "name": "Toshbuloq",
    "lat": 40.91617,
    "lng": 71.57819
  },
  {
    "id": 1512350,
    "name": "Yangiqo‘rg‘on",
    "lat": 41.19474,
    "lng": 71.72385
  },
  {
    "id": 1513023,
    "name": "Pop",
    "lat": 40.87361,
    "lng": 71.10889
  },
  {
    "id": 1513567,
    "name": "Qibray",
    "lat": 41.38972,
    "lng": 69.465
  },
  {
    "id": 1513900,
    "name": "Iskandar",
    "lat": 41.55389,
    "lng": 69.70083
  },
  {
    "id": 1215694,
    "name": "Zomin Shaharchasi",
    "lat": 39.96056,
    "lng": 68.39583
  },
  {
    "id": 1512790,
    "name": "Shovot",
    "lat": 41.65817,
    "lng": 60.29451
  },
  {
    "id": 1217734,
    "name": "Boysun",
    "lat": 38.20835,
    "lng": 67.20664
  },
  {
    "id": 1512506,
    "name": "Uchkuduk",
    "lat": 41.05,
    "lng": 62.78333
  },
  {
    "id": 1512838,
    "name": "Shofirkon Shahri",
    "lat": 40.12,
    "lng": 64.50139
  },
  {
    "id": 1512934,
    "name": "Salor",
    "lat": 41.37222,
    "lng": 69.38167
  },
  {
    "id": 1513655,
    "name": "Haqqulobod",
    "lat": 40.91667,
    "lng": 72.11667
  },
  {
    "id": 1514174,
    "name": "Dardoq",
    "lat": 40.81583,
    "lng": 72.83166
  },
  {
    "id": 1513364,
    "name": "Qo‘rg‘ontepa",
    "lat": 40.73192,
    "lng": 72.76177
  },
  {
    "id": 1514615,
    "name": "Oltiariq",
    "lat": 40.39194,
    "lng": 71.47417
  },
  {
    "id": 1216115,
    "name": "Sho‘rchi",
    "lat": 37.99944,
    "lng": 67.7875
  },
  {
    "id": 1512372,
    "name": "Yangiobod",
    "lat": 41.11919,
    "lng": 70.09406
  },
  {
    "id": 1512320,
    "name": "Yaypan",
    "lat": 40.37583,
    "lng": 70.81556
  },
  {
    "id": 1514011,
    "name": "Gagarin Shahri",
    "lat": 40.66473,
    "lng": 68.16768
  },
  {
    "id": 1512287,
    "name": "Zafar",
    "lat": 40.98333,
    "lng": 68.9
  },
  {
    "id": 1513011,
    "name": "Payshamba Shahri",
    "lat": 40.01136,
    "lng": 66.23113
  },
  {
    "id": 1217262,
    "name": "G‘uzor",
    "lat": 38.6213,
    "lng": 66.25152
  },
  {
    "id": 1514109,
    "name": "Jalolquduq",
    "lat": 40.68918,
    "lng": 72.60931
  },
  {
    "id": 1514215,
    "name": "Chinoz",
    "lat": 40.93633,
    "lng": 68.76128
  },
  {
    "id": 1217084,
    "name": "Karakul’",
    "lat": 39.53333,
    "lng": 63.83333
  },
  {
    "id": 1513996,
    "name": "G‘azalkent",
    "lat": 41.55806,
    "lng": 69.77083
  },
  {
    "id": 1217362,
    "name": "Juma Shahri",
    "lat": 39.71611,
    "lng": 66.66417
  },
  {
    "id": 1513038,
    "name": "Paxtakor Shahri",
    "lat": 40.31181,
    "lng": 67.95667
  },
  {
    "id": 1513555,
    "name": "Kirguli",
    "lat": 40.43553,
    "lng": 71.76721
  },
  {
    "id": 1513600,
    "name": "Xo‘jaobod",
    "lat": 40.66886,
    "lng": 72.56002
  },
  {
    "id": 1538533,
    "name": "Sultonobod",
    "lat": 40.76461,
    "lng": 72.97647
  },
  {
    "id": 1514330,
    "name": "Bo‘ka",
    "lat": 40.81108,
    "lng": 69.19417
  },
  {
    "id": 1217540,
    "name": "Chiroqchi",
    "lat": 39.03361,
    "lng": 66.57222
  },
  {
    "id": 1217703,
    "name": "Beshkent",
    "lat": 38.82139,
    "lng": 65.65306
  },
  {
    "id": 1512568,
    "name": "Toshloq",
    "lat": 40.47722,
    "lng": 71.76778
  },
  {
    "id": 1514125,
    "name": "Do’stlik Shahri",
    "lat": 40.52881,
    "lng": 68.03153
  },
  {
    "id": 1512978,
    "name": "Qo’shko’pir",
    "lat": 41.53275,
    "lng": 60.34698
  },
  {
    "id": 1512423,
    "name": "Vobkent Shahri",
    "lat": 40.00033,
    "lng": 64.50213
  },
  {
    "id": 1513957,
    "name": "Hazorasp",
    "lat": 41.31944,
    "lng": 61.07417
  },
  {
    "id": 1512348,
    "name": "Yangirabot",
    "lat": 40.02539,
    "lng": 65.96095
  },
  {
    "id": 1514140,
    "name": "Druzhba",
    "lat": 41.22222,
    "lng": 61.30667
  },
  {
    "id": 1217569,
    "name": "Chelak",
    "lat": 39.92002,
    "lng": 66.86228
  },
  {
    "id": 1513242,
    "name": "Marhamat",
    "lat": 40.48048,
    "lng": 72.31388
  },
  {
    "id": 1217414,
    "name": "Jomboy Shahri",
    "lat": 39.69889,
    "lng": 67.09333
  },
  {
    "id": 1513491,
    "name": "Yangi Marg‘ilon",
    "lat": 40.42722,
    "lng": 71.71889
  },
  {
    "id": 1512464,
    "name": "Ŭrtaowul",
    "lat": 41.18667,
    "lng": 69.14528
  },
  {
    "id": 601278,
    "name": "Shumanay",
    "lat": 42.64281,
    "lng": 58.91345
  },
  {
    "id": 1217595,
    "name": "Charxin",
    "lat": 39.69413,
    "lng": 66.827
  },
  {
    "id": 601299,
    "name": "Mŭynoq",
    "lat": 43.76833,
    "lng": 59.02139
  },
  {
    "id": 10974665,
    "name": "Tinchlik",
    "lat": 40.47591,
    "lng": 71.55089
  },
  {
    "id": 1513650,
    "name": "Hamza",
    "lat": 40.42762,
    "lng": 71.50534
  },
  {
    "id": 1217907,
    "name": "Olot Shahri",
    "lat": 39.415,
    "lng": 63.80333
  },
  {
    "id": 1217215,
    "name": "Ishtixon Shahri",
    "lat": 39.96639,
    "lng": 66.48611
  },
  {
    "id": 1216290,
    "name": "Romitan Shahri",
    "lat": 39.92944,
    "lng": 64.37944
  },
  {
    "id": 1217340,
    "name": "Galaosiyo Shahri",
    "lat": 39.85721,
    "lng": 64.44641
  },
  {
    "id": 601349,
    "name": "Kegeyli Shahar",
    "lat": 42.77667,
    "lng": 59.60778
  },
  {
    "id": 1513241,
    "name": "Marhamat",
    "lat": 40.50236,
    "lng": 72.32646
  },
  {
    "id": 1216430,
    "name": "Payariq Shahri",
    "lat": 39.99249,
    "lng": 66.85012
  },
  {
    "id": 1513288,
    "name": "Qiziltepa",
    "lat": 40.03306,
    "lng": 64.85
  },
  {
    "id": 1514668,
    "name": "Oqqo‘rg‘on",
    "lat": 40.8775,
    "lng": 69.04583
  },
  {
    "id": 1215736,
    "name": "Nishon Tumani",
    "lat": 38.69395,
    "lng": 65.67512
  },
  {
    "id": 1217035,
    "name": "Qorovulbozor",
    "lat": 39.50056,
    "lng": 64.79361
  },
  {
    "id": 1513992,
    "name": "G‘ozg‘on",
    "lat": 40.59078,
    "lng": 65.49466
  },
  {
    "id": 1538551,
    "name": "Eskiarab",
    "lat": 40.36972,
    "lng": 71.41861
  },
  {
    "id": 1513990,
    "name": "Gazli",
    "lat": 40.13111,
    "lng": 63.45713
  },
  {
    "id": 1217512,
    "name": "Dahbed",
    "lat": 39.7644,
    "lng": 66.91626
  },
  {
    "id": 1513889,
    "name": "Izboskan",
    "lat": 41.03766,
    "lng": 72.33659
  },
  {
    "id": 1513609,
    "name": "Hazratishoh",
    "lat": 41.39465,
    "lng": 71.78903
  },
  {
    "id": 1216189,
    "name": "Shohimardon",
    "lat": 39.98322,
    "lng": 71.80512
  },
  {
    "id": 1513132,
    "name": "Navbahor",
    "lat": 40.48104,
    "lng": 70.77093
  },
  {
    "id": 1514315,
    "name": "Burchmulla",
    "lat": 41.61667,
    "lng": 70.08333
  },
  {
    "id": 1532845,
    "name": "Qizilcha",
    "lat": 40.7107,
    "lng": 66.13671
  },
  {
    "id": 601358,
    "name": "Karakalpakiya",
    "lat": 44.75,
    "lng": 56.08333
  },
  {
    "id": 1514225,
    "name": "Kyzyldzhar",
    "lat": 41.56667,
    "lng": 70.01667
  },
  {
    "id": 1512792,
    "name": "Sho‘rsuv",
    "lat": 40.28431,
    "lng": 70.79972
  },
  {
    "id": 1512742,
    "name": "Sŭqoq",
    "lat": 41.24861,
    "lng": 69.79667
  }
]