[
  {
    "id": 3646738,
    "name": "Caracas",
    "lat": 10.48801,
    "lng": -66.87919
  },
  {
    "id": 3633009,
    "name": "Maracaibo",
    "lat": 10.64232,
    "lng": -71.61089
  },
  {
    "id": 3625549,
    "name": "Valencia",
    "lat": 10.16153,
    "lng": -68.00044
  },
  {
    "id": 3648522,
    "name": "Barquisimeto",
    "lat": 10.0647,
    "lng": -69.35703
  },
  {
    "id": 3645528,
    "name": "Ciudad Guayana",
    "lat": 8.35122,
    "lng": -62.64102
  },
  {
    "id": 3648559,
    "name": "Barcelona",
    "lat": 10.1384,
    "lng": -64.68769
  },
  {
    "id": 3778045,
    "name": "Maturín",
    "lat": 9.74569,
    "lng": -63.18323
  },
  {
    "id": 3632998,
    "name": "Maracay",
    "lat": 10.24972,
    "lng": -67.59475
  },
  {
    "id": 3645532,
    "name": "Ciudad Bolívar",
    "lat": 8.12366,
    "lng": -63.54694
  },
  {
    "id": 3644768,
    "name": "Cumaná",
    "lat": 10.4639,
    "lng": -64.17859
  },
  {
    "id": 3648546,
    "name": "Barinas",
    "lat": 8.62064,
    "lng": -70.23105
  },
  {
    "id": 3629672,
    "name": "Puerto La Cruz",
    "lat": 10.21382,
    "lng": -64.6328
  },
  {
    "id": 3630297,
    "name": "Petare",
    "lat": 10.47679,
    "lng": -66.80786
  },
  {
    "id": 3647651,
    "name": "Cabimas",
    "lat": 10.39907,
    "lng": -71.45206
  },
  {
    "id": 3625829,
    "name": "Turmero",
    "lat": 10.22856,
    "lng": -67.47421
  },
  {
    "id": 3632308,
    "name": "Mérida",
    "lat": 8.57899,
    "lng": -71.16922
  },
  {
    "id": 3628473,
    "name": "San Cristóbal",
    "lat": 7.76593,
    "lng": -72.23576
  },
  {
    "id": 3487903,
    "name": "Alto Barinas",
    "lat": 8.5931,
    "lng": -70.2261
  },
  {
    "id": 3627047,
    "name": "Santa Teresa del Tuy",
    "lat": 10.23291,
    "lng": -66.66474
  },
  {
    "id": 3633622,
    "name": "Los Teques",
    "lat": 10.34954,
    "lng": -67.04266
  },
  {
    "id": 3640049,
    "name": "Guarenas",
    "lat": 10.47027,
    "lng": -66.61934
  },
  {
    "id": 3645213,
    "name": "Coro",
    "lat": 11.40769,
    "lng": -69.67822
  },
  {
    "id": 3625542,
    "name": "Valera",
    "lat": 9.31778,
    "lng": -70.60361
  },
  {
    "id": 3648439,
    "name": "Baruta",
    "lat": 10.43424,
    "lng": -66.87558
  },
  {
    "id": 3645527,
    "name": "Ciudad Ojeda",
    "lat": 10.20161,
    "lng": -71.3148
  },
  {
    "id": 3805673,
    "name": "San Fernando de Apure",
    "lat": 7.88963,
    "lng": -67.47181
  },
  {
    "id": 3639898,
    "name": "Guatire",
    "lat": 10.474,
    "lng": -66.54241
  },
  {
    "id": 3641351,
    "name": "El Tigre",
    "lat": 8.88902,
    "lng": -64.2527
  },
  {
    "id": 3629965,
    "name": "Porlamar",
    "lat": 10.95771,
    "lng": -63.86971
  },
  {
    "id": 3628423,
    "name": "San Felipe",
    "lat": 10.3401,
    "lng": -68.74297
  },
  {
    "id": 3640465,
    "name": "Guacara",
    "lat": 10.22609,
    "lng": -67.877
  },
  {
    "id": 3649833,
    "name": "Acarigua",
    "lat": 9.55451,
    "lng": -69.19564
  },
  {
    "id": 3644918,
    "name": "Cúa",
    "lat": 10.16245,
    "lng": -66.88248
  },
  {
    "id": 3649017,
    "name": "Araure",
    "lat": 9.58144,
    "lng": -69.23851
  },
  {
    "id": 3629706,
    "name": "Puerto Cabello",
    "lat": 10.47306,
    "lng": -68.0125
  },
  {
    "id": 3647444,
    "name": "Calabozo",
    "lat": 8.92416,
    "lng": -67.42929
  },
  {
    "id": 3646382,
    "name": "Carúpano",
    "lat": 10.66516,
    "lng": -63.25387
  },
  {
    "id": 3631412,
    "name": "Ocumare del Tuy",
    "lat": 10.1182,
    "lng": -66.77513
  },
  {
    "id": 3641099,
    "name": "El Vigía",
    "lat": 8.6135,
    "lng": -71.65702
  },
  {
    "id": 3628053,
    "name": "San Juan de los Morros",
    "lat": 9.91246,
    "lng": -67.35398
  },
  {
    "id": 3625515,
    "name": "Valle de La Pascua",
    "lat": 9.21554,
    "lng": -66.00734
  },
  {
    "id": 3642833,
    "name": "El Limón",
    "lat": 10.30589,
    "lng": -67.63212
  },
  {
    "id": 3629576,
    "name": "Punto Fijo",
    "lat": 11.69152,
    "lng": -70.19918
  },
  {
    "id": 3486270,
    "name": "Anaco",
    "lat": 9.42958,
    "lng": -64.46428
  },
  {
    "id": 3626402,
    "name": "Táriba",
    "lat": 7.82117,
    "lng": -72.22329
  },
  {
    "id": 3633444,
    "name": "Machiques",
    "lat": 10.06077,
    "lng": -72.55212
  },
  {
    "id": 3645854,
    "name": "Charallave",
    "lat": 10.24247,
    "lng": -66.85723
  },
  {
    "id": 3630932,
    "name": "Palo Negro",
    "lat": 10.17389,
    "lng": -67.54194
  },
  {
    "id": 3634922,
    "name": "La Victoria",
    "lat": 10.22677,
    "lng": -67.33122
  },
  {
    "id": 3628489,
    "name": "San Carlos del Zulia",
    "lat": 9.00098,
    "lng": -71.92683
  },
  {
    "id": 3629710,
    "name": "Puerto Ayacucho",
    "lat": 5.66049,
    "lng": -67.58343
  },
  {
    "id": 3646487,
    "name": "Carora",
    "lat": 10.17283,
    "lng": -70.081
  },
  {
    "id": 3644417,
    "name": "Ejido",
    "lat": 8.54665,
    "lng": -71.24087
  },
  {
    "id": 3638371,
    "name": "La Concepción",
    "lat": 10.61919,
    "lng": -71.83814
  },
  {
    "id": 3628503,
    "name": "San Carlos",
    "lat": 9.66415,
    "lng": -68.58659
  },
  {
    "id": 3647549,
    "name": "Cagua",
    "lat": 10.18634,
    "lng": -67.45935
  },
  {
    "id": 3632929,
    "name": "Mariara",
    "lat": 10.29532,
    "lng": -67.7177
  },
  {
    "id": 3626219,
    "name": "Tinaquillo",
    "lat": 9.91861,
    "lng": -68.30472
  },
  {
    "id": 3629614,
    "name": "Punta Cardón",
    "lat": 11.65806,
    "lng": -70.215
  },
  {
    "id": 3625207,
    "name": "Yaritagua",
    "lat": 10.08081,
    "lng": -69.1242
  },
  {
    "id": 3625710,
    "name": "Upata",
    "lat": 8.0162,
    "lng": -62.40561
  },
  {
    "id": 3640226,
    "name": "Guanare",
    "lat": 9.03934,
    "lng": -69.73364
  },
  {
    "id": 3646190,
    "name": "Catia La Mar",
    "lat": 10.60545,
    "lng": -67.03238
  },
  {
    "id": 3647637,
    "name": "Cabudare",
    "lat": 10.02658,
    "lng": -69.26203
  },
  {
    "id": 3649417,
    "name": "Los Puertos de Altagracia",
    "lat": 10.71492,
    "lng": -71.52168
  },
  {
    "id": 3633677,
    "name": "Los Rastrojos",
    "lat": 10.02588,
    "lng": -69.24166
  },
  {
    "id": 3625929,
    "name": "Tucupita",
    "lat": 9.06263,
    "lng": -62.05208
  },
  {
    "id": 3625341,
    "name": "Villa de Cura",
    "lat": 10.03863,
    "lng": -67.48938
  },
  {
    "id": 3628952,
    "name": "Rubio",
    "lat": 7.70156,
    "lng": -72.35551
  },
  {
    "id": 3638374,
    "name": "Concepción",
    "lat": 10.4119,
    "lng": -71.68919
  },
  {
    "id": 3628066,
    "name": "San Juan Bautista",
    "lat": 11.01243,
    "lng": -63.94412
  },
  {
    "id": 3628142,
    "name": "San José de Guanipa",
    "lat": 8.88724,
    "lng": -64.16512
  },
  {
    "id": 3628966,
    "name": "La Villa del Rosario",
    "lat": 10.3258,
    "lng": -72.31343
  },
  {
    "id": 3627034,
    "name": "San Timoteo",
    "lat": 9.7901,
    "lng": -71.07084
  },
  {
    "id": 3639747,
    "name": "Güigüe",
    "lat": 10.08344,
    "lng": -67.77799
  },
  {
    "id": 3648279,
    "name": "Biruaca",
    "lat": 7.84483,
    "lng": -67.51679
  },
  {
    "id": 3641275,
    "name": "El Tocuyo",
    "lat": 9.78709,
    "lng": -69.79294
  },
  {
    "id": 3625066,
    "name": "Zaraza",
    "lat": 9.35029,
    "lng": -65.32452
  },
  {
    "id": 3626764,
    "name": "Socopó",
    "lat": 8.23062,
    "lng": -70.82198
  },
  {
    "id": 3625979,
    "name": "Trujillo",
    "lat": 9.36587,
    "lng": -70.43659
  },
  {
    "id": 3645671,
    "name": "Chivacoa",
    "lat": 10.15951,
    "lng": -68.89453
  },
  {
    "id": 3628267,
    "name": "San Joaquín",
    "lat": 10.26061,
    "lng": -67.79348
  },
  {
    "id": 3627420,
    "name": "Santa Cruz de Mara",
    "lat": 10.79269,
    "lng": -71.68505
  },
  {
    "id": 3646062,
    "name": "Tacarigua",
    "lat": 10.08621,
    "lng": -67.91982
  },
  {
    "id": 3648132,
    "name": "Boconó",
    "lat": 9.25385,
    "lng": -70.25105
  },
  {
    "id": 3646869,
    "name": "Cantaura",
    "lat": 9.30571,
    "lng": -64.35841
  },
  {
    "id": 3649408,
    "name": "Altagracia de Orituco",
    "lat": 9.86005,
    "lng": -66.38139
  },
  {
    "id": 3631878,
    "name": "Morón",
    "lat": 10.48715,
    "lng": -68.20078
  },
  {
    "id": 3647537,
    "name": "Caicara del Orinoco",
    "lat": 7.63501,
    "lng": -66.16815
  },
  {
    "id": 3628549,
    "name": "San Antonio del Táchira",
    "lat": 7.8112,
    "lng": -72.44437
  },
  {
    "id": 3630893,
    "name": "Pampatar",
    "lat": 11.00085,
    "lng": -63.79298
  },
  {
    "id": 3645981,
    "name": "Chacao",
    "lat": 10.49581,
    "lng": -66.85367
  },
  {
    "id": 3804949,
    "name": "Guasdualito",
    "lat": 7.24241,
    "lng": -70.73235
  },
  {
    "id": 3628550,
    "name": "San Antonio de Los Altos",
    "lat": 10.38853,
    "lng": -66.95179
  },
  {
    "id": 3628060,
    "name": "Colón",
    "lat": 8.03125,
    "lng": -72.26053
  },
  {
    "id": 3795152,
    "name": "La Fría",
    "lat": 8.21523,
    "lng": -72.24888
  },
  {
    "id": 3629606,
    "name": "Punta de Mata",
    "lat": 9.69131,
    "lng": -63.60921
  },
  {
    "id": 3632399,
    "name": "Mene Grande",
    "lat": 9.84639,
    "lng": -70.92655
  },
  {
    "id": 3630896,
    "name": "Pampán",
    "lat": 9.44519,
    "lng": -70.47556
  },
  {
    "id": 3634184,
    "name": "Los Dos Caminos",
    "lat": 10.49389,
    "lng": -66.82863
  },
  {
    "id": 3643031,
    "name": "El Hatillo",
    "lat": 10.42411,
    "lng": -66.82581
  },
  {
    "id": 3625655,
    "name": "Ureña",
    "lat": 7.92162,
    "lng": -72.44396
  },
  {
    "id": 3627713,
    "name": "San Rafael",
    "lat": 10.96205,
    "lng": -71.73034
  },
  {
    "id": 3625346,
    "name": "Villa Bruzual",
    "lat": 9.33186,
    "lng": -69.11968
  },
  {
    "id": 3758764,
    "name": "San Josecito",
    "lat": 7.66106,
    "lng": -72.22009
  },
  {
    "id": 3631507,
    "name": "Nirgua",
    "lat": 10.15039,
    "lng": -68.56478
  },
  {
    "id": 3645469,
    "name": "Cocorote",
    "lat": 10.31954,
    "lng": -68.78298
  },
  {
    "id": 3633341,
    "name": "Maiquetía",
    "lat": 10.5945,
    "lng": -66.95624
  },
  {
    "id": 3646169,
    "name": "Caucagüito",
    "lat": 10.48666,
    "lng": -66.73799
  },
  {
    "id": 3645531,
    "name": "Ciudad Bolivia",
    "lat": 8.35304,
    "lng": -70.57121
  },
  {
    "id": 3645525,
    "name": "Ciudad Piar",
    "lat": 7.45209,
    "lng": -63.31992
  },
  {
    "id": 3648540,
    "name": "Barinitas",
    "lat": 8.76171,
    "lng": -70.41199
  },
  {
    "id": 3629419,
    "name": "Quíbor",
    "lat": 9.92866,
    "lng": -69.6201
  },
  {
    "id": 3627968,
    "name": "San Mateo",
    "lat": 10.21302,
    "lng": -67.42365
  },
  {
    "id": 3626047,
    "name": "Tovar",
    "lat": 8.33015,
    "lng": -71.75277
  },
  {
    "id": 3630982,
    "name": "Palmira",
    "lat": 7.8375,
    "lng": -72.22794
  },
  {
    "id": 3642497,
    "name": "Lecherías",
    "lat": 10.19167,
    "lng": -64.69207
  },
  {
    "id": 3627561,
    "name": "Santa Bárbara",
    "lat": 7.81348,
    "lng": -71.17788
  },
  {
    "id": 3649810,
    "name": "Achaguas",
    "lat": 7.77917,
    "lng": -68.22373
  },
  {
    "id": 3637623,
    "name": "Lagunillas",
    "lat": 10.13008,
    "lng": -71.25946
  },
  {
    "id": 3630089,
    "name": "Píritu",
    "lat": 9.37083,
    "lng": -69.21028
  },
  {
    "id": 3646534,
    "name": "Caripito",
    "lat": 10.11135,
    "lng": -63.09985
  },
  {
    "id": 3635325,
    "name": "Las Tejerías",
    "lat": 10.25416,
    "lng": -67.17333
  },
  {
    "id": 3625944,
    "name": "Tucupido",
    "lat": 9.27304,
    "lng": -65.77153
  },
  {
    "id": 3629790,
    "name": "Pueblo Nuevo El Chivo",
    "lat": 8.96249,
    "lng": -71.60754
  },
  {
    "id": 3646581,
    "name": "Cariaco",
    "lat": 10.49682,
    "lng": -63.55286
  },
  {
    "id": 3639526,
    "name": "Higuerote",
    "lat": 10.48287,
    "lng": -66.10096
  },
  {
    "id": 3630687,
    "name": "Pariaguán",
    "lat": 8.84357,
    "lng": -64.71053
  },
  {
    "id": 3646451,
    "name": "Carrizal",
    "lat": 10.34985,
    "lng": -66.98632
  },
  {
    "id": 3795218,
    "name": "Capacho Nuevo",
    "lat": 7.82472,
    "lng": -72.3084
  },
  {
    "id": 3639725,
    "name": "Güiria",
    "lat": 10.57721,
    "lng": -62.29841
  },
  {
    "id": 3644440,
    "name": "Duaca",
    "lat": 10.28554,
    "lng": -69.16244
  },
  {
    "id": 3628853,
    "name": "Sabaneta",
    "lat": 8.75234,
    "lng": -69.93351
  },
  {
    "id": 3626235,
    "name": "Tinaco",
    "lat": 9.69894,
    "lng": -68.43273
  },
  {
    "id": 3646767,
    "name": "Caraballeda",
    "lat": 10.61216,
    "lng": -66.85192
  },
  {
    "id": 3629653,
    "name": "Puerto Píritu",
    "lat": 10.05896,
    "lng": -65.03698
  },
  {
    "id": 3625892,
    "name": "Tumeremo",
    "lat": 7.29861,
    "lng": -61.50497
  },
  {
    "id": 3795170,
    "name": "La Grita",
    "lat": 8.13316,
    "lng": -71.9839
  },
  {
    "id": 3640215,
    "name": "Guanarito",
    "lat": 8.69625,
    "lng": -69.20832
  },
  {
    "id": 3626352,
    "name": "Temblador",
    "lat": 9.00525,
    "lng": -62.64493
  },
  {
    "id": 3628545,
    "name": "Sanare",
    "lat": 9.75209,
    "lng": -69.6524
  },
  {
    "id": 3630894,
    "name": "Pampanito",
    "lat": 9.41037,
    "lng": -70.50116
  },
  {
    "id": 3648873,
    "name": "Aroa",
    "lat": 10.43949,
    "lng": -68.89496
  },
  {
    "id": 3627614,
    "name": "Santa Ana",
    "lat": 7.6429,
    "lng": -72.27636
  },
  {
    "id": 3480908,
    "name": "La Asunción",
    "lat": 11.03333,
    "lng": -63.86278
  },
  {
    "id": 3628921,
    "name": "Sabana de Mendoza",
    "lat": 9.43494,
    "lng": -70.77495
  },
  {
    "id": 3634965,
    "name": "La Vela de Coro",
    "lat": 11.46077,
    "lng": -69.5657
  },
  {
    "id": 3648386,
    "name": "Bejuma",
    "lat": 10.17383,
    "lng": -68.25892
  },
  {
    "id": 3625965,
    "name": "Tucacas",
    "lat": 10.79006,
    "lng": -68.32564
  },
  {
    "id": 3647462,
    "name": "Caja Seca",
    "lat": 9.14151,
    "lng": -71.06741
  },
  {
    "id": 3649100,
    "name": "Aragua de Barcelona",
    "lat": 9.45588,
    "lng": -64.82928
  },
  {
    "id": 3631208,
    "name": "Ospino",
    "lat": 9.29572,
    "lng": -69.45434
  },
  {
    "id": 3632198,
    "name": "Miranda",
    "lat": 10.15077,
    "lng": -68.39325
  },
  {
    "id": 3629601,
    "name": "Punta de Piedras",
    "lat": 10.90123,
    "lng": -64.0969
  },
  {
    "id": 3627186,
    "name": "Santa Rita",
    "lat": 10.53642,
    "lng": -71.51104
  },
  {
    "id": 3646175,
    "name": "Caucagua",
    "lat": 10.2831,
    "lng": -66.37591
  },
  {
    "id": 3641440,
    "name": "El Sombrero",
    "lat": 9.3863,
    "lng": -67.05818
  },
  {
    "id": 3629696,
    "name": "Puerto Cumarebo",
    "lat": 11.48614,
    "lng": -69.35319
  },
  {
    "id": 3633248,
    "name": "Mamporal",
    "lat": 10.36556,
    "lng": -66.13391
  },
  {
    "id": 3627382,
    "name": "Santa Elena de Uairén",
    "lat": 4.60226,
    "lng": -61.11025
  },
  {
    "id": 3626741,
    "name": "Soledad",
    "lat": 8.16206,
    "lng": -63.5654
  },
  {
    "id": 3632072,
    "name": "Montalbán",
    "lat": 10.21313,
    "lng": -68.32669
  },
  {
    "id": 3639107,
    "name": "Juan Griego",
    "lat": 11.08172,
    "lng": -63.96549
  },
  {
    "id": 3637624,
    "name": "Lagunillas",
    "lat": 8.50457,
    "lng": -71.3894
  },
  {
    "id": 3644571,
    "name": "Dabajuro",
    "lat": 11.02273,
    "lng": -70.67769
  },
  {
    "id": 3639922,
    "name": "Guasipati",
    "lat": 7.47702,
    "lng": -61.89666
  },
  {
    "id": 3642390,
    "name": "Elorza",
    "lat": 7.06088,
    "lng": -69.49765
  },
  {
    "id": 3625696,
    "name": "Urachiche",
    "lat": 10.15847,
    "lng": -69.00782
  },
  {
    "id": 3641008,
    "name": "Encontrados",
    "lat": 9.05983,
    "lng": -72.2346
  },
  {
    "id": 3644767,
    "name": "Cumanacoa",
    "lat": 10.25056,
    "lng": -63.91938
  },
  {
    "id": 3631791,
    "name": "Motatán",
    "lat": 9.39182,
    "lng": -70.59061
  },
  {
    "id": 3645360,
    "name": "Coloncito",
    "lat": 8.32611,
    "lng": -72.08742
  },
  {
    "id": 3637721,
    "name": "La Guaira",
    "lat": 10.60156,
    "lng": -66.93293
  },
  {
    "id": 7909705,
    "name": "Santa Cruz de los Taques",
    "lat": 11.8235,
    "lng": -70.25637
  },
  {
    "id": 3646296,
    "name": "Casigua El Cubo",
    "lat": 8.74602,
    "lng": -72.51889
  },
  {
    "id": 3640324,
    "name": "Guama",
    "lat": 10.26638,
    "lng": -68.81986
  },
  {
    "id": 3648506,
    "name": "Barrancas",
    "lat": 8.76962,
    "lng": -70.11086
  },
  {
    "id": 3628918,
    "name": "Sabana de Parra",
    "lat": 10.12111,
    "lng": -69.03639
  },
  {
    "id": 3625963,
    "name": "Tucaní",
    "lat": 8.97003,
    "lng": -71.27277
  },
  {
    "id": 3626302,
    "name": "Tía Juana",
    "lat": 10.25927,
    "lng": -71.36343
  },
  {
    "id": 3649005,
    "name": "Araya",
    "lat": 10.57998,
    "lng": -64.25548
  },
  {
    "id": 3647535,
    "name": "Caicara",
    "lat": 9.81755,
    "lng": -63.61331
  },
  {
    "id": 3626595,
    "name": "Tabay",
    "lat": 8.6317,
    "lng": -71.07833
  },
  {
    "id": 3639086,
    "name": "Judibana",
    "lat": 11.75908,
    "lng": -70.18418
  },
  {
    "id": 3629102,
    "name": "Río Chico",
    "lat": 10.31899,
    "lng": -65.97751
  },
  {
    "id": 3628129,
    "name": "San José de Barlovento",
    "lat": 10.30125,
    "lng": -65.99053
  },
  {
    "id": 3648042,
    "name": "Boraure",
    "lat": 10.24752,
    "lng": -68.76966
  },
  {
    "id": 3645522,
    "name": "Clarines",
    "lat": 9.93991,
    "lng": -65.16517
  },
  {
    "id": 3627418,
    "name": "Santa Cruz de Mora",
    "lat": 8.39925,
    "lng": -71.64082
  },
  {
    "id": 3647400,
    "name": "Camaguán",
    "lat": 8.10732,
    "lng": -67.60738
  },
  {
    "id": 3646316,
    "name": "Casanay",
    "lat": 10.5042,
    "lng": -63.41729
  },
  {
    "id": 3632260,
    "name": "Michelena",
    "lat": 7.95642,
    "lng": -72.24235
  },
  {
    "id": 3635260,
    "name": "Las Vegas",
    "lat": 9.53724,
    "lng": -68.63022
  },
  {
    "id": 3648685,
    "name": "Bailadores",
    "lat": 8.25347,
    "lng": -71.82818
  },
  {
    "id": 3626237,
    "name": "Timotes",
    "lat": 8.98224,
    "lng": -70.73926
  },
  {
    "id": 3631465,
    "name": "Nueva Bolivia",
    "lat": 9.14007,
    "lng": -71.09143
  },
  {
    "id": 3648507,
    "name": "Barrancas",
    "lat": 8.6989,
    "lng": -62.19656
  },
  {
    "id": 3643361,
    "name": "El Dividive",
    "lat": 9.4751,
    "lng": -70.73493
  },
  {
    "id": 3627593,
    "name": "Santa Ana",
    "lat": 11.06831,
    "lng": -63.92256
  },
  {
    "id": 3632401,
    "name": "Mene de Mauroa",
    "lat": 10.68091,
    "lng": -71.03609
  },
  {
    "id": 3636861,
    "name": "La Paragua",
    "lat": 6.83333,
    "lng": -63.33333
  },
  {
    "id": 3629768,
    "name": "Pueblo Nuevo",
    "lat": 11.94788,
    "lng": -69.92306
  },
  {
    "id": 3642260,
    "name": "El Pao",
    "lat": 9.63926,
    "lng": -68.12917
  },
  {
    "id": 3640956,
    "name": "Escuque",
    "lat": 9.29687,
    "lng": -70.67189
  },
  {
    "id": 3648127,
    "name": "Boconoito",
    "lat": 8.84659,
    "lng": -69.98032
  },
  {
    "id": 3645944,
    "name": "Chaguaramas",
    "lat": 9.33754,
    "lng": -66.25282
  },
  {
    "id": 3631431,
    "name": "Obispos",
    "lat": 8.60701,
    "lng": -70.10489
  },
  {
    "id": 3627680,
    "name": "San Rafael de Onoto",
    "lat": 9.67813,
    "lng": -68.97278
  },
  {
    "id": 3645727,
    "name": "Chiquinquirá",
    "lat": 10.44333,
    "lng": -71.64722
  },
  {
    "id": 3638904,
    "name": "La Azulita",
    "lat": 8.71364,
    "lng": -71.44421
  },
  {
    "id": 3643353,
    "name": "El Dorado",
    "lat": 6.71581,
    "lng": -61.63738
  },
  {
    "id": 3625155,
    "name": "Yumare",
    "lat": 10.59703,
    "lng": -68.67328
  }
]