[
  {
    "id": 993800,
    "name": "Johannesburg",
    "lat": -26.20227,
    "lng": 28.04363
  },
  {
    "id": 3369157,
    "name": "Cape Town",
    "lat": -33.92584,
    "lng": 18.42322
  },
  {
    "id": 1007311,
    "name": "Durban",
    "lat": -29.8579,
    "lng": 31.0292
  },
  {
    "id": 964137,
    "name": "Pretoria",
    "lat": -25.74486,
    "lng": 28.18783
  },
  {
    "id": 953781,
    "name": "Soweto",
    "lat": -26.26781,
    "lng": 27.85849
  },
  {
    "id": 964420,
    "name": "Port Elizabeth",
    "lat": -33.96109,
    "lng": 25.61494
  },
  {
    "id": 954013,
    "name": "Soshanguve",
    "lat": -25.47288,
    "lng": 28.09919
  },
  {
    "id": 965301,
    "name": "Pietermaritzburg",
    "lat": -29.61679,
    "lng": 30.39278
  },
  {
    "id": 1004866,
    "name": "Evaton",
    "lat": -26.53333,
    "lng": 27.85
  },
  {
    "id": 1020098,
    "name": "Benoni",
    "lat": -26.18848,
    "lng": 28.32078
  },
  {
    "id": 1018725,
    "name": "Bloemfontein",
    "lat": -29.12107,
    "lng": 26.214
  },
  {
    "id": 949880,
    "name": "Thembisa",
    "lat": -25.99636,
    "lng": 28.2268
  },
  {
    "id": 1006984,
    "name": "East London",
    "lat": -33.01529,
    "lng": 27.91162
  },
  {
    "id": 944385,
    "name": "Vereeniging",
    "lat": -26.67313,
    "lng": 27.92615
  },
  {
    "id": 1017780,
    "name": "Boksburg",
    "lat": -26.21197,
    "lng": 28.25958
  },
  {
    "id": 940909,
    "name": "Welkom",
    "lat": -27.97742,
    "lng": 26.73506
  },
  {
    "id": 971421,
    "name": "Newcastle",
    "lat": -27.75796,
    "lng": 29.9318
  },
  {
    "id": 986822,
    "name": "Krugersdorp",
    "lat": -26.08577,
    "lng": 27.77515
  },
  {
    "id": 958724,
    "name": "Rustenburg",
    "lat": -25.66756,
    "lng": 27.24208
  },
  {
    "id": 939270,
    "name": "Emalahleni",
    "lat": -25.87133,
    "lng": 29.23323
  },
  {
    "id": 963241,
    "name": "Randburg",
    "lat": -26.0941,
    "lng": 28.00123
  },
  {
    "id": 936374,
    "name": "Roodepoort",
    "lat": -26.1625,
    "lng": 27.8725
  },
  {
    "id": 1016670,
    "name": "Botshabelo",
    "lat": -29.26737,
    "lng": 26.72595
  },
  {
    "id": 1016181,
    "name": "Brakpan",
    "lat": -26.23656,
    "lng": 28.36938
  },
  {
    "id": 946877,
    "name": "Kariega",
    "lat": -33.75562,
    "lng": 25.40074
  },
  {
    "id": 965289,
    "name": "Polokwane",
    "lat": -23.90449,
    "lng": 29.46885
  },
  {
    "id": 962367,
    "name": "Richards Bay",
    "lat": -28.78301,
    "lng": 32.03768
  },
  {
    "id": 944986,
    "name": "Vanderbijlpark",
    "lat": -26.71171,
    "lng": 27.83795
  },
  {
    "id": 3363094,
    "name": "Paarl",
    "lat": -33.73378,
    "lng": 18.97523
  },
  {
    "id": 1105777,
    "name": "Centurion",
    "lat": -25.85891,
    "lng": 28.18577
  },
  {
    "id": 989921,
    "name": "Klerksdorp",
    "lat": -26.85213,
    "lng": 26.66672
  },
  {
    "id": 6951112,
    "name": "Somerset West",
    "lat": -34.08401,
    "lng": 18.82113
  },
  {
    "id": 977432,
    "name": "Mdantsane",
    "lat": -32.93324,
    "lng": 27.77656
  },
  {
    "id": 976361,
    "name": "Middelburg",
    "lat": -25.77507,
    "lng": 29.46482
  },
  {
    "id": 1002145,
    "name": "George",
    "lat": -33.963,
    "lng": 22.46173
  },
  {
    "id": 1014073,
    "name": "Carletonville",
    "lat": -26.36094,
    "lng": 27.39767
  },
  {
    "id": 964349,
    "name": "Potchefstroom",
    "lat": -26.71667,
    "lng": 27.1
  },
  {
    "id": 946058,
    "name": "Mthatha",
    "lat": -31.58893,
    "lng": 28.78443
  },
  {
    "id": 952734,
    "name": "KwaDukuza",
    "lat": -29.32816,
    "lng": 31.28954
  },
  {
    "id": 940316,
    "name": "Westonaria",
    "lat": -26.31905,
    "lng": 27.6486
  },
  {
    "id": 11204106,
    "name": "Etwatwa",
    "lat": -26.12516,
    "lng": 28.45472
  },
  {
    "id": 942470,
    "name": "Vryheid",
    "lat": -27.76952,
    "lng": 30.79165
  },
  {
    "id": 965154,
    "name": "Pinetown",
    "lat": -29.82068,
    "lng": 30.88674
  },
  {
    "id": 984998,
    "name": "Ladysmith",
    "lat": -28.55874,
    "lng": 29.77896
  },
  {
    "id": 1005646,
    "name": "eMbalenhle",
    "lat": -26.53333,
    "lng": 29.06667
  },
  {
    "id": 990930,
    "name": "Kimberley",
    "lat": -28.73226,
    "lng": 24.76232
  },
  {
    "id": 970566,
    "name": "Nigel",
    "lat": -26.43138,
    "lng": 28.47713
  },
  {
    "id": 973111,
    "name": "Mpumalanga",
    "lat": -29.81292,
    "lng": 30.63646
  },
  {
    "id": 1019330,
    "name": "Bhisho",
    "lat": -32.84721,
    "lng": 27.44218
  },
  {
    "id": 957487,
    "name": "Sasolburg",
    "lat": -26.81358,
    "lng": 27.81695
  },
  {
    "id": 963230,
    "name": "Randfontein",
    "lat": -26.1844,
    "lng": 27.70203
  },
  {
    "id": 3359041,
    "name": "Worcester",
    "lat": -33.64651,
    "lng": 19.44852
  },
  {
    "id": 11205667,
    "name": "Ntuzuma",
    "lat": -29.739,
    "lng": 30.949
  },
  {
    "id": 943882,
    "name": "Virginia",
    "lat": -28.10391,
    "lng": 26.86593
  },
  {
    "id": 1015621,
    "name": "Brits",
    "lat": -25.63473,
    "lng": 27.78022
  },
  {
    "id": 1023441,
    "name": "Alberton",
    "lat": -26.26786,
    "lng": 28.12225
  },
  {
    "id": 963516,
    "name": "Queenstown",
    "lat": -31.89756,
    "lng": 26.87533
  },
  {
    "id": 986846,
    "name": "Kroonstad",
    "lat": -27.65036,
    "lng": 27.23488
  },
  {
    "id": 1105728,
    "name": "Somaroboro",
    "lat": -25.34604,
    "lng": 28.83431
  },
  {
    "id": 998082,
    "name": "Hammanskraal",
    "lat": -25.40892,
    "lng": 28.287
  },
  {
    "id": 980921,
    "name": "Mabopane",
    "lat": -25.509,
    "lng": 28.064
  },
  {
    "id": 971534,
    "name": "Mbombela",
    "lat": -25.47512,
    "lng": 30.96935
  },
  {
    "id": 967476,
    "name": "Orkney",
    "lat": -26.98023,
    "lng": 26.67272
  },
  {
    "id": 965528,
    "name": "Phalaborwa",
    "lat": -23.94299,
    "lng": 31.14107
  },
  {
    "id": 949224,
    "name": "Thohoyandou",
    "lat": -22.94564,
    "lng": 30.48497
  },
  {
    "id": 948542,
    "name": "Tokoza",
    "lat": -26.36,
    "lng": 28.129
  },
  {
    "id": 952747,
    "name": "Standerton",
    "lat": -26.93366,
    "lng": 29.24152
  },
  {
    "id": 964315,
    "name": "Mokopane",
    "lat": -24.19436,
    "lng": 29.00974
  },
  {
    "id": 1005125,
    "name": "Ermelo",
    "lat": -26.53333,
    "lng": 29.98333
  },
  {
    "id": 3361025,
    "name": "Stellenbosch",
    "lat": -33.93462,
    "lng": 18.86676
  },
  {
    "id": 986083,
    "name": "Kutloanong",
    "lat": -27.83333,
    "lng": 26.75
  },
  {
    "id": 952192,
    "name": "Stilfontein",
    "lat": -26.84493,
    "lng": 26.76829
  },
  {
    "id": 990849,
    "name": "Qonce",
    "lat": -32.88076,
    "lng": 27.39377
  },
  {
    "id": 1011031,
    "name": "Delmas",
    "lat": -26.1466,
    "lng": 28.68322
  },
  {
    "id": 1000501,
    "name": "Grahamstown",
    "lat": -33.30422,
    "lng": 26.53276
  },
  {
    "id": 1019704,
    "name": "Bethlehem",
    "lat": -28.23078,
    "lng": 28.30707
  },
  {
    "id": 1002851,
    "name": "Ga-Rankuwa",
    "lat": -25.61692,
    "lng": 27.99471
  },
  {
    "id": 941966,
    "name": "Bela Bela",
    "lat": -24.88333,
    "lng": 28.28333
  },
  {
    "id": 1105776,
    "name": "Midrand",
    "lat": -25.976,
    "lng": 28.118
  },
  {
    "id": 981827,
    "name": "Louis Trichardt",
    "lat": -23.04385,
    "lng": 29.90319
  },
  {
    "id": 997151,
    "name": "Heidelberg",
    "lat": -26.50476,
    "lng": 28.35921
  },
  {
    "id": 1007400,
    "name": "Dundee",
    "lat": -28.16678,
    "lng": 30.23371
  },
  {
    "id": 965241,
    "name": "Piet Retief",
    "lat": -27.00706,
    "lng": 30.81323
  },
  {
    "id": 965401,
    "name": "Phuthaditjhaba",
    "lat": -28.52423,
    "lng": 28.81582
  },
  {
    "id": 3370352,
    "name": "Atlantis",
    "lat": -33.56668,
    "lng": 18.48335
  },
  {
    "id": 973709,
    "name": "Mossel Bay",
    "lat": -34.18307,
    "lng": 22.14605
  },
  {
    "id": 980595,
    "name": "Mafikeng",
    "lat": -25.86522,
    "lng": 25.64421
  },
  {
    "id": 968477,
    "name": "Odendaalsrus",
    "lat": -27.87394,
    "lng": 26.69072
  },
  {
    "id": 967106,
    "name": "Oudtshoorn",
    "lat": -33.60047,
    "lng": 22.19955
  },
  {
    "id": 1019760,
    "name": "Bethal",
    "lat": -26.45794,
    "lng": 29.46553
  },
  {
    "id": 949703,
    "name": "Thaba Nchu",
    "lat": -29.20932,
    "lng": 26.83898
  },
  {
    "id": 1016698,
    "name": "Bothaville",
    "lat": -27.3887,
    "lng": 26.61701
  },
  {
    "id": 945945,
    "name": "Upington",
    "lat": -28.44776,
    "lng": 21.25612
  },
  {
    "id": 966166,
    "name": "Parys",
    "lat": -26.9033,
    "lng": 27.45727
  },
  {
    "id": 956907,
    "name": "Schweizer-Reneke",
    "lat": -27.18871,
    "lng": 25.32931
  },
  {
    "id": 988698,
    "name": "Knysna",
    "lat": -34.03627,
    "lng": 23.04713
  },
  {
    "id": 3361934,
    "name": "Saldanha",
    "lat": -33.01167,
    "lng": 17.9442
  },
  {
    "id": 1021086,
    "name": "Barberton",
    "lat": -25.78842,
    "lng": 31.05319
  },
  {
    "id": 982899,
    "name": "Lichtenburg",
    "lat": -26.152,
    "lng": 26.15968
  },
  {
    "id": 948468,
    "name": "Tongaat",
    "lat": -29.57366,
    "lng": 31.11552
  },
  {
    "id": 1000543,
    "name": "Graaff Reinet",
    "lat": -32.25215,
    "lng": 24.53075
  },
  {
    "id": 1004109,
    "name": "Fochville",
    "lat": -26.48862,
    "lng": 27.49387
  },
  {
    "id": 988356,
    "name": "Kokstad",
    "lat": -30.54723,
    "lng": 29.42412
  },
  {
    "id": 1003953,
    "name": "Fort Beaufort",
    "lat": -32.77477,
    "lng": 26.63376
  },
  {
    "id": 1105726,
    "name": "Ekangala",
    "lat": -25.668,
    "lng": 28.73
  },
  {
    "id": 3365083,
    "name": "Kraaifontein",
    "lat": -33.84808,
    "lng": 18.71723
  },
  {
    "id": 3366880,
    "name": "Hermanus",
    "lat": -34.4187,
    "lng": 19.23446
  },
  {
    "id": 942511,
    "name": "Vryburg",
    "lat": -26.95659,
    "lng": 24.7284
  },
  {
    "id": 3359510,
    "name": "Wellington",
    "lat": -33.63981,
    "lng": 19.0112
  },
  {
    "id": 943960,
    "name": "Viljoenskroon",
    "lat": -27.20841,
    "lng": 26.94855
  },
  {
    "id": 3368254,
    "name": "Durbanville",
    "lat": -33.83079,
    "lng": 18.6486
  },
  {
    "id": 985885,
    "name": "Kwaggafontein",
    "lat": -25.32729,
    "lng": 28.94224
  },
  {
    "id": 974670,
    "name": "Mondlo",
    "lat": -27.98299,
    "lng": 30.71769
  },
  {
    "id": 1014489,
    "name": "Butterworth",
    "lat": -32.33083,
    "lng": 28.14981
  },
  {
    "id": 964406,
    "name": "Port Shepstone",
    "lat": -30.74137,
    "lng": 30.45499
  },
  {
    "id": 948130,
    "name": "Trichardt",
    "lat": -26.49155,
    "lng": 29.22878
  },
  {
    "id": 970341,
    "name": "Nkowakowa",
    "lat": -23.88782,
    "lng": 30.28708
  },
  {
    "id": 8030223,
    "name": "Musina",
    "lat": -22.34881,
    "lng": 30.04074
  },
  {
    "id": 968665,
    "name": "Modimolle",
    "lat": -24.7,
    "lng": 28.4
  },
  {
    "id": 12718846,
    "name": "Letlhabile",
    "lat": -25.48238,
    "lng": 27.83925
  },
  {
    "id": 981158,
    "name": "Lydenburg",
    "lat": -25.09598,
    "lng": 30.44393
  },
  {
    "id": 11204446,
    "name": "Mankweng",
    "lat": -23.88384,
    "lng": 29.70557
  },
  {
    "id": 1004303,
    "name": "Ficksburg",
    "lat": -28.872,
    "lng": 27.87506
  },
  {
    "id": 938457,
    "name": "Wolmaransstad",
    "lat": -27.1974,
    "lng": 25.98311
  },
  {
    "id": 1006834,
    "name": "Edenvale",
    "lat": -26.14095,
    "lng": 28.15247
  },
  {
    "id": 1005029,
    "name": "eSikhaleni",
    "lat": -28.87097,
    "lng": 31.89961
  },
  {
    "id": 977975,
    "name": "Matsulu",
    "lat": -25.52297,
    "lng": 31.35693
  },
  {
    "id": 1021396,
    "name": "Balfour",
    "lat": -26.66331,
    "lng": 28.59016
  },
  {
    "id": 3359741,
    "name": "Vredenburg",
    "lat": -32.90719,
    "lng": 17.98997
  },
  {
    "id": 1020641,
    "name": "Beaufort West",
    "lat": -32.35671,
    "lng": 22.58295
  },
  {
    "id": 1023309,
    "name": "Aliwal North",
    "lat": -30.69366,
    "lng": 26.71141
  },
  {
    "id": 955313,
    "name": "Siyabuswa",
    "lat": -25.11319,
    "lng": 29.04454
  },
  {
    "id": 1012600,
    "name": "Cradock",
    "lat": -32.16422,
    "lng": 25.61918
  },
  {
    "id": 943032,
    "name": "Volksrust",
    "lat": -27.36541,
    "lng": 29.88175
  },
  {
    "id": 3364346,
    "name": "Malmesbury",
    "lat": -33.4608,
    "lng": 18.72714
  },
  {
    "id": 11204552,
    "name": "Mkhuhlu",
    "lat": -24.98776,
    "lng": 31.2385
  },
  {
    "id": 940424,
    "name": "Wesselsbron",
    "lat": -27.8549,
    "lng": 26.36583
  },
  {
    "id": 12718813,
    "name": "Lebowakgomo",
    "lat": -24.31457,
    "lng": 29.50078
  },
  {
    "id": 3369129,
    "name": "Ceres",
    "lat": -33.36889,
    "lng": 19.31095
  },
  {
    "id": 1015504,
    "name": "Bronkhorstspruit",
    "lat": -25.81015,
    "lng": 28.74248
  },
  {
    "id": 956507,
    "name": "Senekal",
    "lat": -28.31971,
    "lng": 27.62082
  },
  {
    "id": 983065,
    "name": "Leslie",
    "lat": -26.36737,
    "lng": 28.9189
  },
  {
    "id": 964712,
    "name": "Plettenberg Bay",
    "lat": -34.05274,
    "lng": 23.3716
  },
  {
    "id": 8063456,
    "name": "Mandeni",
    "lat": -29.14691,
    "lng": 31.41403
  },
  {
    "id": 3367513,
    "name": "Grabouw",
    "lat": -34.15152,
    "lng": 19.01509
  },
  {
    "id": 11204240,
    "name": "Lukwatini",
    "lat": -26.05501,
    "lng": 30.82292
  },
  {
    "id": 1001860,
    "name": "Giyani",
    "lat": -23.30246,
    "lng": 30.71868
  },
  {
    "id": 1014306,
    "name": "Calcutta",
    "lat": -24.98317,
    "lng": 31.23485
  },
  {
    "id": 951650,
    "name": "Stutterheim",
    "lat": -32.57076,
    "lng": 27.42396
  },
  {
    "id": 1007140,
    "name": "Dwarsloop",
    "lat": -24.79456,
    "lng": 31.10277
  },
  {
    "id": 995094,
    "name": "Humansdorp",
    "lat": -34.02903,
    "lng": 24.76912
  },
  {
    "id": 949282,
    "name": "Theunissen",
    "lat": -28.41098,
    "lng": 26.70107
  },
  {
    "id": 949683,
    "name": "Thabazimbi",
    "lat": -24.59165,
    "lng": 27.41155
  },
  {
    "id": 978895,
    "name": "Margate",
    "lat": -30.8636,
    "lng": 30.37052
  },
  {
    "id": 1012413,
    "name": "Cullinan",
    "lat": -25.67088,
    "lng": 28.52364
  },
  {
    "id": 940509,
    "name": "Wembesi",
    "lat": -29.04912,
    "lng": 29.78232
  },
  {
    "id": 940186,
    "name": "Whittlesea",
    "lat": -32.17588,
    "lng": 26.82437
  },
  {
    "id": 1023713,
    "name": "Acornhoek",
    "lat": -24.5878,
    "lng": 31.09467
  },
  {
    "id": 1018673,
    "name": "Bloemhof",
    "lat": -27.64685,
    "lng": 25.60697
  },
  {
    "id": 997751,
    "name": "Harrismith",
    "lat": -28.27276,
    "lng": 29.12946
  },
  {
    "id": 3362349,
    "name": "Robertson",
    "lat": -33.80342,
    "lng": 19.88537
  },
  {
    "id": 972803,
    "name": "Mtubatuba",
    "lat": -28.41789,
    "lng": 32.18483
  },
  {
    "id": 1005544,
    "name": "Empangeni",
    "lat": -28.76197,
    "lng": 31.89329
  },
  {
    "id": 997140,
    "name": "Heilbron",
    "lat": -27.28115,
    "lng": 27.9709
  },
  {
    "id": 993910,
    "name": "Jeffreys Bay",
    "lat": -34.04526,
    "lng": 24.92146
  },
  {
    "id": 995202,
    "name": "Howick",
    "lat": -29.47795,
    "lng": 30.23057
  },
  {
    "id": 962330,
    "name": "Richmond",
    "lat": -29.87196,
    "lng": 30.27235
  },
  {
    "id": 1011632,
    "name": "De Aar",
    "lat": -30.64966,
    "lng": 24.0123
  },
  {
    "id": 946257,
    "name": "Ulundi",
    "lat": -28.33523,
    "lng": 31.41617
  },
  {
    "id": 1023287,
    "name": "Allanridge",
    "lat": -27.75431,
    "lng": 26.64382
  },
  {
    "id": 8604906,
    "name": "Hartbeestfontein-A",
    "lat": -25.44141,
    "lng": 27.51114
  },
  {
    "id": 11428880,
    "name": "Lebohang",
    "lat": -26.37945,
    "lng": 28.92112
  },
  {
    "id": 8629684,
    "name": "Marapong",
    "lat": -23.65506,
    "lng": 27.62495
  },
  {
    "id": 1003763,
    "name": "Frankfort",
    "lat": -27.27888,
    "lng": 28.49696
  },
  {
    "id": 964432,
    "name": "Port Alfred",
    "lat": -33.58601,
    "lng": 26.88329
  },
  {
    "id": 985015,
    "name": "Ladybrand",
    "lat": -29.19448,
    "lng": 27.45739
  },
  {
    "id": 973139,
    "name": "Mpophomeni",
    "lat": -29.56822,
    "lng": 30.18618
  },
  {
    "id": 964363,
    "name": "Postmasburg",
    "lat": -28.33392,
    "lng": 23.06541
  },
  {
    "id": 972206,
    "name": "Mookgophong",
    "lat": -24.51667,
    "lng": 28.71667
  },
  {
    "id": 12750584,
    "name": "Nhlazatje",
    "lat": -26.04027,
    "lng": 30.79268
  },
  {
    "id": 1008261,
    "name": "Driefontein",
    "lat": -26.96501,
    "lng": 30.43571
  },
  {
    "id": 1014747,
    "name": "Bultfontein",
    "lat": -28.28756,
    "lng": 26.14996
  },
  {
    "id": 1021360,
    "name": "Ballitoville",
    "lat": -29.53897,
    "lng": 31.21439
  },
  {
    "id": 956232,
    "name": "Shakaskraal",
    "lat": -29.44931,
    "lng": 31.21532
  },
  {
    "id": 996930,
    "name": "Hendrina",
    "lat": -26.15881,
    "lng": 29.71528
  },
  {
    "id": 997678,
    "name": "Hartbeespoort",
    "lat": -25.7287,
    "lng": 27.87
  },
  {
    "id": 12718812,
    "name": "Praktiseer",
    "lat": -24.58398,
    "lng": 30.31684
  },
  {
    "id": 944531,
    "name": "Ventersdorp",
    "lat": -26.31401,
    "lng": 26.82223
  },
  {
    "id": 1004962,
    "name": "Estcourt",
    "lat": -29.01269,
    "lng": 29.86619
  },
  {
    "id": 1009863,
    "name": "Dimbaza",
    "lat": -32.83483,
    "lng": 27.21742
  },
  {
    "id": 8604596,
    "name": "Retreat",
    "lat": -34.05515,
    "lng": 18.47617
  },
  {
    "id": 938694,
    "name": "White River",
    "lat": -25.33177,
    "lng": 31.01166
  },
  {
    "id": 1022982,
    "name": "Amandelbult",
    "lat": -24.81811,
    "lng": 27.29659
  },
  {
    "id": 11204695,
    "name": "Kamaqhekeza",
    "lat": -25.67031,
    "lng": 31.86288
  },
  {
    "id": 985011,
    "name": "Lady Frere",
    "lat": -31.70312,
    "lng": 27.2329
  },
  {
    "id": 1013550,
    "name": "Christiana",
    "lat": -27.91402,
    "lng": 25.16111
  },
  {
    "id": 8030233,
    "name": "Midstream",
    "lat": -25.91849,
    "lng": 28.19881
  },
  {
    "id": 12718757,
    "name": "Phomolong",
    "lat": -28.01274,
    "lng": 27.08234
  },
  {
    "id": 1007514,
    "name": "Duiwelskloof",
    "lat": -23.69339,
    "lng": 30.14002
  },
  {
    "id": 962847,
    "name": "Reitz",
    "lat": -27.80138,
    "lng": 28.42726
  },
  {
    "id": 956878,
    "name": "Scottburgh",
    "lat": -30.28666,
    "lng": 30.75316
  },
  {
    "id": 994432,
    "name": "Itsoseng",
    "lat": -26.08159,
    "lng": 25.88124
  },
  {
    "id": 1000937,
    "name": "Gonubie",
    "lat": -32.94433,
    "lng": 28.01496
  },
  {
    "id": 11204123,
    "name": "Marikana",
    "lat": -25.699,
    "lng": 27.47475
  },
  {
    "id": 987648,
    "name": "Koster",
    "lat": -25.86301,
    "lng": 26.89756
  },
  {
    "id": 1010962,
    "name": "Deneysville",
    "lat": -26.8908,
    "lng": 28.09707
  },
  {
    "id": 957178,
    "name": "Schoemansdal",
    "lat": -25.70866,
    "lng": 31.51025
  },
  {
    "id": 12718837,
    "name": "Redhill",
    "lat": -26.26074,
    "lng": 30.82545
  },
  {
    "id": 1000006,
    "name": "Greytown",
    "lat": -29.06415,
    "lng": 30.59279
  },
  {
    "id": 996918,
    "name": "Hennenman",
    "lat": -27.97654,
    "lng": 27.02423
  },
  {
    "id": 954161,
    "name": "Somerset East",
    "lat": -32.72173,
    "lng": 25.58804
  },
  {
    "id": 976358,
    "name": "Middelburg",
    "lat": -31.49285,
    "lng": 25.00633
  },
  {
    "id": 997718,
    "name": "Hartbeesfontein",
    "lat": -26.76566,
    "lng": 26.42024
  },
  {
    "id": 974738,
    "name": "Moloto South",
    "lat": -25.46279,
    "lng": 28.65041
  },
  {
    "id": 967238,
    "name": "Ottosdal",
    "lat": -26.80908,
    "lng": 26.00538
  },
  {
    "id": 3359736,
    "name": "Vredendal",
    "lat": -31.66833,
    "lng": 18.50119
  },
  {
    "id": 974222,
    "name": "Mooi River",
    "lat": -29.20824,
    "lng": 29.9946
  },
  {
    "id": 966380,
    "name": "Pampierstad",
    "lat": -27.78324,
    "lng": 24.68768
  },
  {
    "id": 1023366,
    "name": "Hlanganani",
    "lat": -24.95911,
    "lng": 31.17025
  },
  {
    "id": 944380,
    "name": "Verena",
    "lat": -25.48251,
    "lng": 29.02763
  },
  {
    "id": 942701,
    "name": "Vrede",
    "lat": -27.42573,
    "lng": 29.16585
  },
  {
    "id": 7730334,
    "name": "Lephalale",
    "lat": -23.66607,
    "lng": 27.74477
  },
  {
    "id": 1013266,
    "name": "Hlohlolwane",
    "lat": -28.91588,
    "lng": 27.56957
  },
  {
    "id": 1001736,
    "name": "Glencoe",
    "lat": -28.17827,
    "lng": 30.14702
  },
  {
    "id": 950709,
    "name": "Swellendam",
    "lat": -34.02262,
    "lng": 20.44171
  },
  {
    "id": 943937,
    "name": "Villiers",
    "lat": -27.03026,
    "lng": 28.60061
  },
  {
    "id": 1013067,
    "name": "Coligny",
    "lat": -26.33172,
    "lng": 26.32065
  },
  {
    "id": 988290,
    "name": "Komatipoort",
    "lat": -25.43321,
    "lng": 31.95478
  },
  {
    "id": 956767,
    "name": "Secunda",
    "lat": -26.55,
    "lng": 29.16667
  },
  {
    "id": 946128,
    "name": "eMkhomazi",
    "lat": -30.20672,
    "lng": 30.79641
  },
  {
    "id": 13527189,
    "name": "Mafemani",
    "lat": -24.78864,
    "lng": 31.07938
  },
  {
    "id": 1014012,
    "name": "Carolina",
    "lat": -26.06927,
    "lng": 30.11489
  },
  {
    "id": 1020340,
    "name": "Belfast",
    "lat": -25.68991,
    "lng": 30.03504
  },
  {
    "id": 963525,
    "name": "Queensdale",
    "lat": -31.87101,
    "lng": 26.97862
  },
  {
    "id": 3367877,
    "name": "Franschhoek",
    "lat": -33.91075,
    "lng": 19.1198
  },
  {
    "id": 945141,
    "name": "Vaalwater",
    "lat": -24.2957,
    "lng": 28.11415
  },
  {
    "id": 11205753,
    "name": "Ncotshane",
    "lat": -27.342,
    "lng": 31.58
  },
  {
    "id": 12718836,
    "name": "Vaalbank",
    "lat": -25.15226,
    "lng": 28.85563
  },
  {
    "id": 946010,
    "name": "eMuziwezinto",
    "lat": -30.31002,
    "lng": 30.66275
  },
  {
    "id": 961152,
    "name": "Riversdale",
    "lat": -34.09345,
    "lng": 21.25725
  },
  {
    "id": 995573,
    "name": "Hoopstad",
    "lat": -27.83273,
    "lng": 25.90833
  },
  {
    "id": 1014653,
    "name": "Burgersdorp",
    "lat": -30.99766,
    "lng": 26.32862
  },
  {
    "id": 937136,
    "name": "Zeerust",
    "lat": -25.53695,
    "lng": 26.07512
  },
  {
    "id": 12718811,
    "name": "Tshitereke",
    "lat": -22.88416,
    "lng": 30.49358
  },
  {
    "id": 986717,
    "name": "Kruisfontein",
    "lat": -34.00333,
    "lng": 24.73142
  },
  {
    "id": 958441,
    "name": "Sabie",
    "lat": -25.0999,
    "lng": 30.78001
  },
  {
    "id": 937246,
    "name": "Zastron",
    "lat": -30.30225,
    "lng": 27.08395
  },
  {
    "id": 1015776,
    "name": "Bredasdorp",
    "lat": -34.53215,
    "lng": 20.04031
  },
  {
    "id": 978677,
    "name": "Marquard",
    "lat": -28.66449,
    "lng": 27.43048
  },
  {
    "id": 1008064,
    "name": "Driekoppies",
    "lat": -25.69776,
    "lng": 31.564
  },
  {
    "id": 1013199,
    "name": "Clydesdale",
    "lat": -30.29831,
    "lng": 29.93772
  },
  {
    "id": 990825,
    "name": "Kinross",
    "lat": -26.41663,
    "lng": 29.08668
  },
  {
    "id": 987202,
    "name": "Kriel",
    "lat": -26.25,
    "lng": 29.26
  },
  {
    "id": 974611,
    "name": "Montagu",
    "lat": -33.78664,
    "lng": 20.12106
  },
  {
    "id": 12718754,
    "name": "Ndevana",
    "lat": -32.90769,
    "lng": 27.50973
  },
  {
    "id": 1023332,
    "name": "Alice",
    "lat": -32.78749,
    "lng": 26.8344
  },
  {
    "id": 999602,
    "name": "Groot-Brakrivier",
    "lat": -34.04368,
    "lng": 22.22574
  },
  {
    "id": 941931,
    "name": "Warrenton",
    "lat": -28.11396,
    "lng": 24.84753
  },
  {
    "id": 12718835,
    "name": "Tekwane",
    "lat": -25.47776,
    "lng": 31.14559
  },
  {
    "id": 12718756,
    "name": "Tshiame",
    "lat": -28.33057,
    "lng": 28.99087
  },
  {
    "id": 1005040,
    "name": "Eshowe",
    "lat": -28.88649,
    "lng": 31.4699
  },
  {
    "id": 942683,
    "name": "Vredefort",
    "lat": -27.00805,
    "lng": 27.3646
  },
  {
    "id": 946973,
    "name": "Tzaneen",
    "lat": -23.83322,
    "lng": 30.16351
  },
  {
    "id": 12718868,
    "name": "Le Roux",
    "lat": -33.89058,
    "lng": 19.10328
  },
  {
    "id": 1005781,
    "name": "Khowa",
    "lat": -31.33306,
    "lng": 27.85
  },
  {
    "id": 1015694,
    "name": "Breyten",
    "lat": -26.30176,
    "lng": 29.98696
  },
  {
    "id": 11204214,
    "name": "Ga-Malakhe",
    "lat": -30.8063,
    "lng": 30.33484
  },
  {
    "id": 939608,
    "name": "Winburg",
    "lat": -28.51805,
    "lng": 27.00933
  },
  {
    "id": 3369179,
    "name": "Caledon",
    "lat": -34.22997,
    "lng": 19.4265
  },
  {
    "id": 987875,
    "name": "Koppies",
    "lat": -27.24179,
    "lng": 27.57422
  },
  {
    "id": 12718789,
    "name": "Frischgewaagd",
    "lat": -27.38985,
    "lng": 30.95469
  },
  {
    "id": 946932,
    "name": "Ugie",
    "lat": -31.19809,
    "lng": 28.23351
  },
  {
    "id": 12718768,
    "name": "Bagale",
    "lat": -26.06566,
    "lng": 27.64765
  },
  {
    "id": 984012,
    "name": "Leeudoringstad",
    "lat": -27.23712,
    "lng": 26.23514
  },
  {
    "id": 979910,
    "name": "Makwassie",
    "lat": -27.31564,
    "lng": 25.99497
  },
  {
    "id": 949026,
    "name": "Thulamahashi",
    "lat": -24.72459,
    "lng": 31.19939
  },
  {
    "id": 1022145,
    "name": "Ashton",
    "lat": -33.83136,
    "lng": 20.05595
  },
  {
    "id": 3367804,
    "name": "Gansbaai",
    "lat": -34.58301,
    "lng": 19.35048
  },
  {
    "id": 973527,
    "name": "Tlokoeng",
    "lat": -30.69268,
    "lng": 28.5061
  },
  {
    "id": 12718834,
    "name": "Thubelihle",
    "lat": -26.21551,
    "lng": 29.29164
  },
  {
    "id": 12718833,
    "name": "Daggakraal",
    "lat": -27.13246,
    "lng": 29.97635
  },
  {
    "id": 1014322,
    "name": "Cala",
    "lat": -31.52356,
    "lng": 27.6952
  },
  {
    "id": 12750601,
    "name": "Fernie",
    "lat": -26.39015,
    "lng": 30.78742
  },
  {
    "id": 11282157,
    "name": "Malamulele",
    "lat": -22.97111,
    "lng": 30.67361
  },
  {
    "id": 969698,
    "name": "Northam",
    "lat": -24.95775,
    "lng": 27.26543
  },
  {
    "id": 1003843,
    "name": "Fouriesburg",
    "lat": -28.61961,
    "lng": 28.20966
  },
  {
    "id": 1015969,
    "name": "Winnie Mandela",
    "lat": -28.70025,
    "lng": 26.4581
  },
  {
    "id": 965571,
    "name": "Mamafubedu",
    "lat": -27.66606,
    "lng": 28.13132
  },
  {
    "id": 3363957,
    "name": "Moorreesburg",
    "lat": -33.15388,
    "lng": 18.66031
  },
  {
    "id": 7302802,
    "name": "Rondebosch",
    "lat": -33.96333,
    "lng": 18.47639
  },
  {
    "id": 1007061,
    "name": "Dysselsdorp",
    "lat": -33.57565,
    "lng": 22.44391
  },
  {
    "id": 12718832,
    "name": "Empuluzu",
    "lat": -26.30497,
    "lng": 30.77365
  }
]