[
  {
    "id": 890299,
    "name": "Harare",
    "lat": -17.82772,
    "lng": 31.05337
  },
  {
    "id": 894701,
    "name": "Bulawayo",
    "lat": -20.15,
    "lng": 28.58333
  },
  {
    "id": 1106542,
    "name": "Chitungwiza",
    "lat": -18.01274,
    "lng": 31.07555
  },
  {
    "id": 884979,
    "name": "Mutare",
    "lat": -18.9707,
    "lng": 32.67086
  },
  {
    "id": 890422,
    "name": "Gweru",
    "lat": -19.45,
    "lng": 29.81667
  },
  {
    "id": 888710,
    "name": "Kwekwe",
    "lat": -18.92809,
    "lng": 29.81486
  },
  {
    "id": 889453,
    "name": "Kadoma",
    "lat": -18.33328,
    "lng": 29.91534
  },
  {
    "id": 882009,
    "name": "Ruwa",
    "lat": -17.88972,
    "lng": 31.24472
  },
  {
    "id": 893697,
    "name": "Chinhoyi",
    "lat": -17.36667,
    "lng": 30.2
  },
  {
    "id": 886763,
    "name": "Masvingo",
    "lat": -20.06373,
    "lng": 30.82766
  },
  {
    "id": 884141,
    "name": "Norton",
    "lat": -17.88333,
    "lng": 30.7
  },
  {
    "id": 886990,
    "name": "Marondera",
    "lat": -18.18527,
    "lng": 31.55193
  },
  {
    "id": 894239,
    "name": "Chegutu",
    "lat": -18.13021,
    "lng": 30.14074
  },
  {
    "id": 878549,
    "name": "Zvishavane",
    "lat": -20.32674,
    "lng": 30.06648
  },
  {
    "id": 895269,
    "name": "Beitbridge",
    "lat": -22.21667,
    "lng": 30.0
  },
  {
    "id": 895061,
    "name": "Bindura",
    "lat": -17.30192,
    "lng": 31.33056
  },
  {
    "id": 882599,
    "name": "Redcliff",
    "lat": -19.03333,
    "lng": 29.78333
  },
  {
    "id": 893485,
    "name": "Chiredzi",
    "lat": -21.05,
    "lng": 31.66667
  },
  {
    "id": 889942,
    "name": "Hwange",
    "lat": -18.36446,
    "lng": 26.49877
  },
  {
    "id": 882100,
    "name": "Rusape",
    "lat": -18.52785,
    "lng": 32.12843
  },
  {
    "id": 889191,
    "name": "Karoi",
    "lat": -16.80993,
    "lng": 29.69247
  },
  {
    "id": 879431,
    "name": "Victoria Falls",
    "lat": -17.93285,
    "lng": 25.83066
  },
  {
    "id": 893549,
    "name": "Chipinge",
    "lat": -20.18833,
    "lng": 32.62365
  },
  {
    "id": 890983,
    "name": "Gokwe",
    "lat": -18.20476,
    "lng": 28.9349
  },
  {
    "id": 889215,
    "name": "Kariba",
    "lat": -16.51667,
    "lng": 28.8
  },
  {
    "id": 890516,
    "name": "Gwanda",
    "lat": -20.93622,
    "lng": 29.00698
  },
  {
    "id": 881164,
    "name": "Shurugwi",
    "lat": -19.67016,
    "lng": 30.00589
  },
  {
    "id": 884798,
    "name": "Mvurwi",
    "lat": -17.03333,
    "lng": 30.85
  },
  {
    "id": 13132735,
    "name": "Harare Western Suburbs",
    "lat": -17.8415,
    "lng": 30.87674
  }
]