[
  {
    "id": 890299,
    "name": "Harare",
    "lat": -17.82772,
    "lng": 31.05337
  },
  {
    "id": 894701,
    "name": "Bulawayo",
    "lat": -20.15,
    "lng": 28.58333
  },
  {
    "id": 1106542,
    "name": "Chitungwiza",
    "lat": -18.01274,
    "lng": 31.07555
  },
  {
    "id": 884979,
    "name": "Mutare",
    "lat": -18.9707,
    "lng": 32.67086
  },
  {
    "id": 890422,
    "name": "Gweru",
    "lat": -19.45,
    "lng": 29.81667
  },
  {
    "id": 888710,
    "name": "Kwekwe",
    "lat": -18.92809,
    "lng": 29.81486
  },
  {
    "id": 889453,
    "name": "Kadoma",
    "lat": -18.33328,
    "lng": 29.91534
  },
  {
    "id": 882009,
    "name": "Ruwa",
    "lat": -17.88972,
    "lng": 31.24472
  },
  {
    "id": 893697,
    "name": "Chinhoyi",
    "lat": -17.36667,
    "lng": 30.2
  },
  {
    "id": 886763,
    "name": "Masvingo",
    "lat": -20.06373,
    "lng": 30.82766
  },
  {
    "id": 884141,
    "name": "Norton",
    "lat": -17.88333,
    "lng": 30.7
  },
  {
    "id": 886990,
    "name": "Marondera",
    "lat": -18.18527,
    "lng": 31.55193
  },
  {
    "id": 894239,
    "name": "Chegutu",
    "lat": -18.13021,
    "lng": 30.14074
  },
  {
    "id": 878549,
    "name": "Zvishavane",
    "lat": -20.32674,
    "lng": 30.06648
  },
  {
    "id": 895269,
    "name": "Beitbridge",
    "lat": -22.21667,
    "lng": 30.0
  },
  {
    "id": 895061,
    "name": "Bindura",
    "lat": -17.30192,
    "lng": 31.33056
  },
  {
    "id": 882599,
    "name": "Redcliff",
    "lat": -19.03333,
    "lng": 29.78333
  },
  {
    "id": 893485,
    "name": "Chiredzi",
    "lat": -21.05,
    "lng": 31.66667
  },
  {
    "id": 889942,
    "name": "Hwange",
    "lat": -18.36446,
    "lng": 26.49877
  },
  {
    "id": 882100,
    "name": "Rusape",
    "lat": -18.52785,
    "lng": 32.12843
  },
  {
    "id": 889191,
    "name": "Karoi",
    "lat": -16.80993,
    "lng": 29.69247
  },
  {
    "id": 879431,
    "name": "Victoria Falls",
    "lat": -17.93285,
    "lng": 25.83066
  },
  {
    "id": 893549,
    "name": "Chipinge",
    "lat": -20.18833,
    "lng": 32.62365
  },
  {
    "id": 890983,
    "name": "Gokwe",
    "lat": -18.20476,
    "lng": 28.9349
  },
  {
    "id": 889215,
    "name": "Kariba",
    "lat": -16.51667,
    "lng": 28.8
  },
  {
    "id": 890516,
    "name": "Gwanda",
    "lat": -20.93622,
    "lng": 29.00698
  },
  {
    "id": 881164,
    "name": "Shurugwi",
    "lat": -19.67016,
    "lng": 30.00589
  },
  {
    "id": 884798,
    "name": "Mvurwi",
    "lat": -17.03333,
    "lng": 30.85
  },
  {
    "id": 13132735,
    "name": "Harare Western Suburbs",
    "lat": -17.8415,
    "lng": 30.87674
  },
  {
    "id": 882859,
    "name": "Plumtree",
    "lat": -20.48333,
    "lng": 27.81667
  },
  {
    "id": 886864,
    "name": "Mashava",
    "lat": -20.03665,
    "lng": 30.48225
  },
  {
    "id": 893172,
    "name": "Chivhu",
    "lat": -19.02112,
    "lng": 30.89218
  },
  {
    "id": 884927,
    "name": "Mutoko",
    "lat": -17.39699,
    "lng": 32.22677
  },
  {
    "id": 885159,
    "name": "Murewa",
    "lat": -17.64322,
    "lng": 31.784
  },
  {
    "id": 881345,
    "name": "Shamva",
    "lat": -17.31159,
    "lng": 31.57561
  },
  {
    "id": 886384,
    "name": "Mazowe",
    "lat": -17.50404,
    "lng": 30.97388
  },
  {
    "id": 895417,
    "name": "Banket",
    "lat": -17.38333,
    "lng": 30.4
  },
  {
    "id": 891099,
    "name": "Glendale",
    "lat": -17.35514,
    "lng": 31.06718
  },
  {
    "id": 889723,
    "name": "Inyati",
    "lat": -19.67563,
    "lng": 28.84687
  },
  {
    "id": 882955,
    "name": "Penhalonga",
    "lat": -18.89112,
    "lng": 32.69781
  },
  {
    "id": 886146,
    "name": "Mhangura",
    "lat": -16.89387,
    "lng": 30.16828
  },
  {
    "id": 894413,
    "name": "Chakari",
    "lat": -18.06294,
    "lng": 29.89246
  },
  {
    "id": 885800,
    "name": "Mount Darwin",
    "lat": -16.77251,
    "lng": 31.58381
  },
  {
    "id": 892876,
    "name": "Concession",
    "lat": -17.38333,
    "lng": 30.95
  },
  {
    "id": 883481,
    "name": "Nyanga",
    "lat": -18.21667,
    "lng": 32.75
  },
  {
    "id": 884814,
    "name": "Mvuma",
    "lat": -19.27924,
    "lng": 30.52828
  },
  {
    "id": 895057,
    "name": "Binga",
    "lat": -17.62027,
    "lng": 27.34139
  },
  {
    "id": 881331,
    "name": "Shangani",
    "lat": -19.78333,
    "lng": 29.36667
  },
  {
    "id": 888089,
    "name": "Macheke",
    "lat": -18.13901,
    "lng": 31.84933
  },
  {
    "id": 883183,
    "name": "Odzi",
    "lat": -18.96167,
    "lng": 32.40557
  },
  {
    "id": 894460,
    "name": "Centenary",
    "lat": -16.72289,
    "lng": 31.11462
  },
  {
    "id": 892440,
    "name": "Dete",
    "lat": -18.61667,
    "lng": 26.86667
  },
  {
    "id": 13132736,
    "name": "Mhangura Mine",
    "lat": -16.89196,
    "lng": 30.15902
  },
  {
    "id": 893813,
    "name": "Chimanimani",
    "lat": -19.8,
    "lng": 32.86667
  },
  {
    "id": 889795,
    "name": "Insiza",
    "lat": -19.78333,
    "lng": 29.2
  },
  {
    "id": 891699,
    "name": "Esigodini",
    "lat": -20.28979,
    "lng": 28.92261
  },
  {
    "id": 888225,
    "name": "Lupane",
    "lat": -18.93149,
    "lng": 27.80696
  },
  {
    "id": 883258,
    "name": "Nyazura",
    "lat": -18.70587,
    "lng": 32.16796
  },
  {
    "id": 882722,
    "name": "Raffingora",
    "lat": -17.03333,
    "lng": 30.43333
  },
  {
    "id": 893397,
    "name": "Chirundu",
    "lat": -16.03333,
    "lng": 28.85
  },
  {
    "id": 891515,
    "name": "Filabusi",
    "lat": -20.53333,
    "lng": 29.28502
  },
  {
    "id": 890242,
    "name": "Headlands",
    "lat": -18.27733,
    "lng": 32.0515
  },
  {
    "id": 892156,
    "name": "Dorowa Mining Lease",
    "lat": -19.06667,
    "lng": 31.75
  },
  {
    "id": 895308,
    "name": "Beatrice",
    "lat": -18.25283,
    "lng": 30.8473
  },
  {
    "id": 889390,
    "name": "Kamativi Mine",
    "lat": -18.31563,
    "lng": 27.05729
  },
  {
    "id": 888667,
    "name": "Lalapanzi",
    "lat": -19.33225,
    "lng": 30.17768
  },
  {
    "id": 887997,
    "name": "Madziwa",
    "lat": -16.91667,
    "lng": 31.53333
  }
]